<?xml version="1.0" encoding="UTF-8" standalone="no"?>
<photos monument="Aqueduct of Segovia">

<photo  date_taken="2011-10-02 16:52:45" description="" id="6317629777" latitude="40.948066" license="1" longitude="-4.117555" nbComments="0" rank="1" tags="aqueductbridge aqueductofsegovia castiellayllión castileandleón castillayleón españa romanaqueduct segovia segoviaprovence spain unesco unescoworldheritagesite aqueduct" title="aqueduct shadow" url_b="http://static.flickr.com/6040/6317629777_6c1b0162a2_b.jpg" username="1yen" views="18" />
<photo  date_taken="2011-10-02 16:40:46" description="" id="6317634919" latitude="40.948066" license="1" longitude="-4.117555" nbComments="0" rank="2" tags="aqueductbridge aqueductofsegovia castiellayllión castileandleón castillayleón españa romanaqueduct segovia segoviaprovence spain unesco unescoworldheritagesite aqueduct bw blackwhite" title="Segovia" url_b="http://static.flickr.com/6055/6317634919_82f216ec61_b.jpg" username="1yen" views="20" />
<photo  date_taken="2011-10-02 16:52:04" description="" id="6317628005" latitude="40.948066" license="1" longitude="-4.117555" nbComments="0" rank="3" tags="aqueductbridge aqueductofsegovia castiellayllión castileandleón castillayleón españa romanaqueduct segovia segoviaprovence spain unesco unescoworldheritagesite aqueduct" title="cathedral through the aqueduct" url_b="http://static.flickr.com/6112/6317628005_52067bb560_b.jpg" username="1yen" views="19" />
<photo  date_taken="2011-10-02 17:11:23" description="" id="6317636279" latitude="40.948066" license="1" longitude="-4.117555" nbComments="1" rank="4" tags="aqueductbridge aqueductofsegovia castiellayllión castileandleón castillayleón españa romanaqueduct segovia segoviaprovence spain unesco unescoworldheritagesite aqueduct splittone sunburst silhouette" title="Aqueduct sunburst" url_b="http://static.flickr.com/6111/6317636279_10f4c92d48_b.jpg" username="1yen" views="59" />
<photo  date_taken="2011-10-02 16:54:50" description="" id="6318150534" latitude="40.948066" license="1" longitude="-4.117555" nbComments="1" rank="5" tags="aqueductbridge aqueductofsegovia castiellayllión castileandleón castillayleón españa romanaqueduct segovia segoviaprovence spain unesco unescoworldheritagesite aqueduct" title="black cat" url_b="http://static.flickr.com/6231/6318150534_0e390ac882_b.jpg" username="1yen" views="17" />
<photo  date_taken="2011-10-02 17:06:57" description="" id="6317632517" latitude="40.948066" license="1" longitude="-4.117555" nbComments="0" rank="6" tags="aqueductbridge aqueductofsegovia castiellayllión castileandleón castillayleón españa romanaqueduct segovia segoviaprovence spain unesco unescoworldheritagesite aqueduct" title="Aqueduct of Segovia" url_b="http://static.flickr.com/6057/6317632517_4007331073_b.jpg" username="1yen" views="40" />
<photo  date_taken="2007-10-20 19:02:43" description="A view through one of the arches of he Acueducto de Segovia" id="2965956262" latitude="40.948046" license="3" longitude="-4.11748" nbComments="0" rank="7" tags="spain segovia architecture arch roman aqueduct engineering masonry españa dioramasky" title="Acueducto de Segovia" url_b="http://static.flickr.com/3047/2965956262_da5a97f6c2_b.jpg" username="Diorama Sky" views="17" />
<photo  date_taken="2012-07-18 21:57:52" description="西班牙 卡斯蒂利亚-莱昂地区 塞戈维亚 Segovia, Castile Leon, Spain 建于公元1世纪的古罗马高架引水桥是塞戈维亚的标志，也是迄今保护最完整的罗马帝国古迹之一。 Aqueduct of Segovia was built in the 1st centry by Roman" id="8046162151" latitude="40.947869" license="3" longitude="-4.117901" nbComments="0" rank="8" tags="day outdoor city ef70200mmf4lisusm" title="热气球 / Baloon" url_b="http://static.flickr.com/8176/8046162151_142e640d00_b.jpg" username="randomix" views="79" />
<photo  date_taken="2012-07-18 22:00:02" description="西班牙 卡斯蒂利亚-莱昂地区 塞戈维亚 Segovia, Castile Leon, Spain 建于公元1世纪的古罗马高架引水桥是塞戈维亚的标志，也是迄今保护最完整的罗马帝国古迹之一。 Aqueduct of Segovia was built in the 1st centry by Roman" id="8046170304" latitude="40.94783" license="3" longitude="-4.118028" nbComments="0" rank="9" tags="day outdoor city ef70200mmf4lisusm" title="我想环游世界 / Flyover" url_b="http://static.flickr.com/8458/8046170304_0c791bfc08_b.jpg" username="randomix" views="44" />
<photo  date_taken="2012-05-02 15:10:51" description="The Aqueduct of Segovia (or more precisely, the aqueduct bridge) is a Roman aqueduct and one of the most significant and best-preserved ancient monuments left on the Iberian Peninsula. It is the foremost symbol of Segovia, as evidenced by its presence on the city's coat of arms. Wikipedia" id="6997359208" latitude="40.947677" license="3" longitude="-4.117394" nbComments="3" rank="10" tags="castillayleón españa europa segovia spain europe javiercorbo corbo canoneos7d eos7d viajar viajes travel dzoom xatakafoto canonistas flickr madrid elmundo mundo elpais fotografia foto photo photography lonelyplanet urban city building edificio arquitectura architecture arte street people gente granvia streetphotography flickriver candid streetphotographer" title="Acueducto de Segovia" url_b="http://static.flickr.com/8010/6997359208_2009fce564_b.jpg" username="Javier Corbo" views="322" />
<photo  date_taken="2007-06-25 17:28:57" description="Segovia is a very old city in Spain. Famous for its cathedral and its bi-millenium aqueduct which is in a very good shape. Here is a view of stairs lighten and contrasted by the shadow of its impressive Roman building. I liked patterns emerging from this shot in black and white, I hope you like it too. Best rendered in &lt;a href=&quot;http://farm2.static.flickr.com/1201/698096241_b0152f3a53_b.jpg&quot;&gt;bigger&lt;/a&gt;." id="698096241" latitude="40.947653" license="1" longitude="-4.117383" nbComments="10" rank="11" tags="segovia spain espana españa europe aqueduct shadow bw explored" title="Aqueduct's shades" url_b="http://static.flickr.com/1201/698096241_6164d41a88_b.jpg" username="Éole" views="508" />
<photo  date_taken="2012-07-18 11:01:55" description="西班牙 卡斯蒂利亚-莱昂地区 塞戈维亚 Segovia, Castile Leon, Spain 建于公元1世纪的古罗马高架引水桥是塞戈维亚的标志，也是迄今保护最完整的罗马帝国古迹之一。 Aqueduct of Segovia was built in the 1st centry by Roman" id="8046150781" latitude="40.947814" license="3" longitude="-4.118183" nbComments="0" rank="12" tags="day sunset city outdoor ef1635mmf28liiusm" title="夕照 / Sunset" url_b="http://static.flickr.com/8321/8046150781_c4756b24dc_b.jpg" username="randomix" views="73" />
<photo  date_taken="2011-10-02 11:32:08" description="what an incredible piece of engineering built by the Romans in the 1-2 century AD...this stuff is built to last!" id="6303687824" latitude="40.94852" license="1" longitude="-4.117673" nbComments="0" rank="13" tags="castiellayllión castileandleón castillayleón españa segovia segoviaprovence spain aqueductbridge aqueductofsegovia romanaqueduct unesco unescoworldheritagesite aqueduct" title="Aqueduct of Segovia" url_b="http://static.flickr.com/6103/6303687824_fa3dbc819a_b.jpg" username="1yen" views="29" />
<photo  date_taken="2011-10-02 11:29:28" description="I love this structure..." id="6306691657" latitude="40.94852" license="1" longitude="-4.117673" nbComments="0" rank="14" tags="castiellayllión castileandleón castillayleón españa segovia segoviaprovence spain aqueductbridge aqueductofsegovia romanaqueduct unesco unescoworldheritagesite aqueduct" title="Roman Aqueduct" url_b="http://static.flickr.com/6104/6306691657_0cde771b07_b.jpg" username="1yen" views="64" />
<photo  date_taken="2011-10-02 11:33:54" description="" id="6303168243" latitude="40.94852" license="1" longitude="-4.117673" nbComments="0" rank="15" tags="castiellayllión castileandleón castillayleón españa segovia segoviaprovence spain aqueductofsegovia aqueductbridge romanaqueduct unesco unescoworldheritagesite aqueduct" title="learning to say Aqueduct" url_b="http://static.flickr.com/6100/6303168243_59dee6d5fa_b.jpg" username="1yen" views="30" />
<photo  date_taken="2012-07-18 11:20:55" description="西班牙 卡斯蒂利亚-莱昂地区 塞戈维亚 Segovia, Castile Leon, Spain 建于公元1世纪的古罗马高架引水桥是塞戈维亚的标志，也是迄今保护最完整的罗马帝国古迹之一。 Aqueduct of Segovia was built in the 1st centry by Roman" id="8046160444" latitude="40.948541" license="3" longitude="-4.117608" nbComments="0" rank="16" tags="day sunset city outdoor ef70200mmf4lisusm" title="余晖 / The last ray of light" url_b="http://static.flickr.com/8462/8046160444_747a0978ca_b.jpg" username="randomix" views="43" />
<photo  date_taken="2012-07-18 11:03:24" description="西班牙 卡斯蒂利亚-莱昂地区 塞戈维亚 Segovia, Castile Leon, Spain 建于公元1世纪的古罗马高架引水桥是塞戈维亚的标志，也是迄今保护最完整的罗马帝国古迹之一。 Aqueduct of Segovia was built in the 1st centry by Roman" id="8046153135" latitude="40.947793" license="3" longitude="-4.11829" nbComments="0" rank="17" tags="day sunset city outdoor ef70200mmf4lisusm" title="拱形 / Arcs" url_b="http://static.flickr.com/8170/8046153135_91651a3439_b.jpg" username="randomix" views="49" />
<photo  date_taken="2012-07-18 09:50:22" description="西班牙 卡斯蒂利亚-莱昂地区 塞戈维亚 Segovia, Castile Leon, Spain 建于公元1世纪的古罗马高架引水桥是塞戈维亚的标志，也是迄今保护最完整的罗马帝国古迹之一。 Aqueduct of Segovia was built in the 1st centry by Roman" id="8046154944" latitude="40.948606" license="3" longitude="-4.118231" nbComments="0" rank="18" tags="day outdoor city carlzeiss 蔡司 planart50mmf14 50mm" title="巨大的阴影 / Huge shadows" url_b="http://static.flickr.com/8036/8046154944_835bec9ea9_b.jpg" username="randomix" views="45" />
<photo  date_taken="2012-07-18 22:19:57" description="西班牙 卡斯蒂利亚-莱昂地区 塞戈维亚 Segovia, Castile Leon, Spain 建于公元1世纪的古罗马高架引水桥是塞戈维亚的标志，也是迄今保护最完整的罗马帝国古迹之一。 Aqueduct of Segovia was built in the 1st centry by Roman" id="8046171788" latitude="40.948701" license="3" longitude="-4.11819" nbComments="0" rank="19" tags="day outdoor city ef70200mmf4lisusm" title="我想环游世界 / Flyover" url_b="http://static.flickr.com/8171/8046171788_8c7579f51b_b.jpg" username="randomix" views="60" />
<photo  date_taken="2011-01-22 21:18:49" description="The Aqueduct of Segovia (or more precisely, the aqueduct bridge) is a Roman aqueduct and one of the most significant and best-preserved ancient monuments left on the Iberian Peninsula. It is the foremost symbol of Segovia, as evidenced by its presence on the city's coat of arms [Wikipedia]. HDR from five bracketed exposures (1EV step) on a tripod. -------------------------------------------------------------------------------------------------------------------- El Acueducto de Segovia es la obra de ingeniería civil romana más importante de España y uno de los monumentos más significativos y mejor conservados de los que dejaron los romanos en la península Ibérica. Se trata probablemente del símbolo más importante para los habitantes de Segovia, hasta el punto de figurar en su escudo [Wikipedia]. HDR generado de un horquillado de cinco exposiciones (paso de 1EV) sobre trípode." id="5387183086" latitude="40.948046" license="1" longitude="-4.116665" nbComments="32" rank="20" tags="aqueduct acueducto aquädukt monument monumento romano römisch roman meisterwerk ingenieurskunst ingeniería obramaestra pointarches arcosdemediopunto bogen architektur arquitectura architecture night shot nachtaufnahme nocturna segovia castileandleon castillayleon kastilienundleon españa spain spanien photoshop photomatix tone map tonemap tonemapped tonemapping hdr blancoynegro schwarzweiss blackandwhite nikon nikkor d700 1735mmf28d" title="Aqueduct – Acueducto de Segovia (Spain), HDR" url_b="http://static.flickr.com/5216/5387183086_aed5fb1049_b.jpg" username="marcp_dmoz" views="1484" />
<photo  date_taken="2012-05-02 17:51:32" description="The Aqueduct of Segovia (or more precisely, the aqueduct bridge) is a Roman aqueduct and one of the most significant and best-preserved ancient monuments left on the Iberian Peninsula. It is the foremost symbol of Segovia, as evidenced by its presence on the city's coat of arms. wikipedia" id="7143449611" latitude="40.946636" license="3" longitude="-4.115527" nbComments="3" rank="21" tags="castillayleón españa europa segovia spain europe javiercorbo corbo canoneos7d eos7d viajar viajes travel dzoom xatakafoto canonistas flickr madrid elmundo mundo elpais fotografia foto photo photography lonelyplanet urban city building edificio arquitectura architecture arte street people gente granvia streetphotography flickriver candid streetphotographer" title="Acueducto de Segovia 2" url_b="http://static.flickr.com/7094/7143449611_cc56414bf5_b.jpg" username="Javier Corbo" views="366" />
<photo  date_taken="2009-04-19 15:40:34" description="One of the best perserved Roman aqueducts Един от най-добре запазените римски акведукти" id="3915203422" latitude="40.948018" license="2" longitude="-4.117684" nbComments="7" rank="22" tags="акведукт сеговия кастилия испания aqueduct segovia castille castilla spain spanien españa" title="Aqueduct of Segovia / Акведуктът в Сеговия" url_b="http://static.flickr.com/2629/3915203422_d7dd97dc60_b.jpg" username="mitko_denev" views="179" />
<photo  date_taken="2009-04-19 15:38:29" description="One of the best perserved Roman aqueducts Един от най-добре запазените римски акведукти" id="3914417297" latitude="40.948018" license="2" longitude="-4.117684" nbComments="0" rank="23" tags="акведукт сеговия кастилия испания aqueduct segovia castille castilla spain spanien españa" title="Aqueduct of Segovia / Акведуктът в Сеговия" url_b="http://static.flickr.com/3460/3914417297_9d8b10b023_b.jpg" username="mitko_denev" views="30" />
<photo  date_taken="2009-04-19 15:37:37" description="One of the best perserved Roman aqueducts Един от най-добре запазените римски акведукти" id="3915199040" latitude="40.948018" license="2" longitude="-4.117684" nbComments="1" rank="24" tags="акведукт сеговия кастилия испания aqueduct segovia castille castilla spain spanien españa yahoo:yourpictures=europeanmonuments" title="Aqueduct of Segovia / Акведуктът в Сеговия" url_b="http://static.flickr.com/3434/3915199040_3f49e68c93_b.jpg" username="mitko_denev" views="143" />
<photo  date_taken="2009-04-19 15:38:05" description="One of the best perserved Roman aqueducts Един от най-добре запазените римски акведукти" id="3914416093" latitude="40.948018" license="2" longitude="-4.117684" nbComments="3" rank="25" tags="акведукт сеговия кастилия испания aqueduct segovia castille castilla spain spanien españa 1001nights" title="Aqueduct of Segovia / Акведуктът в Сеговия" url_b="http://static.flickr.com/2614/3914416093_b899222fcc_b.jpg" username="mitko_denev" views="54" />
<photo  date_taken="2009-04-19 15:38:41" description="One of the best perserved Roman aqueducts Един от най-добре запазените римски акведукти" id="3915202446" latitude="40.948018" license="2" longitude="-4.117684" nbComments="2" rank="26" tags="акведукт сеговия кастилия испания aqueduct segovia castille castilla spain spanien españa" title="Aqueduct of Segovia / Акведуктът в Сеговия" url_b="http://static.flickr.com/3532/3915202446_955483d1c7_b.jpg" username="mitko_denev" views="54" />
<photo  date_taken="2006-11-19 12:48:17" description="" id="348510796" latitude="40.948022" license="2" longitude="-4.117802" nbComments="0" rank="27" tags="aqueduct segovia" title="Aqueduct of Segovia" url_b="http://static.flickr.com/129/348510796_c2277aac12_b.jpg" username="Jaime Pérez" views="19" />
<photo  date_taken="2010-05-22 09:35:47" description="I took the picture of this group of Asian students because of the golden retriever that jumped into the group - you can see his tail in the front row. He was looking for food, what else?" id="4676618802" latitude="40.948002" license="1" longitude="-4.117587" nbComments="0" rank="28" tags="spain segovia aqueducts" title="Asian students aqueduct and a GR.Segovia" url_b="http://static.flickr.com/4057/4676618802_94f11d8eca_b.jpg" username="Al Wehrmann" views="13" />
<photo  date_taken="2012-07-18 09:38:48" description="西班牙 卡斯蒂利亚-莱昂地区 塞戈维亚 Segovia, Castile Leon, Spain 建于公元1世纪的古罗马高架引水桥是塞戈维亚的标志，也是迄今保护最完整的罗马帝国古迹之一。 Aqueduct of Segovia was built in the 1st centry by Roman" id="8046151848" latitude="40.948116" license="3" longitude="-4.117601" nbComments="0" rank="29" tags="day outdoor city carlzeiss 蔡司 planart50mmf14 50mm" title="我爱条纹 / Love the Stripes" url_b="http://static.flickr.com/8038/8046151848_1e1d152de7_b.jpg" username="randomix" views="51" />
<photo  date_taken="2011-12-31 14:02:28" description="" id="6919204767" latitude="40.948083" license="4" longitude="-4.117834" nbComments="0" rank="30" tags="" title="Tiles facing the Aqueduct of Segovia" url_b="http://static.flickr.com/7050/6919204767_a0ba87b2a7_b.jpg" username="Eduardo Batista" views="14" />
<photo  date_taken="2007-10-20 18:44:45" description="Detail of one of the stone blocks that comprise the Acueducto de Segovia" id="2971989739" latitude="40.948046" license="3" longitude="-4.11748" nbComments="0" rank="31" tags="spain segovia architecture arch roman aqueduct engineering construction masonry españa dioramasky" title="Dimpled Block" url_b="http://static.flickr.com/3250/2971989739_92dfed719b_b.jpg" username="Diorama Sky" views="39" />
<photo  date_taken="2007-10-20 18:45:57" description="Looking straight up under one of the arches of the Acueducto de Segovia, Segovia, Spain" id="2962586961" latitude="40.948046" license="3" longitude="-4.11748" nbComments="0" rank="32" tags="spain segovia architecture arch roman aqueduct engineering masonry españa dioramasky" title="Beneath the Arch" url_b="http://static.flickr.com/3152/2962586961_c83108698c_b.jpg" username="Diorama Sky" views="152" />
<photo  date_taken="2012-01-21 12:36:32" description="" id="6851856425" latitude="40.948046" license="5" longitude="-4.117459" nbComments="0" rank="33" tags="segovia castilla y león spain tomas fano españa aqueduct roman romano acueducto" title="Aqueduct of Segovia. Castilla y León. Spain" url_b="http://static.flickr.com/7206/6851856425_27e93634b4_b.jpg" username="Tomas Fano" views="92" />
<photo  date_taken="2012-04-01 23:15:10" description="Aqueduct of Segovia" id="7115548563" latitude="40.947913" license="2" longitude="-4.117941" nbComments="0" rank="34" tags="" title="Acueducto de Segovia" url_b="http://static.flickr.com/7211/7115548563_c9cdf9d817_b.jpg" username="Contando Estrelas" views="11" />
<photo  date_taken="2012-04-01 23:16:34" description="Aqueduct of Segovia" id="7115546121" latitude="40.947913" license="2" longitude="-4.117941" nbComments="0" rank="35" tags="" title="Acueducto de Segovia" url_b="http://static.flickr.com/7065/7115546121_a72ae49eb6_b.jpg" username="Contando Estrelas" views="7" />
<photo  date_taken="2012-04-01 23:02:47" description="Aqueduct of Segovia" id="6969463272" latitude="40.947913" license="2" longitude="-4.117941" nbComments="0" rank="36" tags="" title="Acueducto de Segovia" url_b="http://static.flickr.com/8143/6969463272_ff84fb4fe0_b.jpg" username="Contando Estrelas" views="4" />
<photo  date_taken="2012-04-01 23:00:50" description="Aqueduct of Segovia" id="7115540057" latitude="40.947913" license="2" longitude="-4.117941" nbComments="0" rank="37" tags="" title="Acueducto de Segovia" url_b="http://static.flickr.com/7072/7115540057_27686ccbda_b.jpg" username="Contando Estrelas" views="2" />
<photo  date_taken="2012-04-01 23:17:20" description="Aqueduct of Segovia" id="7115545337" latitude="40.947913" license="2" longitude="-4.117941" nbComments="0" rank="38" tags="" title="Acueducto de Segovia" url_b="http://static.flickr.com/7277/7115545337_c26b3b5d01_b.jpg" username="Contando Estrelas" views="5" />
<photo  date_taken="2012-04-01 23:13:00" description="Aqueduct of Segovia" id="6969463802" latitude="40.947913" license="2" longitude="-4.117941" nbComments="0" rank="39" tags="" title="Acueducto de Segovia" url_b="http://static.flickr.com/7253/6969463802_fcb5751268_b.jpg" username="Contando Estrelas" views="2" />
<photo  date_taken="2012-04-01 23:15:20" description="Aqueduct of Segovia" id="7115547969" latitude="40.947913" license="2" longitude="-4.117941" nbComments="0" rank="40" tags="" title="Acueducto de Segovia" url_b="http://static.flickr.com/7113/7115547969_b5b262aa86_b.jpg" username="Contando Estrelas" views="6" />
<photo  date_taken="1968-07-27 00:00:01" description="The Romans built this aqueduct some time around 100 A.D.. It is 728 m (2,392 ft) long and 28 m (92 ft) above street level. It still functions as part of the city's water supply, though water is now carried in cast iron pipes in the aqueduct's channels.." id="2687841356" latitude="40.948042" license="5" longitude="-4.117442" nbComments="0" rank="41" tags="roman aqueduct segovia spain 1968" title="Segovia - Roman Aqueduct" url_b="http://static.flickr.com/3040/2687841356_3ec6a0747d_b.jpg" username="roger4336" views="231" />
<photo  date_taken="2010-05-22 09:37:58" description="Better view of the aqueduct stretching across the plaza" id="4676619380" latitude="40.948176" license="1" longitude="-4.117437" nbComments="0" rank="42" tags="spain segovia aqueducts" title="Segovia aqueduct.1776" url_b="http://static.flickr.com/1280/4676619380_8d1c3b064a_b.jpg" username="Al Wehrmann" views="59" />
<photo  date_taken="2006-11-19 12:45:50" description="" id="348510473" latitude="40.947973" license="2" longitude="-4.117351" nbComments="0" rank="43" tags="aqueduct segovia" title="Aqueduct of Segovia" url_b="http://static.flickr.com/160/348510473_34fe426261_b.jpg" username="Jaime Pérez" views="20" />
<photo  date_taken="2012-01-21 12:38:46" description="" id="6794734247" latitude="40.948095" license="5" longitude="-4.117341" nbComments="0" rank="44" tags="aqueduct segovia castilla y león spain tomas fano" title="Aqueduct of Segovia. Castilla y León. Spain" url_b="http://static.flickr.com/7146/6794734247_21ebe37ee3_b.jpg" username="Tomas Fano" views="36" />
<photo  date_taken="2012-01-21 12:37:30" description="" id="6790820457" latitude="40.948091" license="5" longitude="-4.117319" nbComments="0" rank="45" tags="aqueduct segovia castilla y león spain españa acueducto romano roman tomas fano" title="Aqueduct of Segovia. Castilla y León. Spain" url_b="http://static.flickr.com/7006/6790820457_277ef0bc59_b.jpg" username="Tomas Fano" views="64" />
<photo  date_taken="2006-04-15 17:37:27" description="[ES] El famoso acueducto de Segovia, uno de los monumentos de la epoca romana más importantes de la península ibérica [EN] The famous Aqueduct of Segovia, one of the roman monument more important in the iberic peninsula" id="4304510565" latitude="40.948314" license="1" longitude="-4.11807" nbComments="1" rank="46" tags="acueducto segovia" title="Acueducto de Segovia" url_b="http://static.flickr.com/2756/4304510565_d64ebbf7e6_b.jpg" username="Fercuesta" views="135" />
<photo  date_taken="2007-09-21 12:45:53" description="One end of the aqueduct is in the right of the picture." id="1430414016" latitude="40.94774" license="1" longitude="-4.118122" nbComments="0" rank="47" tags="vacation segovia spain" title="Building near the aqueduct" url_b="http://static.flickr.com/1012/1430414016_d83fe42239_b.jpg" username="John A. Debay" views="30" />
<photo  date_taken="2009-07-07 17:09:15" description="&lt;a href=&quot;http://en.wikipedia.org/wiki/Aqueduct_of_Segovia&quot; rel=&quot;nofollow&quot;&gt;en.wikipedia.org/wiki/Aqueduct_of_Segovia&lt;/a&gt;" id="3732254156" latitude="40.948107" license="1" longitude="-4.117206" nbComments="0" rank="48" tags="spain vacation segovia aqueduct stones castillayleon" title="Aqueduct" url_b="http://static.flickr.com/2514/3732254156_75524ea083_b.jpg" username="mlibrarianus" views="13" />
<photo  date_taken="2009-07-07 17:07:32" description="There were hundreds of house martins flying around the aqueduct. &lt;a href=&quot;http://en.wikipedia.org/wiki/Aqueduct_of_Segovia&quot; rel=&quot;nofollow&quot;&gt;en.wikipedia.org/wiki/Aqueduct_of_Segovia&lt;/a&gt;" id="3732253176" latitude="40.948107" license="1" longitude="-4.117206" nbComments="0" rank="49" tags="spain vacation segovia aqueduct housemartins birds arches stones castillayleon" title="Aqueduct and House Martins" url_b="http://static.flickr.com/2437/3732253176_c8ddeb0863_b.jpg" username="mlibrarianus" views="24" />
<photo  date_taken="2009-07-07 17:18:00" description="&lt;a href=&quot;http://en.wikipedia.org/wiki/Aqueduct_of_Segovia&quot; rel=&quot;nofollow&quot;&gt;en.wikipedia.org/wiki/Aqueduct_of_Segovia&lt;/a&gt;" id="3731456263" latitude="40.948107" license="1" longitude="-4.117206" nbComments="0" rank="50" tags="spain vacation segovia castillayleon" title="Pointy Uppy Bits (my husband's description)" url_b="http://static.flickr.com/2606/3731456263_fe29e8a986_b.jpg" username="mlibrarianus" views="38" />
<photo  date_taken="2009-07-07 17:05:18" description="&lt;a href=&quot;http://en.wikipedia.org/wiki/Aqueduct_of_Segovia&quot; rel=&quot;nofollow&quot;&gt;en.wikipedia.org/wiki/Aqueduct_of_Segovia&lt;/a&gt;" id="3732252774" latitude="40.948107" license="1" longitude="-4.117206" nbComments="0" rank="51" tags="spain vacation segovia wolf roma shewolf romulus remus castillayleon" title="Statue to Rome" url_b="http://static.flickr.com/2455/3732252774_b5116b2d8e_b.jpg" username="mlibrarianus" views="44" />
<photo  date_taken="2009-07-07 17:12:22" description="&lt;a href=&quot;http://en.wikipedia.org/wiki/Aqueduct_of_Segovia&quot; rel=&quot;nofollow&quot;&gt;en.wikipedia.org/wiki/Aqueduct_of_Segovia&lt;/a&gt;" id="3731455563" latitude="40.948107" license="1" longitude="-4.117206" nbComments="0" rank="52" tags="spain vacation segovia aqueduct stones city castillayleon" title="City Beyond" url_b="http://static.flickr.com/3494/3731455563_a7e9fbc173_b.jpg" username="mlibrarianus" views="13" />
<photo  date_taken="2009-07-07 17:26:27" description="&lt;a href=&quot;http://en.wikipedia.org/wiki/Aqueduct_of_Segovia&quot; rel=&quot;nofollow&quot;&gt;en.wikipedia.org/wiki/Aqueduct_of_Segovia&lt;/a&gt;" id="3732255798" latitude="40.948107" license="1" longitude="-4.117206" nbComments="0" rank="53" tags="spain vacation segovia aqueduct coatofarms castillayleon" title="Aqueduct Coat of Arms" url_b="http://static.flickr.com/2490/3732255798_190ca0c7d5_b.jpg" username="mlibrarianus" views="39" />
<photo  date_taken="2009-07-07 17:16:09" description="&lt;a href=&quot;http://en.wikipedia.org/wiki/Aqueduct_of_Segovia&quot; rel=&quot;nofollow&quot;&gt;en.wikipedia.org/wiki/Aqueduct_of_Segovia&lt;/a&gt;" id="3732255016" latitude="40.948107" license="1" longitude="-4.117206" nbComments="0" rank="54" tags="spain vacation segovia aqueduct stones mountains arches castillayleon" title="Segovia's Aqueduct" url_b="http://static.flickr.com/2498/3732255016_d1ae5bc607_b.jpg" username="mlibrarianus" views="50" />
<photo  date_taken="2009-07-07 17:08:02" description="&lt;a href=&quot;http://en.wikipedia.org/wiki/Aqueduct_of_Segovia&quot; rel=&quot;nofollow&quot;&gt;en.wikipedia.org/wiki/Aqueduct_of_Segovia&lt;/a&gt;" id="3732253612" latitude="40.948107" license="1" longitude="-4.117206" nbComments="0" rank="55" tags="spain vacation segovia aqueduct arches stone castillayleon" title="Arches to the sky" url_b="http://static.flickr.com/3506/3732253612_46227f1700_b.jpg" username="mlibrarianus" views="43" />
<photo  date_taken="2012-04-01 15:38:39" description="Reproducción de la estatua de la diosa Luperca amamantando a Rómulo y Remo. La estatua original en los Museos Capitolinos de Roma. Esta copia fue donada por Roma a la ciudad de Segovia en 1974, coincidiendo con el bimilenario del formidable acueducto romano de esa capital castellana. La estatua se encuentra ubicada precisamente tras el acueducto. &lt;b&gt;The Capitoline Wolf&lt;/b&gt; Copy of the statue of the goddess Luperca suckling Romulus and Remus. The original statue is in the Capitoline Museums in Rome. This copy was donated by Rome to the city of Segovia in 1974, coinciding with the second millennium of the formidable Roman aqueduct of the Castillian capital. The statue is located just behind the aqueduct." id="6929120826" latitude="40.948237" license="2" longitude="-4.116986" nbComments="0" rank="56" tags="" title="La Loba Capitolina" url_b="http://static.flickr.com/7074/6929120826_ecceaff002_b.jpg" username="Contando Estrelas" views="26" />
<photo  date_taken="2011-04-21 14:54:50" description="Monumento a Rómulo y Remo, fundadores de Roma, y a la legendaria Loba Capitolina que les amamantó. La estatua fue regalada por Roma a la ciudad de Segovia (Castilla y León, España), ante cuyo acueducto se sitúa hoy en día. El monumento fue inaugurado el 20 julio de 1974. Es la copia de una estatua de bronce etrusco del siglo V antes de Cristo, conservada en los Museos Capitolinos de Roma. &lt;b&gt;Capitoline Wolf&lt;/b&gt; Monument to Romulus and Remus, founders of Rome, and the legendary Capitoline Wolf that suckled them. The statue was given by Rome to the city of Segovia (Castilla y León, Spain), at whose aqueduct stands today. The monument was inaugurated on July 20th 1974. It is a copy of an Etruscan bronze statue of V century BC, preserved in the Capitoline Museums in Rome." id="5783451317" latitude="40.948237" license="2" longitude="-4.116986" nbComments="0" rank="57" tags="" title="Loba Capitolina" url_b="http://static.flickr.com/2292/5783451317_a38cc5891a_b.jpg" username="Contando Estrelas" views="131" />
<photo  date_taken="2012-08-22 21:49:28" description="Read more about our trip to Spain (and a little bit of France + Italy!) &lt;a href=&quot;http://jorpins.blogspot.kr/2012/09/the-southern-spain-trip-my-top-five.html&quot; rel=&quot;nofollow&quot;&gt;here&lt;/a&gt;" id="8061448989" latitude="40.947175" license="2" longitude="-4.117673" nbComments="0" rank="58" tags="aqueduct segovia spain travel europe" title="Aqueduct, Segovia" url_b="http://static.flickr.com/8033/8061448989_5d3b3e7204_b.jpg" username="ejorpin" views="3" />
<photo  date_taken="2012-08-22 21:47:52" description="Read more about our trip to Spain (and a little bit of France + Italy!) &lt;a href=&quot;http://jorpins.blogspot.kr/2012/09/the-southern-spain-trip-my-top-five.html&quot; rel=&quot;nofollow&quot;&gt;here&lt;/a&gt;" id="8061449913" latitude="40.947175" license="2" longitude="-4.117673" nbComments="0" rank="59" tags="aqueduct segovia spain travel europe" title="Aqueduct, Segovia" url_b="http://static.flickr.com/8181/8061449913_4e0767442f_b.jpg" username="ejorpin" views="5" />
<photo  date_taken="2006-11-19 12:52:43" description="" id="348511043" latitude="40.948747" license="2" longitude="-4.118338" nbComments="0" rank="60" tags="aqueduct segovia" title="Aqueduct of Segovia" url_b="http://static.flickr.com/153/348511043_b40e266219_b.jpg" username="Jaime Pérez" views="17" />
<photo  date_taken="2006-11-19 12:55:30" description="" id="348512071" latitude="40.948747" license="2" longitude="-4.118338" nbComments="0" rank="61" tags="aqueduct segovia" title="Aqueduct of Segovia" url_b="http://static.flickr.com/155/348512071_cfb8ccac57_b.jpg" username="Jaime Pérez" views="11" />
<photo  date_taken="2006-11-19 12:53:20" description="" id="348511301" latitude="40.948747" license="2" longitude="-4.118338" nbComments="1" rank="62" tags="aqueduct segovia" title="Aqueduct of Segovia" url_b="http://static.flickr.com/158/348511301_cc28410fb7_b.jpg" username="Jaime Pérez" views="19" />
<photo  date_taken="2006-11-19 12:57:07" description="" id="348512348" latitude="40.949011" license="2" longitude="-4.118145" nbComments="0" rank="63" tags="aqueduct segovia" title="Aqueduct of Segovia" url_b="http://static.flickr.com/135/348512348_311db2a948_b.jpg" username="Jaime Pérez" views="9" />
<photo  date_taken="2012-07-18 09:28:45" description="西班牙 卡斯蒂利亚-莱昂地区 塞戈维亚 Segovia, Castile Leon, Spain 建于公元1世纪的古罗马高架引水桥是塞戈维亚的标志，也是迄今保护最完整的罗马帝国古迹之一。 Aqueduct of Segovia was built in the 1st centry by Roman." id="8046143251" latitude="40.949425" license="3" longitude="-4.117116" nbComments="0" rank="64" tags="day outdoor city carlzeiss 蔡司 planart50mmf14 50mm" title="古罗马水渠 / El Acueducto" url_b="http://static.flickr.com/8040/8046143251_5a2e92f708_b.jpg" username="randomix" views="47" />
<photo  date_taken="2006-11-19 12:36:32" description="" id="348509450" latitude="40.948395" license="2" longitude="-4.116085" nbComments="0" rank="65" tags="aqueduct segovia" title="Aqueduct of Segovia" url_b="http://static.flickr.com/150/348509450_ab851a4b94_b.jpg" username="Jaime Pérez" views="25" />
<photo  date_taken="2006-11-19 16:38:56" description="" id="348525692" latitude="40.948545" license="2" longitude="-4.115452" nbComments="0" rank="66" tags="aqueduct segovia" title="Aqueduct of Segovia" url_b="http://static.flickr.com/132/348525692_54a076cafe_b.jpg" username="Jaime Pérez" views="30" />
<photo  date_taken="1993-09-04 14:00:02" description="For some reason every time I see this photo I think of working in this building tossing and flipping pizza dough... Probably the Roman &amp;amp; Italian influence even though this is Spain!!" id="2234593054" latitude="40.942807" license="3" longitude="-4.108597" nbComments="0" rank="67" tags="aqueduct pizza roman archeology segovia spain espana europe europa travel españa" title="Pizzas" url_b="http://static.flickr.com/2174/2234593054_b881c684bb_b.jpg" username="Brisan" views="79" />
<photo  date_taken="1993-09-04 14:00:03" description="With a lot of help from the locals. Segovia prides itself on maintaining its aqueduct. It was under repair when we visited in 1993. Without the pride locals have in maintaining it, the aqueduct would be nothing more than ruins." id="2234593010" latitude="40.942807" license="3" longitude="-4.108597" nbComments="0" rank="68" tags="roman aqueduct archeology segovia spain espana europe europa travel españa" title="Withstanding the Test of Time" url_b="http://static.flickr.com/2120/2234593010_2bcfdbac8e_b.jpg" username="Brisan" views="67" />
</photos>
