<?xml version="1.0" encoding="UTF-8" standalone="no"?>
<photos monument="Big Ben">

<photo  date_taken="2011-05-28 06:24:45" description="@ Big Ben &lt;a href=&quot;http://4sq.com/jY8mDr&quot; rel=&quot;nofollow&quot;&gt;4sq.com/jY8mDr&lt;/a&gt; (posted via FlickSquare)" id="5767272397" latitude="51.500595" license="4" longitude="-0.124648" nbComments="1" rank="1" tags="uploaded:by=flicksquare foursquare:venue=4ac518cef964a520f6a520e3 geo:lat=51500595 geo:lon=0124648" title="&quot;Hey kids, Big Ben, Parliamemt!&quot;" url_b="http://static.flickr.com/5308/5767272397_08e52955b8_b.jpg" username="dpstyles™" views="245" />
<photo  date_taken="2009-11-17 06:51:52" description="" id="4183181166" latitude="51.500614" license="4" longitude="-0.124637" nbComments="0" rank="2" tags="bigben clock england london" title="Big Ben clock tower London, England" url_b="http://static.flickr.com/2509/4183181166_723e1165cc_b.jpg" username="elias_daniel" views="19" />
<photo  date_taken="2010-04-01 13:16:11" description="big ben Londra, aprile 2010" id="4965232695" latitude="51.500583" license="3" longitude="-0.124634" nbComments="0" rank="3" tags="2010 bigben journey london londra uk house parlament thames tamigi parlamento" title="House of Parlament from Thames river" url_b="http://static.flickr.com/4092/4965232695_03fab9bce1_b.jpg" username="s:c:m:photo" views="9" />
<photo  date_taken="2007-06-10 07:53:03" description="" id="538983712" latitude="51.500628" license="3" longitude="-0.124636" nbComments="0" rank="4" tags="gordmckenna europe london uk unitedkingdon attractions gord mckenna" title="Big Ben 2007" url_b="http://static.flickr.com/1230/538983712_d01147cff8_b.jpg" username="Gord McKenna" views="34" />
<photo  date_taken="2008-07-28 16:02:45" description="von 1860" id="2805679258" latitude="51.500635" license="3" longitude="-0.124626" nbComments="0" rank="5" tags="cityofwestminster fenchurchstreet geotagged grosbritannien england london housesofparliament geo:lat=5150063517 geo:lon=012462617 groãbritannien gbr" title="Houses of Parliament und Big Ben" url_b="http://static.flickr.com/3117/2805679258_c6551878df_b.jpg" username="lessi2306" views="34" />
<photo  date_taken="2012-09-18 07:35:57" description="Central (touristic) London lamp posts remind me of Marvin the Martian of cartoon fame. &lt;a href=&quot;http://en.wikipedia.org/wiki/File:Marvinthemartain.jpg&quot; rel=&quot;nofollow&quot;&gt;en.wikipedia.org/wiki/File:Marvinthemartain.jpg&lt;/a&gt;" id="8050484893" latitude="51.500622" license="1" longitude="-0.1247" nbComments="0" rank="6" tags="parliament palaceofwestminster bigben clock clocktowers clocktowerslamp lamppost london england unitedkingdom gbr" title="Big Ben and Sentry" url_b="http://static.flickr.com/8179/8050484893_d814c836c8_b.jpg" username="Erich Kesse" views="15" />
<photo  date_taken="2010-05-22 13:52:02" description="" id="5490210943" latitude="51.500555" license="2" longitude="-0.124626" nbComments="0" rank="7" tags="travel europe london unitedkingdom cityscape england city afsdxvrzoomnikkor18105mmf3556ged" title="Houses of Parliament &amp; Big Ben" url_b="http://static.flickr.com/5218/5490210943_c8008b5101_b.jpg" username="mimschi" views="17" />
<photo  date_taken="2012-09-18 07:31:52" description="" id="8050485657" latitude="51.500613" license="1" longitude="-0.124706" nbComments="0" rank="8" tags="parliament palaceofwestminster bigben clock clocktowers london england unitedkingdom gbr" title="Big Ben &amp; the big blue sky" url_b="http://static.flickr.com/8175/8050485657_15c44cc966_b.jpg" username="Erich Kesse" views="17" />
<photo  date_taken="2007-02-05 11:14:02" description="" id="2453074293" latitude="51.500622" license="4" longitude="-0.1246" nbComments="0" rank="9" tags="england london uk united kingdom klontzas 2007 february clock tower bigben" title="Big Ben_6" url_b="http://static.flickr.com/2117/2453074293_86baf57600_b.jpg" username="George M. Groutas" views="17" />
<photo  date_taken="2011-07-14 18:14:55" description="" id="5937865289" latitude="51.500541" license="1" longitude="-0.124669" nbComments="0" rank="10" tags="instagramapp square squareformat iphoneography uploaded:by=instagram sutro foursquare:venue=4adf3f57f964a520ad7821e3" title="look, kids, parliament! big ben!" url_b="http://static.flickr.com/6131/5937865289_39c2755e7d_b.jpg" username="pakyouare" views="4" />
<photo  date_taken="2011-04-04 14:44:54" description="" id="5588409557" latitude="51.500541" license="6" longitude="-0.124669" nbComments="0" rank="11" tags="instagramapp square squareformat iphoneography uploaded:by=instagram lomofi foursquare:venue=204040" title="Big Ben" url_b="http://static.flickr.com/5256/5588409557_c3f359c57c_b.jpg" username="tonyhall" views="9" />
<photo  date_taken="2012-11-29 17:37:03" description="Big Ben &amp;amp; Big Bus" id="8229305963" latitude="51.500661" license="4" longitude="-0.124615" nbComments="0" rank="12" tags="london nikon d7000 bigben" title="4Bs" url_b="http://static.flickr.com/8490/8229305963_de856d7d59_b.jpg" username="fivaz" views="26" />
<photo  date_taken="2012-11-05 06:39:22" description="" id="8159239335" latitude="51.500675" license="3" longitude="-0.124636" nbComments="2" rank="13" tags="noticings gds" title="06:39 Big Ben" url_b="http://static.flickr.com/8337/8159239335_a08f2df639_b.jpg" username="Ben Terrett" views="12" />
<photo  date_taken="2010-02-22 14:47:46" description="" id="4404439952" latitude="51.500613" license="5" longitude="-0.124562" nbComments="1" rank="14" tags="london palaceofwestminster" title="Big Ben" url_b="http://static.flickr.com/4011/4404439952_3d4855ffce_b.jpg" username="DaveCrosby" views="13" />
<photo  date_taken="2010-02-22 14:57:47" description="" id="4403691823" latitude="51.500613" license="5" longitude="-0.124562" nbComments="3" rank="15" tags="london bigben westminster" title="Big Ben Clock Tower" url_b="http://static.flickr.com/4039/4403691823_118711de05_b.jpg" username="DaveCrosby" views="64" />
<photo  date_taken="2010-02-22 15:03:04" description="" id="4403694303" latitude="51.500613" license="5" longitude="-0.124562" nbComments="0" rank="16" tags="london bigben westminster" title="Big Ben" url_b="http://static.flickr.com/4065/4403694303_2d945d88c8_b.jpg" username="DaveCrosby" views="20" />
<photo  date_taken="2012-02-03 13:56:41" description="" id="6872533847" latitude="51.500685" license="4" longitude="-0.124615" nbComments="0" rank="17" tags="" title="Big Ben at 12 pm!" url_b="http://static.flickr.com/7210/6872533847_2d2075b226_b.jpg" username="MilkyInken" views="24" />
<photo  date_taken="2011-06-03 17:54:07" description="" id="5849243365" latitude="51.500688" license="3" longitude="-0.124615" nbComments="0" rank="18" tags="london clocktower bigben architecture canon canoneos500d efs 1855mm f3556 is” canonefs1855mmf3556is" title="The Clock Tower" url_b="http://static.flickr.com/3366/5849243365_f145f0b250_b.jpg" username="Kiwien" views="16" />
<photo  date_taken="2011-09-23 13:36:03" description="" id="7601807122" latitude="51.500701" license="4" longitude="-0.124658" nbComments="7" rank="19" tags="bigben uk flickr" title="Big Ben, London" url_b="http://static.flickr.com/8011/7601807122_cb06c73a2b_b.jpg" username="Ben124." views="150" />
<photo  date_taken="2011-09-23 13:34:36" description="" id="7601809348" latitude="51.500688" license="4" longitude="-0.124593" nbComments="12" rank="20" tags="bigben london uk flickr" title="Big Ben, London" url_b="http://static.flickr.com/7263/7601809348_1641387641_b.jpg" username="Ben124." views="130" />
<photo  date_taken="2013-02-09 15:12:21" description="" id="8460057508" latitude="51.500688" license="1" longitude="-0.124583" nbComments="0" rank="21" tags="london westminster england unitedkingdom uk greatbritain britain gb clocktower elizabethtower bigben charlesberry clock time bell chime tower parliament palaceofwestminster neogothic whitehall" title="1413" url_b="http://static.flickr.com/8515/8460057508_75a502bbc0_b.jpg" username="christopher_brown" views="29" />
<photo  date_taken="2011-10-23 19:06:44" description="Anche un orologio fermo segna l'ora giusta due volte al giorno. Hermann Hesse" id="6343812264" latitude="51.500711" license="6" longitude="-0.12462" nbComments="36" rank="22" tags="bigben londonvintage cityofwestminster housesofparliament uk clocktower gothicarchitecture greatbell geometry" title="{Big Ben}" url_b="http://static.flickr.com/6097/6343812264_1ec1b8636f_b.jpg" username="Cristian Roberti" views="242" />
<photo  date_taken="2008-10-18 14:43:27" description="Big Ben" id="2970093182" latitude="51.500721" license="5" longitude="-0.124636" nbComments="0" rank="23" tags="london england uk bigben" title="London, England" url_b="http://static.flickr.com/3152/2970093182_68312e919e_b.jpg" username="Nigel's Europe" views="34" />
<photo  date_taken="2012-11-15 12:00:34" description="Big Ben! Photo from our two-week long Europe vacation. November 14th, 2012 to November 28th, 2012. We ended up going to London, Paris, Amsterdam, and Barcelona." id="8290418162" latitude="51.500727" license="3" longitude="-0.124684" nbComments="0" rank="24" tags="london vacation europetrip2012 unitedkingdom travel" title="013-DSC00284" url_b="http://static.flickr.com/8218/8290418162_bb1e272891_b.jpg" username="Dave Schumaker" views="12" />
<photo  date_taken="2012-11-15 12:04:31" description="Big Ben! Photo from our two-week long Europe vacation. November 14th, 2012 to November 28th, 2012. We ended up going to London, Paris, Amsterdam, and Barcelona." id="8290419248" latitude="51.500727" license="3" longitude="-0.124684" nbComments="0" rank="25" tags="london vacation europetrip2012 unitedkingdom travel" title="015-DSC00287" url_b="http://static.flickr.com/8359/8290419248_b7beb6046a_b.jpg" username="Dave Schumaker" views="12" />
<photo  date_taken="2005-12-11 16:27:13" description="" id="84955997" latitude="51.500728" license="6" longitude="-0.124615" nbComments="0" rank="26" tags="england london bigben westminster housesofparliament" title="Big Ben and a moody sky" url_b="http://static.flickr.com/36/84955997_ddc9f6fb4a_b.jpg" username="StartAgain" views="51" />
<photo  date_taken="2010-03-27 20:09:09" description="3D anaglyph picture red blue glasses to view photo Big Ben London. Of course Londoners know this is St Stephens Clock tower and it's only the bell inside Bell is called Big Ben, but everyone knows this as Big Ben" id="4468053804" latitude="51.500735" license="3" longitude="-0.124647" nbComments="0" rank="27" tags="unitedkingdom united uk tower stereoscopic stereophotography stereophoto stereo glasses redcyan redblue nikon london kingdom geotagged famous england architecture building british anaglyphic anaglyph 3d bigben clock 3dphoto redblueglasses redcyanglasses 3dstereoimage anaglyph3d anaglifo 3dphotograph 3dpicture anaglyphic3d stereoview ttw 3dstereopicture 3danaglyph stereoscopy 3dimensional fuji finepix w1 w3 real3d" title="Big Ben London in anaglyph 3D stereo red blue / cyan glasses to view" url_b="http://static.flickr.com/2761/4468053804_22fe895ffd_b.jpg" username="3dstereopics" views="941" />
<photo  date_taken="2012-02-03 13:58:05" description="" id="6872534757" latitude="51.500655" license="4" longitude="-0.124529" nbComments="0" rank="28" tags="bigben london 2012" title="Big Ben in London" url_b="http://static.flickr.com/7052/6872534757_86f9fc4d38_b.jpg" username="MilkyInken" views="7" />
<photo  date_taken="1992-05-01 13:23:45" description="" id="8333581397" latitude="51.500701" license="1" longitude="-0.124561" nbComments="0" rank="29" tags="london bigben film 1992" title="Big Ben" url_b="http://static.flickr.com/8496/8333581397_a1a43ff08e_b.jpg" username="Crawford Brian" views="8" />
<photo  date_taken="2010-09-11 12:17:49" description="" id="4993116937" latitude="51.500701" license="4" longitude="-0.124551" nbComments="0" rank="30" tags="londres london" title="Big Ben" url_b="http://static.flickr.com/4131/4993116937_5de5258465_b.jpg" username="Jérémy Couture" views="4" />
<photo  date_taken="2009-10-17 16:36:32" description="This is famous world over. It it Big Ben, the clock tower of the Palace of Westminster. The clock that makes big bongs every hour. Big Ben is next to the House of Commons in the Palace of Westminster. The whole Palace is a Grade I listed building and a World Heritage Site. The tower was renamed Elizabeth Tower from September 2012, in honour of the Queen's Diamond Jubilee." id="4062239434" latitude="51.500735" license="4" longitude="-0.124604" nbComments="2" rank="31" tags="london cityofwestminster palaceofwestminster housesofparliament houseofcommons houseoflords gradeilisted gradeilistedbuilding worldheritagesite bigben parliamentsquare england unitedkingdom greatbritain unesco unescoworldheritagesite greaterlondon elizabethtower" title="Big Ben - Palace of Westminster" url_b="http://static.flickr.com/2477/4062239434_e2a464d145_b.jpg" username="ell brown" views="90" />
<photo  date_taken="2009-10-17 16:34:32" description="This is famous world over. It it Big Ben, the clock tower of the Palace of Westminster. The clock that makes big bongs every hour. Big Ben is next to the House of Commons in the Palace of Westminster. The whole Palace is a Grade I listed building and a World Heritage Site. &lt;a href=&quot;http://whc.unesco.org/en/list/426&quot; rel=&quot;nofollow&quot;&gt;Westminster Palace- World Heritage Site&lt;/a&gt; The tower was renamed Elizabeth Tower from September 2012, in honour of the Queen's Diamond Jubilee." id="4061499537" latitude="51.500735" license="4" longitude="-0.124604" nbComments="0" rank="32" tags="london cityofwestminster palaceofwestminster housesofparliament houseofcommons houseoflords gradeilisted gradeilistedbuilding worldheritagesite bigben parliamentsquare england unitedkingdom greatbritain unesco unescoworldheritagesite greaterlondon elizabethtower" title="Big Ben - Palace of Westminster" url_b="http://static.flickr.com/2803/4061499537_b0487292f0_b.jpg" username="ell brown" views="65" />
<photo  date_taken="2009-10-17 16:35:39" description="This is famous world over. It it Big Ben, the clock tower of the Palace of Westminster. The clock that makes big bongs every hour. Big Ben is next to the House of Commons in the Palace of Westminster. The whole Palace is a Grade I listed building and a World Heritage Site. The tower was renamed Elizabeth Tower from September 2012, in honour of the Queen's Diamond Jubilee." id="4062251374" latitude="51.500735" license="4" longitude="-0.124604" nbComments="0" rank="33" tags="london cityofwestminster palaceofwestminster housesofparliament houseofcommons houseoflords gradeilisted gradeilistedbuilding worldheritagesite bigben parliamentsquare england unitedkingdom greatbritain unesco unescoworldheritagesite greaterlondon elizabethtower" title="Big Ben - Palace of Westminster" url_b="http://static.flickr.com/2700/4062251374_f138f25784_b.jpg" username="ell brown" views="57" />
<photo  date_taken="2009-10-17 16:34:04" description="This is famous world over. It it Big Ben, the clock tower of the Palace of Westminster. The clock that makes big bongs every hour. Big Ben is next to the House of Commons in the Palace of Westminster. The whole Palace is a Grade I listed building and a World Heritage Site. The tower was renamed Elizabeth Tower from September 2012, in honour of the Queen's Diamond Jubilee." id="4061496855" latitude="51.500735" license="4" longitude="-0.124604" nbComments="0" rank="34" tags="london cityofwestminster palaceofwestminster housesofparliament houseofcommons houseoflords gradeilisted gradeilistedbuilding worldheritagesite bigben parliamentsquare england unitedkingdom greatbritain unesco unescoworldheritagesite greaterlondon elizabethtower" title="Big Ben - Palace of Westminster" url_b="http://static.flickr.com/3509/4061496855_b35126a243_b.jpg" username="ell brown" views="32" />
<photo  date_taken="2011-10-22 16:44:19" description="Westminster, 22nd October 2011." id="6312569453" latitude="51.500742" license="3" longitude="-0.124626" nbComments="0" rank="35" tags="palace parliament westminster clock bigben london tower england uk unitedkingdom greatbritain" title="Big Ben" url_b="http://static.flickr.com/6213/6312569453_9a0b9fb7e4_b.jpg" username="R~P~M" views="57" />
<photo  date_taken="2012-10-12 12:10:50" description="Selbst Big Ben war irritiert durch meine Anwesenheit…….. Even Big Ben was irritated because of my presence……" id="8170149260" latitude="51.500728" license="1" longitude="-0.124583" nbComments="42" rank="36" tags="london bigben slr 2012" title="Big Neb (digital mirrored)" url_b="http://static.flickr.com/7139/8170149260_324aafa307_b.jpg" username="amdolu" views="94" />
<photo  date_taken="2012-04-08 04:52:51" description="April 2012. London, England. I couldn't come up with a unique take on this iconic landmark :-(, so I simply did the tourist thing. Since the weather was grey and drizzly, I opted for black and white. I was able to bring out a bit of detail in the sky that way. I used an orange filter in the B&amp;amp;W conversion which really brought out highlights in the stone." id="7094325327" latitude="51.500752" license="3" longitude="-0.124656" nbComments="4" rank="37" tags="3652012 april bigben england london nik silverefexpro2 blackandwhite landmark monochromatic palaceofwestminster" title="Big Ben #2" url_b="http://static.flickr.com/5450/7094325327_4ef3b55a73_b.jpg" username="dibytes" views="114" />
<photo  date_taken="2012-04-08 04:31:58" description="April 2012. London, England. I couldn't come up with a unique take on this iconic landmark :-(, so I simply did the tourist thing. Since the weather was grey and drizzly, I opted for black and white. I was able to bring out a bit of detail in the sky that way. I used an orange filter in the B&amp;amp;W conversion which really brought out highlights in the stone." id="7094325813" latitude="51.500752" license="3" longitude="-0.124656" nbComments="4" rank="38" tags="3652012 april bigben england london nik silverefexpro2 blackandwhite landmark monochromatic" title="Big Ben #4" url_b="http://static.flickr.com/5458/7094325813_3d18a3be33_b.jpg" username="dibytes" views="153" />
<photo  date_taken="2012-04-08 04:43:35" description="April 2012. London, England. I couldn't come up with a unique take on this iconic landmark :-(, so I simply did the tourist thing. Since the weather was grey and drizzly, I opted for black and white. I was able to bring out a bit of detail in the sky that way. I used an orange filter in the B&amp;amp;W conversion which really brought out highlights in the stone." id="7094325555" latitude="51.500752" license="3" longitude="-0.124656" nbComments="2" rank="39" tags="3652012 april bigben england london nik silverefexpro2 blackandwhite landmark monochromatic palaceofwestminster" title="Big Ben #3" url_b="http://static.flickr.com/7265/7094325555_1aab3a3fa0_b.jpg" username="dibytes" views="171" />
<photo  date_taken="2012-03-27 17:15:25" description="Palace of Westminster" id="6907264192" latitude="51.500448" license="1" longitude="-0.124636" nbComments="0" rank="40" tags="london england uk bigben clock tower palaceofwestminster housesofparliament" title="Big Ben" url_b="http://static.flickr.com/5200/6907264192_58e5ba1389_b.jpg" username="Terry Hassan" views="17" />
<photo  date_taken="2012-04-20 16:07:53" description="London, - England" id="7116620353" latitude="51.500755" license="1" longitude="-0.124672" nbComments="0" rank="41" tags="england greatbritain london" title="Houses of Parliament and Big Ben" url_b="http://static.flickr.com/5464/7116620353_f282f74f66_b.jpg" username="PR Photography" views="25" />
<photo  date_taken="2012-04-20 16:08:02" description="London, - England" id="7120546951" latitude="51.500755" license="1" longitude="-0.124672" nbComments="0" rank="42" tags="england greatbritain london" title="Houses of Parliament and Big Ben" url_b="http://static.flickr.com/8165/7120546951_244935ff22_b.jpg" username="PR Photography" views="50" />
<photo  date_taken="2012-04-20 15:29:59" description="London, - England" id="6970147958" latitude="51.500755" license="1" longitude="-0.124672" nbComments="0" rank="43" tags="england greatbritain london" title="Houses of Parliament and Big Ben" url_b="http://static.flickr.com/7134/6970147958_5c3e644123_b.jpg" username="PR Photography" views="16" />
<photo  date_taken="2012-04-20 15:37:05" description="London, - England" id="6970180962" latitude="51.500755" license="1" longitude="-0.124672" nbComments="0" rank="44" tags="england greatbritain london" title="Big Ben &amp; Eye of London" url_b="http://static.flickr.com/7136/6970180962_abf2474146_b.jpg" username="PR Photography" views="50" />
<photo  date_taken="2012-04-20 15:27:11" description="London, - England" id="6970128458" latitude="51.500755" license="1" longitude="-0.124672" nbComments="0" rank="45" tags="england greatbritain london" title="Big Ben" url_b="http://static.flickr.com/5151/6970128458_467389f318_b.jpg" username="PR Photography" views="32" />
<photo  date_taken="2012-04-20 15:32:56" description="London, - England" id="6970157454" latitude="51.500755" license="1" longitude="-0.124672" nbComments="0" rank="46" tags="england greatbritain london" title="Big Ben" url_b="http://static.flickr.com/8014/6970157454_be3030ba8a_b.jpg" username="PR Photography" views="11" />
<photo  date_taken="2012-04-20 15:34:56" description="London, - England" id="6970173658" latitude="51.500755" license="1" longitude="-0.124672" nbComments="0" rank="47" tags="england greatbritain london" title="Big Ben" url_b="http://static.flickr.com/5200/6970173658_fcaaca287c_b.jpg" username="PR Photography" views="39" />
<photo  date_taken="2012-04-20 15:29:50" description="London, - England" id="7116218385" latitude="51.500755" license="1" longitude="-0.124672" nbComments="0" rank="48" tags="england greatbritain london" title="Big Ben" url_b="http://static.flickr.com/7278/7116218385_bed8dd9093_b.jpg" username="PR Photography" views="17" />
<photo  date_taken="1826-08-23 13:37:43" description="The clock is clicking and so is the time running away, the world is running and so is everything in this place..... Even the Nature denies to stop in such a place and keeps changing its colors. &lt;b&gt;Welcome to the life of London&lt;/b&gt; : You are never certain of what is coming next.... women or weather Keep watching out this space..." id="2987136031" latitude="51.500711" license="3" longitude="-0.12454" nbComments="15" rank="49" tags="london cityofwestminster centrallondon bigben architecture weather update clouds sky time 1340 gmt bst thames water river classic manibabbar maniya lovemax freebird dramatic londoner uk geotagged view open" title="1340GMT, London" url_b="http://static.flickr.com/3273/2987136031_04e02d1d24_b.jpg" username="~FreeBirD®~" views="253" />
<photo  date_taken="2009-03-19 11:05:20" description="This image is subject to &lt;a href=&quot;http://www.parliament.uk/site_information/parliamentary_copyright.cfm#images&quot; target=&quot;_self&quot; rel=&quot;nofollow&quot;&gt;parliamentary copyright&lt;/a&gt;. &lt;a href=&quot;http://www.parliament.uk/&quot; rel=&quot;nofollow&quot;&gt;www.parliament.uk/&lt;/a&gt;" id="3384058059" latitude="51.500725" license="3" longitude="-0.124551" nbComments="0" rank="50" tags="bigben clocktower parliament housesofparliament houseofcommons houseoflords london westminster mps lords pugin barry parliamentaryestate unitedkingdom uk commons mp peers politics ukparliament" title="Big Ben - spring 2009" url_b="http://static.flickr.com/3644/3384058059_d03c34f73b_b.jpg" username="UK Parliament" views="1627" />
<photo  date_taken="2008-11-21 11:22:00" description="Close-up of the west and north-facing clock-faces of the Clock Tower (Big Ben). The shields between the belfry stage and the cast iron roof represent: the red and white rose of the Tudor dynasty, the portcullis for the Tudors, the pomegranate for Katherine of Aragon, the thistle for Scotland, the leek for Wales, shamrock for Ireland and the fleur de lis for France. This image is subject to &lt;a href=&quot;http://www.parliament.uk/site_information/parliamentary_copyright.cfm#images&quot; target=&quot;_self&quot;&gt;parliamentary copyright&lt;/a&gt;. &lt;a href=&quot;http://www.parliament.uk/bigben&quot;&gt;Visit the Parliament website&lt;/a&gt; for more information about the Clock Tower." id="3118108928" latitude="51.500725" license="3" longitude="-0.124551" nbComments="0" rank="51" tags="bigben clocktower housesofparliament parliament london westminster clock ukparliament uk unitedkingdom houseofcommons houseoflords lords commons mp peers politics" title="Clock Tower (Big Ben)" url_b="http://static.flickr.com/3120/3118108928_2859342fed_b.jpg" username="UK Parliament" views="2970" />
<photo  date_taken="2009-01-06 11:00:15" description="This image shows Big Ben's damaged clock mechanism in 1976. At first thought to have been caused by a bomb, the damage actually resulted from the sudden fracture of the flyfan arbor of the chiming train. Consequently, there was no check on the 11/2 ton weight of the chiming mechanism, and wheels, gears, cams and clicks were flung at high speed around the clockroom, and even through the ceiling. No one was hurt, because the accident happened at 4am. This image is subject to &lt;a href=&quot;http://www.parliament.uk/site_information/parliamentary_copyright.cfm#images&quot; target=&quot;_self&quot;&gt;parliamentary copyright&lt;/a&gt;. &lt;a href=&quot;http://www.parliament.uk/bigben&quot;&gt;Visit the Parliament website&lt;/a&gt; for more information about the Clock Tower." id="3173783162" latitude="51.500725" license="3" longitude="-0.124551" nbComments="1" rank="52" tags="bigben clocktower parliament westminster london mps housesofparliament lords clocks clock ukparliament uk unitedkingdom houseofcommons houseoflords commons mp peers politics" title="Big Ben: Damage to the clock mechanism 5 August 1976" url_b="http://static.flickr.com/1149/3173783162_8f3b2e124b_b.jpg" username="UK Parliament" views="4194" />
<photo  date_taken="2008-06-17 12:24:34" description="&lt;a href=&quot;http://www.parliament.uk/about/history/big_ben.cfm&quot;&gt;Visit the parliamentary website&lt;/a&gt; for more information about the history of the Clock Tower" id="2587361595" latitude="51.500725" license="3" longitude="-0.124551" nbComments="0" rank="53" tags="ukparliament uk parliament westminster london unitedkingdom housesofparliament houseofcommons houseoflords lords commons mp peers politics" title="remove" url_b="http://static.flickr.com/3022/2587361595_2bf0895b0a_b.jpg" username="UK Parliament" views="663" />
<photo  date_taken="2008-06-17 12:22:48" description="&lt;a href=&quot;http://www.parliament.uk/about/history/big_ben.cfm&quot;&gt;Visit the parliamentary website&lt;/a&gt; for more information about the history of the Clock Tower" id="2587357525" latitude="51.500725" license="3" longitude="-0.124551" nbComments="0" rank="54" tags="ukparliament uk parliament westminster london unitedkingdom housesofparliament houseofcommons houseoflords lords commons mp peers politics" title="Big Ben" url_b="http://static.flickr.com/3007/2587357525_2fdc26af12_b.jpg" username="UK Parliament" views="556" />
<photo  date_taken="2008-12-31 09:05:39" description="The Big Ben team meet for a rooftop breakfast of bacon sandwiches and tea in preparation for their long day. The team start at 6am and work through to past midnight to ensure Big Ben delivers the time and famous 'bongs' which welcome in the New Year across the country and are broadcast around the world. Clockwise from left: Lester Benjamin, Head of Palace Maintenance Services; Mel Barlex, Director of Estates; Huw Smith, Clock Mechanic; Mike McCann, Keeper of the Great Clock; Amanda Leck, Clock Tours Administrator; Ian Westworth, Clock Mechanic; Paul Roberson, Clock Mechanic; Kevin O'Connor, Shift Technician This image is subject to &lt;a href=&quot;http://www.parliament.uk/site_information/parliamentary_copyright.cfm#images&quot; target=&quot;_self&quot;&gt;parliamentary copyright&lt;/a&gt;. &lt;a href=&quot;http://www.parliament.uk/bigben&quot;&gt;Visit the Parliament website&lt;/a&gt; for more information about the Clock Tower." id="3170421424" latitude="51.500725" license="3" longitude="-0.124551" nbComments="2" rank="55" tags="bigben parliament newyear newyearseve ukparliament uk westminster london unitedkingdom housesofparliament houseofcommons houseoflords lords commons mp peers politics" title="Breakfast on New Year's Eve" url_b="http://static.flickr.com/1155/3170421424_4704219638_b.jpg" username="UK Parliament" views="1592" />
<photo  date_taken="2008-12-01 11:10:46" description="The number '182' is carved into the 182nd step of the 334 step climb up to Big Ben's belfry. This image is subject to &lt;a href=&quot;http://www.parliament.uk/site_information/parliamentary_copyright.cfm#images&quot; target=&quot;_self&quot;&gt;parliamentary copyright&lt;/a&gt;. &lt;a href=&quot;http://www.parliament.uk/bigben&quot;&gt;Visit the Parliament website&lt;/a&gt; for more information about the Clock Tower." id="3173783158" latitude="51.500725" license="3" longitude="-0.124551" nbComments="0" rank="56" tags="bigben clocktower parliament westminster london mps housesofparliament lords clocks clock ukparliament uk unitedkingdom houseofcommons houseoflords commons mp peers politics" title="Big Ben: The 182nd step" url_b="http://static.flickr.com/3126/3173783158_5f38a701ca_b.jpg" username="UK Parliament" views="1447" />
<photo  date_taken="2011-11-12 14:05:21" description="" id="6360722853" latitude="51.500762" license="2" longitude="-0.124679" nbComments="0" rank="57" tags="unitedkindom grosbritanien uk gb 2011 canon eos herbst autumn canoneos400d 400d sigma 50200 50200mm sigma50200mm456dcoshsm london england bigben uhr clock tower turm wahrzeichen emblem" title="Big Ben" url_b="http://static.flickr.com/6091/6360722853_e6292ef61c_b.jpg" username="der_stulle" views="128" />
<photo  date_taken="2012-10-07 07:42:53" description="We heard Big Ben chime 1 PM, so we only heard one chime." id="8098374142" latitude="51.500763" license="6" longitude="-0.124625" nbComments="0" rank="58" tags="bigben london travel" title="Big Ben" url_b="http://static.flickr.com/8194/8098374142_68c704fca9_b.jpg" username="Mike Procario" views="68" />
<photo  date_taken="2011-04-17 11:47:06" description="" id="8326553497" latitude="51.500765" license="4" longitude="-0.124669" nbComments="0" rank="59" tags="uploaded:by=flickstagram instagram:photo=54465704835238 instagram:venue_name=bigben instagram:venue=13687" title="At the London Marathon" url_b="http://static.flickr.com/8492/8326553497_eb4c04c6ec_b.jpg" username="Paul-in-London" views="2" />
<photo  date_taken="2012-12-12 17:17:41" description="" id="8266591063" latitude="51.500765" license="3" longitude="-0.124669" nbComments="0" rank="60" tags="instagramapp square squareformat iphoneography uploaded:by=instagram foursquare:venue=4ac518cef964a520f6a520e3" title="Big Ben &amp; I" url_b="http://static.flickr.com/8344/8266591063_40c07183f2_b.jpg" username="michelle.parker52" views="8" />
<photo  date_taken="2012-08-11 13:22:06" description="" id="7758408876" latitude="51.500765" license="4" longitude="-0.124669" nbComments="0" rank="61" tags="instagramapp square squareformat iphoneography uploaded:by=instagram inkwell foursquare:venue=4ac518cef964a520f6a520e3" title="The Big Ben" url_b="http://static.flickr.com/8428/7758408876_7ecdf67044_b.jpg" username="diego.russo" views="74" />
<photo  date_taken="2012-09-11 16:01:09" description="Big Ben #MozTripUK" id="8286969073" latitude="51.500765" license="1" longitude="-0.124669" nbComments="0" rank="62" tags="" title="Big Ben #MozTripUK" url_b="http://static.flickr.com/8219/8286969073_feb20fb283_b.jpg" username="Viking KARWUR" views="0" />
<photo  date_taken="2005-04-16 13:16:09" description="" id="274693268" latitude="51.500595" license="1" longitude="-0.124658" nbComments="0" rank="63" tags="geotagged geo:tool=gmif geo:lat=51500595 geo:lon=0124658" title="Big Ben Clock, London" url_b="http://static.flickr.com/93/274693268_e50ad75074_b.jpg" username="TV Boy" views="9" />
<photo  date_taken="2007-05-22 13:03:30" description="" id="2161495537" latitude="51.500591" license="3" longitude="-0.12465" nbComments="0" rank="64" tags="" title="Big_Ben" url_b="http://static.flickr.com/2283/2161495537_db13912a61_b.jpg" username="photofox74" views="0" />
<photo  date_taken="2007-02-05 11:11:55" description="" id="2453069109" latitude="51.500597" license="4" longitude="-0.124633" nbComments="0" rank="65" tags="england london uk united kingdom klontzas 2007 february clock tower bigben" title="Big Ben_2" url_b="http://static.flickr.com/2087/2453069109_ec8bf941a8_b.jpg" username="George M. Groutas" views="17" />
<photo  date_taken="2007-05-15 09:10:23" description="I would likely have gotten a much better picture if I had bought a postcard, but still, there is something about it being your finger on the shutter release.  I'd been to London before, but never in this neighborhood. For some reason, I imagined that this tower and the neighboring buildings would be much larger." id="504931390" latitude="51.500592" license="1" longitude="-0.124674" nbComments="0" rank="66" tags="london parliament big ben clock tower geotagged geo:lat=51500592 geo:long=0124674" title="Big Ben, Parliament Square" url_b="http://static.flickr.com/204/504931390_082f5aa01d_b.jpg" username="alexpgp" views="75" />
<photo  date_taken="2007-05-10 13:05:01" description="A different view of the The &lt;a href=&quot;http://en.wikipedia.org/wiki/Clock_Tower,_Palace_of_Westminster&quot;&gt;Clock Tower&lt;/a&gt; at the Palace of Westminster (as it is properly known)." id="536332576" latitude="51.500583" license="5" longitude="-0.124636" nbComments="1" rank="67" tags="clock london architecture tower" title="Big Ben" url_b="http://static.flickr.com/1197/536332576_e4917cc63b_b.jpg" username="Aldaron" views="89" />
<photo  date_taken="2007-10-24 15:04:19" description="The famous bell, Big Ben, as housed in the the Clock tower at Westminster." id="1751712122" latitude="51.500578" license="1" longitude="-0.124642" nbComments="0" rank="68" tags="bell bigben england europe geotagged london uk westminster greaterlondon clocktower" title="Big Ben" url_b="http://static.flickr.com/2152/1751712122_51a791ed5d_b.jpg" username="AndyCunningham" views="315" />
<photo  date_taken="2010-03-22 18:46:29" description="What a tourist shot for tonight.. I wandered around the Victoria Gardens for a while, until I was almost locked in by some gobshite guard, didn't seem to like me walking at my own pace on the way out, and almost locked another couple of people in before I warned him and he let of a 'FFS'. Off with his head! :) I did find a plastic cow in the Parliament gardens though, no idea why it's there, even shows up on Google Maps, so it's clearly been there a while. Will get a better pic of it sometime and post that as proof. It was raining, (shocker), so I'm blaming that on my failure for something a little more original, I tried for a couple of hours but I'm not really that happy with most of the shots as I was trying to stop my stuff getting soaked. Going to have to invest in some rainbow things i think. Will have to go back there when it's not raining, as I think I could find some nice ones, not just the cow.." id="4455075723" latitude="51.500602" license="2" longitude="-0.124626" nbComments="1" rank="69" tags="efs1855mmf3556is london westminster bigben tfl underground clock sign night geo:lat=51500602 geo:lon=0124626 geotagged gowalla:spot=22087 parliament" title="Oh What A Fiasco! - 50/365" url_b="http://static.flickr.com/4053/4455075723_58b22b93f1_b.jpg" username="Simon Wicks" views="71" />
<photo  date_taken="2005-05-15 11:07:42" description="" id="274694451" latitude="51.500582" license="1" longitude="-0.124626" nbComments="0" rank="70" tags="geotagged geo:tool=gmif geo:lat=51500582 geo:lon=0124626" title="Big Ben, London" url_b="http://static.flickr.com/115/274694451_1d50dc0857_b.jpg" username="TV Boy" views="18" />
<photo  date_taken="2007-06-10 07:45:19" description="" id="539100875" latitude="51.500628" license="3" longitude="-0.124636" nbComments="0" rank="71" tags="gordmckenna europe london uk unitedkingdon attractions clock security gord mckenna" title="Watching Big Ben 2007" url_b="http://static.flickr.com/1152/539100875_8aafd17c46_b.jpg" username="Gord McKenna" views="63" />
<photo  date_taken="2007-06-10 07:53:38" description="Magnificent face" id="539101137" latitude="51.500628" license="3" longitude="-0.124636" nbComments="0" rank="72" tags="gordmckenna europe london uk unitedkingdon attractions clock bigben gord mckenna" title="Big Ben 2007" url_b="http://static.flickr.com/1390/539101137_dce05aa36a_b.jpg" username="Gord McKenna" views="92" />
<photo  date_taken="2007-06-10 08:00:38" description="Striking four o'clock -- what a delight." id="539101235" latitude="51.500628" license="3" longitude="-0.124636" nbComments="0" rank="73" tags="gordmckenna europe london uk unitedkingdon attractions clock gord mckenna" title="Big Ben 2007" url_b="http://static.flickr.com/1254/539101235_174e678d1e_b.jpg" username="Gord McKenna" views="61" />
<photo  date_taken="2008-02-05 08:15:09" description="Do I recall ever hearing it chime? No. &amp;gt;.&amp;lt;" id="3387430781" latitude="51.500591" license="3" longitude="-0.12462" nbComments="0" rank="74" tags="london england bigben clocks westminster westminsterpalace unitedkingdom britain sonydscp200 worldheritagesite" title="Big Ben" url_b="http://static.flickr.com/3608/3387430781_ecaffb01c0_b.jpg" username="Trevor.Huxham" views="37" />
<photo  date_taken="2008-02-05 08:16:17" description="" id="3388238050" latitude="51.500591" license="3" longitude="-0.12462" nbComments="0" rank="75" tags="london england bigben clocks westminster westminsterpalace unitedkingdom britain sonydscp200 worldheritagesite" title="Big Ben, south and west faces" url_b="http://static.flickr.com/3648/3388238050_f652005fec_b.jpg" username="Trevor.Huxham" views="29" />
<photo  date_taken="2008-06-24 14:33:21" description="&lt;a href=&quot;http://en.wikipedia.org/wiki/Big_ben&quot;&gt;en.wikipedia.org/wiki/Big_ben&lt;/a&gt;" id="2906588495" latitude="51.500597" license="3" longitude="-0.124618" nbComments="0" rank="76" tags="bigben london geotag" title="Big Ben" url_b="http://static.flickr.com/2353/2906588495_e877871c6f_b.jpg" username="rafitorres" views="38" />
<photo  date_taken="2008-06-24 14:30:20" description="&lt;a href=&quot;http://en.wikipedia.org/wiki/Big_ben&quot;&gt;en.wikipedia.org/wiki/Big_ben&lt;/a&gt;" id="2906588215" latitude="51.500597" license="3" longitude="-0.124618" nbComments="0" rank="77" tags="bigben london geotag" title="Big Ben" url_b="http://static.flickr.com/3188/2906588215_e9b28aa6aa_b.jpg" username="rafitorres" views="30" />
<photo  date_taken="2006-10-26 16:51:00" description="'Big Ben' actually is the name of the bell in St. Stephen's Tower, pictured here. --London, England --IMG_5326" id="294642150" latitude="51.500621" license="5" longitude="-0.12469" nbComments="0" rank="78" tags="jonworth england 2006" title="Big Ben" url_b="http://static.flickr.com/110/294642150_d3acbba560_b.jpg" username="jonworth" views="7" />
<photo  date_taken="2010-05-15 10:17:14" description="Big Ben is the nickname of the Great Bell of Westminster, the hour bell of the Great Clock, hanging in the Clock Tower of the Palace of Westminster, the home of the Houses of Parliament in the United Kingdom. The bell was named &amp;quot;Big Ben&amp;quot; after Sir Benjamin Hall, the Chief Commissioner of Works when it was cast in 1856. Big Ben is commonly taken to be the name of the clock tower itself, but this is incorrect - the tower is simply known as The Clock Tower" id="4608559193" latitude="51.500611" license="5" longitude="-0.124611" nbComments="0" rank="79" tags="" title="Clock Tower, Palace of Westminster, (London, UK)" url_b="http://static.flickr.com/4041/4608559193_78f7d6aa8f_b.jpg" username="Jorge Lascar" views="15" />
<photo  date_taken="2008-07-28 16:07:25" description="(The Clock Tower) von 1858" id="2804830321" latitude="51.500635" license="3" longitude="-0.124626" nbComments="0" rank="80" tags="cityofwestminster fenchurchstreet geotagged grosbritannien england london housesofparliament geo:lat=5150063517 geo:lon=012462617 groãbritannien gbr" title="Big Ben" url_b="http://static.flickr.com/3125/2804830321_da5efc9b59_b.jpg" username="lessi2306" views="24" />
<photo  date_taken="2005-05-05 11:48:10" description="" id="436221336" latitude="51.500555" license="1" longitude="-0.124626" nbComments="0" rank="81" tags="london 2005 londres" title="195 - Big Ben" url_b="http://static.flickr.com/187/436221336_90ad8bdff6_b.jpg" username="MnGyver" views="11" />
<photo  date_taken="2005-05-05 11:48:16" description="" id="436221558" latitude="51.500555" license="1" longitude="-0.124626" nbComments="0" rank="82" tags="london 2005 londres" title="196 - Big Ben" url_b="http://static.flickr.com/167/436221558_a5c630ed13_b.jpg" username="MnGyver" views="6" />
<photo  date_taken="2007-02-05 11:12:16" description="" id="2453898680" latitude="51.500622" license="4" longitude="-0.1246" nbComments="0" rank="83" tags="england london uk united kingdom klontzas 2007 february clock tower bigben" title="Big Ben" url_b="http://static.flickr.com/3096/2453898680_09f6ba6092_b.jpg" username="George M. Groutas" views="203" />
<photo  date_taken="2007-07-12 23:24:59" description="" id="791445179" latitude="51.500618" license="1" longitude="-0.124722" nbComments="0" rank="84" tags="london bigben parliment edited fuji s3000 england uk hdr photomatix" title="Big Ben ed" url_b="http://static.flickr.com/1065/791445179_54fa60d338_b.jpg" username="Dissonancefalling" views="174" />
<photo  date_taken="2007-04-19 10:04:20" description="" id="478687409" latitude="51.500661" license="3" longitude="-0.124615" nbComments="0" rank="85" tags="england london parliamentbuildings bigben clock" title="Clock tower for Big Ben" url_b="http://static.flickr.com/192/478687409_a1e92f9e90_b.jpg" username="paige_eliz" views="34" />
<photo  date_taken="2007-03-08 08:47:23" description="" id="676036994" latitude="51.500671" license="4" longitude="-0.124636" nbComments="0" rank="86" tags="london housesofparliament bigben" title="IMG_4211" url_b="http://static.flickr.com/1274/676036994_5e002f249b_b.jpg" username="jlantzy" views="26" />
<photo  date_taken="2005-05-14 14:46:38" description="" id="113131947" latitude="51.500675" license="1" longitude="-0.124658" nbComments="1" rank="87" tags="clock clouds bigben england london unitedkingdom uk" title="Big Ben" url_b="http://static.flickr.com/45/113131947_661f5915d9_b.jpg" username="ndh" views="93" />
<photo  date_taken="2007-02-05 11:07:34" description="" id="2453894946" latitude="51.500575" license="4" longitude="-0.124569" nbComments="0" rank="88" tags="england london uk united kingdom klontzas 2007 february clock tower bigben" title="Big Ben_1" url_b="http://static.flickr.com/2149/2453894946_65bd01d86d_b.jpg" username="George M. Groutas" views="19" />
<photo  date_taken="2010-02-22 14:54:17" description="" id="4404452578" latitude="51.500613" license="5" longitude="-0.124562" nbComments="0" rank="89" tags="london bigben westminster" title="Westminster Clock Tower" url_b="http://static.flickr.com/2698/4404452578_e8f4b9f269_b.jpg" username="DaveCrosby" views="18" />
<photo  date_taken="2008-02-09 15:13:37" description="" id="2642072555" latitude="51.500696" license="1" longitude="-0.124636" nbComments="0" rank="90" tags="london citytrip" title="Big Ben" url_b="http://static.flickr.com/3065/2642072555_f4fc1e5d1a_b.jpg" username="matthieucalu.be" views="16" />
<photo  date_taken="2009-03-16 10:03:18" description="" id="3876245213" latitude="51.500701" license="5" longitude="-0.124615" nbComments="0" rank="91" tags="therollingcones mongolrally09 2009mongolrally icecreamtruck stepvan unitedkingdom london england" title="Big Ben" url_b="http://static.flickr.com/3457/3876245213_6d5cf89c63_b.jpg" username="joepyrek" views="22" />
<photo  date_taken="2009-03-16 10:06:05" description="" id="3876247785" latitude="51.500701" license="5" longitude="-0.124615" nbComments="0" rank="92" tags="therollingcones mongolrally09 2009mongolrally icecreamtruck stepvan unitedkingdom london england" title="Parliament and Big Ben" url_b="http://static.flickr.com/2424/3876247785_d3b0fb1ea7_b.jpg" username="joepyrek" views="5" />
<photo  date_taken="2004-05-26 02:40:05" description="" id="3270964030" latitude="51.500509" license="1" longitude="-0.124722" nbComments="0" rank="93" tags="london" title="Big Ben" url_b="http://static.flickr.com/3342/3270964030_74e4687359_b.jpg" username="revger" views="2" />
<photo  date_taken="2004-05-26 02:40:12" description="" id="3270964134" latitude="51.500509" license="1" longitude="-0.124722" nbComments="0" rank="94" tags="london" title="Big Ben" url_b="http://static.flickr.com/3327/3270964134_6bd87edd81_b.jpg" username="revger" views="2" />
<photo  date_taken="2006-10-01 16:17:54" description="" id="323049844" latitude="51.500681" license="3" longitude="-0.124572" nbComments="1" rank="95" tags="london sepia england bigben clocktower tower uk geotagged patricktheiner europe wwwtheinername" title="clock tower" url_b="http://static.flickr.com/133/323049844_ca36622f67_b.jpg" username="Patrick Theiner" views="66" />
<photo  date_taken="2006-06-17 21:49:53" description="" id="171149911" latitude="51.500628" license="2" longitude="-0.12454" nbComments="0" rank="96" tags="london bigben clock tower blue sky parliament building" title="Big Ben" url_b="http://static.flickr.com/73/171149911_61224776fe_b.jpg" username="littlestar19" views="33" />
<photo  date_taken="2004-05-18 08:18:06" description="" id="97345853" latitude="51.500695" license="5" longitude="-0.124583" nbComments="0" rank="97" tags="vacation england" title="Big Ben" url_b="http://static.flickr.com/39/97345853_e41dc26e55_b.jpg" username="James V. McCoy" views="4" />
<photo  date_taken="2007-07-13 16:29:22" description="" id="829464986" latitude="51.500708" license="3" longitude="-0.124604" nbComments="0" rank="98" tags="brighton london lewes fenners1984 bigben" title="Big Ben" url_b="http://static.flickr.com/1423/829464986_01b8947832_b.jpg" username="Fenners1984" views="48" />
<photo  date_taken="2007-07-13 16:42:02" description="Westminster Station, taking with the Houses of Parliament and Big Ben in the background." id="828598859" latitude="51.500708" license="3" longitude="-0.124604" nbComments="0" rank="99" tags="brighton london lewes fenners1984" title="Underground" url_b="http://static.flickr.com/1077/828598859_8683857447_b.jpg" username="Fenners1984" views="28" />
<photo  date_taken="2008-10-18 14:39:14" description="Big Ben" id="2969249013" latitude="51.500721" license="5" longitude="-0.124636" nbComments="0" rank="100" tags="london england uk bigben" title="London, England" url_b="http://static.flickr.com/3246/2969249013_6a9b950001_b.jpg" username="Nigel's Europe" views="30" />
<photo  date_taken="2007-04-07 10:39:43" description="I couldn't walk past Big Ben without taking another snap!" id="449506533" latitude="51.500701" license="3" longitude="-0.124583" nbComments="0" rank="101" tags="london landmark bigben clock tower westminster abbey pariliament" title="Looking up at Big Ben" url_b="http://static.flickr.com/187/449506533_1408d689c0_b.jpg" username="davehunt82" views="62" />
<photo  date_taken="2007-04-06 13:12:53" description="Big Ben on one of the first sunny &amp;amp; warm days of 2007!" id="448528706" latitude="51.500701" license="3" longitude="-0.124583" nbComments="0" rank="102" tags="bigben london landmark clock tower bell westminster abbey" title="Big Ben" url_b="http://static.flickr.com/176/448528706_8e569df2c3_b.jpg" username="davehunt82" views="98" />
<photo  date_taken="2007-08-12 15:24:12" description="Una cámara de vigilancia controla de cerca el reloj del Palacio de Westminster" id="1171580571" latitude="51.500721" license="4" longitude="-0.124626" nbComments="0" rank="103" tags="london cctv surveillance bigben" title="Big Ben vigilado" url_b="http://static.flickr.com/1167/1171580571_5683df47af_b.jpg" username="Jacobo Tarrío" views="43" />
<photo  date_taken="2007-08-12 15:22:00" description="Es el reloj del Palacio de Westminster, que es donde está el parlamento británico." id="1171576119" latitude="51.500721" license="4" longitude="-0.124626" nbComments="0" rank="104" tags="london bigben everycityhasaphallicsymbol" title="Big Ben" url_b="http://static.flickr.com/1326/1171576119_3df13f20af_b.jpg" username="Jacobo Tarrío" views="83" />
<photo  date_taken="2009-04-04 10:43:05" description="" id="3411473204" latitude="51.500728" license="3" longitude="-0.124679" nbComments="0" rank="105" tags="london bigben 2009 england2009february" title="SANY0219" url_b="http://static.flickr.com/3358/3411473204_cdd602a4f3_b.jpg" username="ghostofgoldwater" views="10" />
<photo  date_taken="2005-12-11 16:20:06" description="" id="84955872" latitude="51.500728" license="6" longitude="-0.124615" nbComments="0" rank="106" tags="england london bigben westminster housesofparliament" title="Big Ben and the Houses of Parliament" url_b="http://static.flickr.com/43/84955872_afcc563984_b.jpg" username="StartAgain" views="93" />
<photo  date_taken="2008-03-16 10:33:16" description="Big Ben! I still can't get this one acceptably straight. I straighten one part, and the rest goes out of whack!" id="3530984815" latitude="51.500735" license="3" longitude="-0.124636" nbComments="0" rank="107" tags="london building bigben" title="big_ben" url_b="http://static.flickr.com/2354/3530984815_b2c527a70c_b.jpg" username="Jed Sheehan" views="3" />
<photo  date_taken="2009-05-17 22:35:19" description="137/365 This photo made PAD for 20100517: &amp;quot;On this day, last year&amp;quot;" id="3539281979" latitude="51.500715" license="1" longitude="-0.124733" nbComments="0" rank="108" tags="bigben london 365days westminster" title="Big Ben" url_b="http://static.flickr.com/2248/3539281979_68faf8302b_b.jpg" username="csmramsden" views="29" />
<photo  date_taken="2009-05-17 21:31:54" description="" id="3539196639" latitude="51.500715" license="1" longitude="-0.124733" nbComments="0" rank="109" tags="bigben london" title="Big Ben" url_b="http://static.flickr.com/2171/3539196639_f3d024e1be_b.jpg" username="csmramsden" views="5" />
<photo  date_taken="2009-02-13 06:19:45" description="" id="3293612239" latitude="51.500738" license="1" longitude="-0.124626" nbComments="0" rank="110" tags="london britain uk unitedkingdom england greatbritain big ben" title="BB Squared" url_b="http://static.flickr.com/3303/3293612239_92d6305842_b.jpg" username="Pembleton" views="7" />
<photo  date_taken="2009-02-13 06:15:25" description="" id="3293612779" latitude="51.500738" license="1" longitude="-0.124626" nbComments="0" rank="111" tags="london britain uk unitedkingdom england greatbritain big ben" title="Parliament" url_b="http://static.flickr.com/3622/3293612779_ce3e492522_b.jpg" username="Pembleton" views="6" />
<photo  date_taken="2009-02-13 06:15:15" description="" id="3293612955" latitude="51.500738" license="1" longitude="-0.124626" nbComments="0" rank="112" tags="london britain uk unitedkingdom england greatbritain big ben" title="Big Ben" url_b="http://static.flickr.com/3563/3293612955_8bbfdf8df5_b.jpg" username="Pembleton" views="5" />
<photo  date_taken="2005-09-21 14:17:40" description="The Big Ben, the House of Parliament (right) and the London Eye (left in the background) &lt;a href=&quot;http://maps.google.com?q=51.50074202015363,-0.12464761734008789&amp;amp;t=h&quot;&gt;See where this picture was taken.&lt;/a&gt; &lt;a href=&quot;http://www.flickr.com/groups/geotagging/discuss/72157594165549916/&quot;&gt;[?]&lt;/a&gt;" id="49040372" latitude="51.500742" license="1" longitude="-0.124648" nbComments="0" rank="113" tags="london england" title="Big Ben" url_b="http://static.flickr.com/28/49040372_398a9fec42_b.jpg" username="Kagi_BC" views="25" />
<photo  date_taken="2009-10-17 16:35:31" description="This is famous world over. It it Big Ben, the clock tower of the Palace of Westminster. The clock that makes big bongs every hour. Big Ben is next to the House of Commons in the Palace of Westminster. The whole Palace is a Grade I listed building and a World Heritage Site. The tower was renamed Elizabeth Tower from September 2012, in honour of the Queen's Diamond Jubilee." id="4062248964" latitude="51.500735" license="4" longitude="-0.124604" nbComments="0" rank="114" tags="london cityofwestminster palaceofwestminster housesofparliament houseofcommons houseoflords gradeilisted gradeilistedbuilding worldheritagesite bigben parliamentsquare england unitedkingdom greatbritain unesco unescoworldheritagesite greaterlondon elizabethtower" title="Big Ben - Palace of Westminster" url_b="http://static.flickr.com/3477/4062248964_bedba16cc0_b.jpg" username="ell brown" views="29" />
<photo  date_taken="2009-10-17 16:35:21" description="This is famous world over. It it Big Ben, the clock tower of the Palace of Westminster. The clock that makes big bongs every hour. Big Ben is next to the House of Commons in the Palace of Westminster. The whole Palace is a Grade I listed building and a World Heritage Site. The tower was renamed Elizabeth Tower from September 2012, in honour of the Queen's Diamond Jubilee." id="4061502005" latitude="51.500735" license="4" longitude="-0.124604" nbComments="0" rank="115" tags="london cityofwestminster palaceofwestminster housesofparliament houseofcommons houseoflords gradeilisted gradeilistedbuilding worldheritagesite bigben parliamentsquare england unitedkingdom greatbritain unesco unescoworldheritagesite greaterlondon elizabethtower" title="Big Ben - Palace of Westminster" url_b="http://static.flickr.com/2466/4061502005_aa37edd8dd_b.jpg" username="ell brown" views="41" />
<photo  date_taken="2004-07-10 20:20:20" description="Big Ben in London, England." id="81424942" latitude="51.500698" license="3" longitude="-0.124545" nbComments="0" rank="116" tags="bigben london england" title="London Trip - 040" url_b="http://static.flickr.com/42/81424942_26fe88c3de_b.jpg" username="sethbc" views="15" />
<photo  date_taken="2004-07-10 20:16:45" description="Big Ben in London, England." id="81424441" latitude="51.500698" license="3" longitude="-0.124545" nbComments="0" rank="117" tags="bigben london england" title="London Trip - 039" url_b="http://static.flickr.com/39/81424441_29132f36fc_b.jpg" username="sethbc" views="8" />
<photo  date_taken="2008-03-07 03:15:52" description="A brief moment of Sun illuminates Big Ben" id="2451170278" latitude="51.500716" license="2" longitude="-0.124561" nbComments="0" rank="118" tags="london" title="Big Ben" url_b="http://static.flickr.com/2355/2451170278_8c8f36c31c_b.jpg" username="gavinmroy" views="11" />
<photo  date_taken="2009-04-18 13:27:11" description="" id="3456647252" latitude="51.500736" license="1" longitude="-0.124588" nbComments="0" rank="119" tags="april 2009 holiday london city tourist break walk spring" title="Big Ben" url_b="http://static.flickr.com/3652/3456647252_0715e1266c_b.jpg" username="Bill McIntyre" views="1" />
<photo  date_taken="2009-04-18 13:27:04" description="" id="3456646186" latitude="51.500736" license="1" longitude="-0.124588" nbComments="0" rank="120" tags="april 2009 holiday london city tourist break walk spring bigben westminster housesofparliament portcullishouse" title="Big Ben &amp; Portcullis House" url_b="http://static.flickr.com/3223/3456646186_feff988f25_b.jpg" username="Bill McIntyre" views="9" />
<photo  date_taken="2009-04-18 13:23:25" description="" id="3456645172" latitude="51.500736" license="1" longitude="-0.124588" nbComments="0" rank="121" tags="april 2009 holiday london city tourist break walk spring bigben westminster housesofparliament taxisign" title="Taxi for Big Ben?" url_b="http://static.flickr.com/3611/3456645172_0bc5fd564c_b.jpg" username="Bill McIntyre" views="7" />
<photo  date_taken="2008-11-07 08:25:19" description="" id="3057707609" latitude="51.500748" license="1" longitude="-0.124685" nbComments="1" rank="122" tags="2008 november london england uk bigben westminster nikon d40 dslr" title="Big Ben" url_b="http://static.flickr.com/3152/3057707609_0494291567_b.jpg" username="space_monkey" views="36" />
<photo  date_taken="2010-08-25 08:14:37" description="Big Ben is the name of the bell within the Clock Tower &lt;a href=&quot;http://en.wikipedia.org/wiki/Big_Ben&quot; rel=&quot;nofollow&quot;&gt;en.wikipedia.org/wiki/Big_Ben&lt;/a&gt;" id="4987675569" latitude="51.500688" license="2" longitude="-0.124529" nbComments="0" rank="123" tags="bigben clocktower london england" title="second star to the right and straight on till morning" url_b="http://static.flickr.com/4154/4987675569_109d659544_b.jpg" username="pb-n-james" views="60" />
<photo  date_taken="2010-03-28 21:59:37" description="3D stereo anaglyph picture you will need red blue (cyan) 3D glasses to view this in 3D The red lens goes over your left eye. To see the full colour 2D version of this picture please go here &lt;a href=&quot;http://www.flickr.com/photos/stereoviews/sets/72157623637551530/&quot;&gt;www.flickr.com/photos/stereoviews/sets/72157623637551530/&lt;/a&gt; I also have a blog about some of the photo's I take here &lt;a href=&quot;http://3dstereopics.blogspot.com/&quot; rel=&quot;nofollow&quot;&gt;3dstereopics.blogspot.com/&lt;/a&gt;" id="4470494185" latitude="51.500735" license="3" longitude="-0.124583" nbComments="0" rank="124" tags="unitedkingdom uk tower stereoscopic stereophotography stereophoto stereo parliament nikon london glasses geotagged famous england building british bigben big bell architecture anaglyphic anaglyph 3d 3dphoto redblueglasses redcyanglasses redcyan redblue 3dstereoimage anaglyph3d ttw stereoview 3dphotograph 3dstereopicture anaglifo 3danaglyph stereoscopy 3dimensional fuji finepix w1 w3 real3d" title="Big Ben London SW1 in anaglyph 3D red blue / cyan glasses" url_b="http://static.flickr.com/4020/4470494185_aa433fd1ea_b.jpg" username="3dstereopics" views="687" />
<photo  date_taken="2005-06-15 05:16:08" description="Parliament Square, London" id="64551613" latitude="51.500748" license="3" longitude="-0.12469" nbComments="1" rank="125" tags="london cool beauty sunny nice germany castles vacation trip family stairs cannons car cathedral church silver stainedglass europe steeples bigben toweroflondon weapons swords armour ravens briton uk market" title="Big Ben" url_b="http://static.flickr.com/32/64551613_eca19905f8_b.jpg" username="Tjflex2" views="51" />
<photo  date_taken="2005-06-15 07:52:34" description="London" id="64556997" latitude="51.500748" license="3" longitude="-0.12469" nbComments="1" rank="126" tags="london cool beauty sunny nice germany castles vacation trip family stairs cannons car cathedral church silver stainedglass europe steeples bigben toweroflondon weapons swords armour ravens briton uk market" title="Big Ben" url_b="http://static.flickr.com/34/64556997_afb03265e6_b.jpg" username="Tjflex2" views="105" />
<photo  date_taken="2000-08-03 08:58:57" description="" id="4532621545" latitude="51.500753" license="3" longitude="-0.124658" nbComments="0" rank="127" tags="london england bigben housesofparliament fence barbed" title="Not welcome" url_b="http://static.flickr.com/2785/4532621545_06e738cd82_b.jpg" username="Syn" views="19" />
<photo  date_taken="2008-05-01 21:00:53" description="" id="2460550170" latitude="51.500755" license="5" longitude="-0.124626" nbComments="2" rank="128" tags="clocktower bigben parliament westminster london" title="Clock Tower, Westminster" url_b="http://static.flickr.com/3262/2460550170_77e263d44d_b.jpg" username="GreyHobbit" views="44" />
<photo  date_taken="2008-05-01 21:01:01" description="" id="2460551298" latitude="51.500755" license="5" longitude="-0.124626" nbComments="0" rank="129" tags="clocktower bigben parliament westminster london" title="Clock Tower, Westminster" url_b="http://static.flickr.com/2317/2460551298_614201ca3e_b.jpg" username="GreyHobbit" views="35" />
<photo  date_taken="2008-05-01 21:04:12" description="The Clock Tower, Westminster. Big Ben lurks within..." id="2459716781" latitude="51.500755" license="5" longitude="-0.124626" nbComments="0" rank="130" tags="clocktower bigben london" title="Clock Tower" url_b="http://static.flickr.com/3178/2459716781_34ef74c04e_b.jpg" username="GreyHobbit" views="62" />
<photo  date_taken="2006-09-16 17:33:30" description="" id="246782865" latitude="51.500698" license="3" longitude="-0.124529" nbComments="0" rank="131" tags="bigben london light night clock tower illuminated" title="Big Ben 2" url_b="http://static.flickr.com/97/246782865_836357056e_b.jpg" username="msmail" views="17" />
<photo  date_taken="2006-09-16 17:43:19" description="" id="246789727" latitude="51.500698" license="3" longitude="-0.124529" nbComments="0" rank="132" tags="bigben london light night clock tower green yellow" title="Big Ben 4" url_b="http://static.flickr.com/82/246789727_602268206f_b.jpg" username="msmail" views="14" />
<photo  date_taken="2006-09-16 15:54:53" description="" id="246782860" latitude="51.500698" license="3" longitude="-0.124529" nbComments="0" rank="133" tags="bigben london clock tower light night illuminated stoplight" title="Big Ben 1" url_b="http://static.flickr.com/85/246782860_e7795615df_b.jpg" username="msmail" views="19" />
<photo  date_taken="2008-06-17 12:21:59" description="&lt;a href=&quot;http://www.parliament.uk/about/history/big_ben.cfm&quot;&gt;Visit the parliamentary website&lt;/a&gt; for more information about the history of the Clock Tower" id="2588190520" latitude="51.500725" license="3" longitude="-0.124551" nbComments="0" rank="134" tags="ukparliament uk parliament westminster london unitedkingdom housesofparliament houseofcommons houseoflords lords commons mp peers politics" title="Remove" url_b="http://static.flickr.com/3262/2588190520_4582ed5fd7_b.jpg" username="UK Parliament" views="590" />
<photo  date_taken="2008-11-21 11:20:54" description="A view of the Clock Tower (Big Ben) from inside the parliamentary estate. This image is subject to &lt;a href=&quot;http://www.parliament.uk/site_information/parliamentary_copyright.cfm#images&quot; target=&quot;_self&quot;&gt;parliamentary copyright&lt;/a&gt;. &lt;a href=&quot;http://www.parliament.uk/bigben&quot;&gt;Visit the Parliament website&lt;/a&gt; for more information about the Clock Tower." id="3118108926" latitude="51.500725" license="3" longitude="-0.124551" nbComments="1" rank="135" tags="bigben clocktower housesofparliament london westminster parliament ukparliament uk unitedkingdom houseofcommons houseoflords lords commons mp peers politics" title="Clock Tower (Big Ben) portrait" url_b="http://static.flickr.com/3084/3118108926_dab2ac25cf_b.jpg" username="UK Parliament" views="1482" />
<photo  date_taken="2008-12-01 10:31:50" description="There are 334 steps to Big Ben's belfry. This image is subject to &lt;a href=&quot;http://www.parliament.uk/site_information/parliamentary_copyright.cfm#images&quot; target=&quot;_self&quot;&gt;parliamentary copyright&lt;/a&gt;. &lt;a href=&quot;http://www.parliament.uk/bigben&quot;&gt;Visit the Parliament website&lt;/a&gt; for more information about the Clock Tower." id="3173783152" latitude="51.500725" license="3" longitude="-0.124551" nbComments="0" rank="136" tags="bigben clocktower parliament westminster london mps housesofparliament lords clocks clock ukparliament uk unitedkingdom houseofcommons houseoflords commons mp peers politics" title="Looking up the stairwell of Big Ben" url_b="http://static.flickr.com/3110/3173783152_5f38a701ca_b.jpg" username="UK Parliament" views="2122" />
<photo  date_taken="2008-05-08 09:17:00" description="&lt;a href=&quot;http://www.parliament.uk/about/history/big_ben.cfm&quot;&gt;Visit the parliamentary website&lt;/a&gt; for more information about the history of the Clock Tower" id="2587337883" latitude="51.500725" license="3" longitude="-0.124551" nbComments="0" rank="137" tags="ukparliament uk parliament westminster london unitedkingdom housesofparliament houseofcommons houseoflords lords commons mp peers politics" title="Remove" url_b="http://static.flickr.com/3117/2587337883_6df0d0ff68_b.jpg" username="UK Parliament" views="609" />
<photo  date_taken="2008-06-17 12:20:26" description="&lt;a href=&quot;http://www.parliament.uk/about/history/big_ben.cfm&quot;&gt;Visit the parliamentary website&lt;/a&gt; for more information about the history of the Clock Tower" id="2588186810" latitude="51.500725" license="3" longitude="-0.124551" nbComments="0" rank="138" tags="ukparliament uk parliament westminster london unitedkingdom housesofparliament houseofcommons houseoflords lords commons mp peers politics" title="Remove" url_b="http://static.flickr.com/3011/2588186810_7ac4bc1afa_b.jpg" username="UK Parliament" views="738" />
<photo  date_taken="2007-08-12 14:09:54" description="The mechanism was dismantled as part of maintenance work. &lt;a href=&quot;http://www.parliament.uk/about/history/big_ben.cfm&quot;&gt;Visit the parliamentary website&lt;/a&gt; for more information about the history of the Clock Tower." id="2624578644" latitude="51.500725" license="3" longitude="-0.124551" nbComments="0" rank="139" tags="ukparliament uk parliament westminster london unitedkingdom housesofparliament houseofcommons houseoflords lords commons mp peers politics" title="Dismantled mechanism" url_b="http://static.flickr.com/3206/2624578644_a5ba7c31d8_b.jpg" username="UK Parliament" views="658" />
<photo  date_taken="2008-06-17 12:24:09" description="&lt;a href=&quot;http://www.parliament.uk/about/history/big_ben.cfm&quot;&gt;Visit the parliamentary website&lt;/a&gt; for more information about the history of the Clock Tower" id="2588195508" latitude="51.500725" license="3" longitude="-0.124551" nbComments="0" rank="140" tags="ukparliament uk parliament westminster london unitedkingdom housesofparliament houseofcommons houseoflords lords commons mp peers politics" title="remove" url_b="http://static.flickr.com/3078/2588195508_04ee4d7363_b.jpg" username="UK Parliament" views="563" />
<photo  date_taken="2008-05-08 09:32:27" description="&lt;a href=&quot;http://www.parliament.uk/about/history/big_ben.cfm&quot;&gt;Visit the parliamentary website&lt;/a&gt; for more information about the history of the Clock Tower" id="2588175328" latitude="51.500725" license="3" longitude="-0.124551" nbComments="0" rank="141" tags="ukparliament uk parliament westminster london unitedkingdom housesofparliament houseofcommons houseoflords lords commons mp peers politics" title="Remove" url_b="http://static.flickr.com/3193/2588175328_cb2ff73451_b.jpg" username="UK Parliament" views="610" />
<photo  date_taken="2008-06-17 12:26:27" description="The clock is Dent constructed overseen by Edmund Denison MP (later Lord Grimthorpe) and George Airy Astonomer Royal. &lt;a href=&quot;http://www.parliament.uk/about/history/big_ben.cfm&quot;&gt;Visit the parliamentary website&lt;/a&gt; for more information about the history of the Clock Tower" id="2587366219" latitude="51.500725" license="3" longitude="-0.124551" nbComments="0" rank="142" tags="ukparliament uk parliament westminster london unitedkingdom housesofparliament houseofcommons houseoflords lords commons mp peers politics" title="Remove" url_b="http://static.flickr.com/3092/2587366219_cedf15d890_b.jpg" username="UK Parliament" views="647" />
<photo  date_taken="2008-06-17 12:23:06" description="&lt;a href=&quot;http://www.parliament.uk/about/history/big_ben.cfm&quot;&gt;Visit the parliamentary website&lt;/a&gt; for more information about the history of the Clock Tower" id="2588193132" latitude="51.500725" license="3" longitude="-0.124551" nbComments="0" rank="143" tags="ukparliament uk parliament westminster london unitedkingdom housesofparliament houseofcommons houseoflords lords commons mp peers politics" title="Remove" url_b="http://static.flickr.com/3051/2588193132_14f217d784_b.jpg" username="UK Parliament" views="496" />
<photo  date_taken="2008-06-17 12:19:50" description="&lt;a href=&quot;http://www.parliament.uk/about/history/big_ben.cfm&quot;&gt;Visit the parliamentary website&lt;/a&gt; for more information about the history of the Clock Tower" id="2587350219" latitude="51.500725" license="3" longitude="-0.124551" nbComments="0" rank="144" tags="ukparliament uk parliament westminster london unitedkingdom housesofparliament houseofcommons houseoflords lords commons mp peers politics" title="Remove" url_b="http://static.flickr.com/3194/2587350219_d06187379f_b.jpg" username="UK Parliament" views="539" />
<photo  date_taken="2008-11-19 10:01:21" description="The Clock Tower (Big Ben) mechanics use pre-1971 coins to alter the speed of the clock's pendulum. This picture shows a tin with some of the coins and the log sheet the mechanics use when they're correcting the speed of the pendulum. These images are subject to &lt;a href=&quot;http://www.parliament.uk/site_information/parliamentary_copyright.cfm#images&quot; target=&quot;_self&quot;&gt;parliamentary copyright&lt;/a&gt;. &lt;a href=&quot;http://www.parliament.uk/bigben&quot;&gt;Visit the Parliament website&lt;/a&gt; for more information about the Clock Tower." id="3043871600" latitude="51.500725" license="3" longitude="-0.124551" nbComments="0" rank="145" tags="parliament mps lords commons bigben clocktower housesofparliament houseofcommons houseoflords ukparliament uk westminster london unitedkingdom mp peers politics" title="Big Ben: Pendulum coins and the log sheet" url_b="http://static.flickr.com/3025/3043871600_59efa9edbf_b.jpg" username="UK Parliament" views="2866" />
<photo  date_taken="2008-06-28 11:32:21" description="Air brake used to regulate the decent of the weights. &lt;a href=&quot;http://www.parliament.uk/about/history/big_ben.cfm&quot;&gt;Visit the parliamentary website&lt;/a&gt; for more information about the history of the Clock Tower." id="2619048846" latitude="51.500725" license="3" longitude="-0.124551" nbComments="0" rank="146" tags="ukparliament uk parliament westminster london unitedkingdom housesofparliament houseofcommons houseoflords lords commons mp peers politics" title="Fly fans" url_b="http://static.flickr.com/3131/2619048846_03b2e80c16_b.jpg" username="UK Parliament" views="556" />
<photo  date_taken="2008-11-14 23:00:21" description="Nikon D40 + Sigma 18-200 DC OS HSM 1/4s - F/8 - 18mm - ISO1600" id="3050651001" latitude="51.500755" license="4" longitude="-0.1247" nbComments="0" rank="147" tags="geo:lat=5150075538 geo:lon=012470126 geotagged grb uk london fenchurchstreet cityofwestminster bigben night nighshot handheld tower clock gothicrevival palaceofwestminster" title="BIG Ben" url_b="http://static.flickr.com/3155/3050651001_843908e03a_b.jpg" username="Mypoorbrain" views="97" />
<photo  date_taken="2009-02-08 00:52:43" description="" id="4398096137" latitude="51.500755" license="1" longitude="-0.124604" nbComments="13" rank="148" tags="world geotagging geocoding vacation holiday photo travel vacations famous holidays travelling photos photography geocoded trip geotagged colors colour color colours colorful colourful thomasleplus night monument city street urban canonef2470mmf28lusm canoneos40d bigben moon clock clocktower tower palaceofwestminster palace westminster architecture exif:aperture=f28 exif:exposure=0067sec115 exif:exposure_bias=13ev exif:flash=offdidnotfire exif:focal_length=45mm exif:iso_speed=800 exif:make=canon camera:make=canon exif:model=canoneos40d camera:model=canoneos40d geo:longitude=0124604 geo:latitude=51500755 art exif:lens=ef2470mmf28lusm camera:lens=ef2470mmf28lusm meta:exif=1267841655" title="Big Ben by Night - London, UK" url_b="http://static.flickr.com/4009/4398096137_76d14037a4_b.jpg" username="Thomas Leplus" views="193" />
<photo  date_taken="2010-02-02 20:55:32" description="" id="2326932028" latitude="51.500755" license="1" longitude="-0.124604" nbComments="7" rank="149" tags="london uk bigben clocktower palaceofwestminster night longexposure londoneye millenniumwheel doubledecker olympusc8080wz architecture europe england city geotagged landscape street travel vacation trip sky light monument famous geocoding geotagging geocoded holiday photo photos photography urban holidays thomasleplus vacations travelling world color colors colour colours colourful colorful art geo:longitude=0124604 geo:latitude=51500755 meta:exif=1267843714 exif:exposure_bias=0ev camera:make=olympuscorporation exif:model=c8080wz camera:model=c8080wz exif:aperture=f35 exif:exposure=4sec exif:make=olympuscorporation exif:iso_speed=50 exif:focal_length=71mm exif:flash=offdidnotfire" title="House of Parliament - Big Ben - London, UK" url_b="http://static.flickr.com/3283/2326932028_143fb9268f_b.jpg" username="Thomas Leplus" views="217" />
<photo  date_taken="2008-08-25 14:26:59" description="Clock Tower at dusk" id="2866746851" latitude="51.500762" license="3" longitude="-0.124636" nbComments="0" rank="150" tags="london clocktower bigben" title="325b" url_b="http://static.flickr.com/3267/2866746851_ae34bd2796_b.jpg" username="michael_durden" views="9" />
</photos>
