<?xml version="1.0" encoding="UTF-8" standalone="no"?>
<photos monument="Casa Batllo">

<photo  date_taken="2011-05-19 15:10:23" description="La fachada se hizo con piedra arenisca de Montjuïc, tallada según superficies regladas en forma alabeada; las columnas tienen forma ósea, con representaciones vegetales.[4] La carpintería es igualmente de superficies curvas, y las ventanas son de vidrios de colores de formas circulares. Gaudí conservó la forma rectangular de los balcones del edificio anterior -con barandillas de hierro con forma de antifaz-, dando al resto de la fachada una forma ondulada en sentido ascendente. Asimismo revistió la fachada con cerámica de pedazos de cristal de varios colores (su famoso &amp;quot;trencadís&amp;quot;), que Gaudí obtenía en los desechos de la vidriería Pelegrí." id="5744166404" latitude="41.391656" license="1" longitude="2.164961" nbComments="34" rank="1" tags="casabatllo fachada balcones ventanas antonigaudíiconet barcelona catalunya nikond60 fototetegil برشلونة барселоне バルセロナ" title="Casa Batllo de Antoni Gaudí i Conet" url_b="http://static.flickr.com/2224/5744166404_6ba69d6afb_b.jpg" username="tetegil" views="100" />
<photo  date_taken="2010-10-17 12:16:35" description="A falta de mejores fotos de la terraza, el detalle de la cruz de 4 brazos, característica en Gaudí. De nuevo, una inspiración de la naturaleza - la cruz modela el fruto del ciprés, el árbol de la vida." id="5132410485" latitude="41.391684" license="6" longitude="2.164961" nbComments="0" rank="2" tags="españa spain cataluña catalonia catalunya barcelona casa batllo gaudi architecture arquitectura" title="Casa Battló" url_b="http://static.flickr.com/1067/5132410485_57ae7e2bcc_b.jpg" username="TheFutureIsUnwritten" views="45" />
<photo  date_taken="2012-04-06 13:57:45" description="" id="7065365999" latitude="41.39162" license="6" longitude="2.165004" nbComments="0" rank="3" tags="barcelona antonigaudí catalunya" title="At Casa Batlló in Barcelona" url_b="http://static.flickr.com/5111/7065365999_69aaef5265_b.jpg" username="Johannes Martin" views="31" />
<photo  date_taken="2011-01-30 12:54:43" description="Casa Batllo by Antoni Gaudi." id="5413132078" latitude="41.391716" license="3" longitude="2.164975" nbComments="0" rank="4" tags="spain espana architecture antonigaudi gaudi barcelona casabatllo facebook" title="Casa Batllo" url_b="http://static.flickr.com/5215/5413132078_66bd07d7e3_b.jpg" username="asmythie" views="128" />
<photo  date_taken="2011-01-30 12:54:51" description="Casa Batllo by Antoni Gaudi." id="5413133164" latitude="41.391716" license="3" longitude="2.164975" nbComments="0" rank="5" tags="spain espana architecture antonigaudi gaudi barcelona casabatllo facebook" title="Casa Batllo" url_b="http://static.flickr.com/5292/5413133164_acd13fe404_b.jpg" username="asmythie" views="96" />
<photo  date_taken="2007-06-07 07:36:48" description="" id="2314598175" latitude="41.391612" license="4" longitude="2.165004" nbComments="0" rank="6" tags="gaudi art nouveau barcelona architecture" title="Casa Batllo" url_b="http://static.flickr.com/2319/2314598175_a3ed742017_b.jpg" username="Michael Gwyther-Jones" views="452" />
<photo  date_taken="2011-12-23 17:16:19" description="Casa Batllo, Barcelone" id="6665692767" latitude="41.391719" license="5" longitude="2.164975" nbComments="2" rank="7" tags="49941" title="Fenêtres sur bleu" url_b="http://static.flickr.com/7154/6665692767_84da374d99_b.jpg" username="jfgornet" views="17" />
<photo  date_taken="2012-04-06 13:56:49" description="" id="6919286238" latitude="41.391608" license="6" longitude="2.165004" nbComments="0" rank="8" tags="barcelona antonigaudí catalunya" title="At Casa Batlló in Barcelona" url_b="http://static.flickr.com/5200/6919286238_2e63b8b664_b.jpg" username="Johannes Martin" views="33" />
<photo  date_taken="2011-04-13 15:31:54" description="columnas que recuerdas huesos humanos" id="5662012660" latitude="41.391672" license="1" longitude="2.164939" nbComments="41" rank="9" tags="ventana ventanal columnas casabatllo antonigaudíicornet18521926 barcelona catalunya nikond60 fototetegil 巴塞罗那 バルセロナ برشلونة барселона барселоне" title="Ventanal Casa Batllo" url_b="http://static.flickr.com/5144/5662012660_22130021fd_b.jpg" username="tetegil" views="125" />
<photo  date_taken="2008-09-10 13:45:00" description="" id="2872398962" latitude="41.391648" license="5" longitude="2.164939" nbComments="0" rank="10" tags="barcelona antonigaudí gaudí casabatlló spain 20080910 mlf canonpowershots3is 2008" title="Casa Batlló" url_b="http://static.flickr.com/3176/2872398962_5e8d4662a7_b.jpg" username="Morgaine" views="27" />
<photo  date_taken="2012-04-06 14:04:25" description="" id="6919286942" latitude="41.391608" license="6" longitude="2.165025" nbComments="0" rank="11" tags="barcelona antonigaudí catalunya" title="At Casa Batlló in Barcelona" url_b="http://static.flickr.com/7256/6919286942_b0957da003_b.jpg" username="Johannes Martin" views="40" />
<photo  date_taken="2012-04-06 13:52:08" description="" id="7065365401" latitude="41.391636" license="6" longitude="2.165057" nbComments="0" rank="12" tags="barcelona antonigaudí catalunya" title="At Casa Batlló in Barcelona" url_b="http://static.flickr.com/7092/7065365401_92bed4f96b_b.jpg" username="Johannes Martin" views="43" />
<photo  date_taken="2012-01-21 16:24:06" description="&lt;b&gt;Fragments&lt;/b&gt; - Passeig de Gràcia - Barcelona (Spain). EnFoCa KDD Sagrada Família 21/01/2012 --- La reflexión: &lt;a href=&quot;http://www.santimb.com/2012/04/fragmentos.html&quot; rel=&quot;nofollow&quot;&gt;www.santimb.com/2012/04/fragmentos.html&lt;/a&gt;" id="6941111224" latitude="41.391719" license="3" longitude="2.165041" nbComments="6" rank="13" tags="geo:lat=4139172076 geo:lon=216504157 geotagged tamron 18200 enfoca kdd novicecontrast gaf500 ventana window reflejo reflection casabatlló batlló barcelona cataluna españa esp" title="Fragmentos" url_b="http://static.flickr.com/5155/6941111224_96ba81505c_b.jpg" username=". SantiMB ." views="132" />
<photo  date_taken="2008-03-01 11:34:51" description="Aun no puedo publicar las fotos pero bueno, basta decir que rodar en frente la casa batlló un sabado es una pesadilla, ademas con 2 luces, generador y mucha gente, pues eso...pero al mismo tiempo es una pasada, la gente piensa que somos gente importante o algo, fue una verdadera pasada... El reflector que vies (con nido de abeja) para la contra y de frente, detras mio, un beauty dish. Realmente no habia mucho sol pero con suerte, los focos ayudaron muchisimo. Agency: &lt;a href=&quot;http://www.deboomstudio.com/&quot;&gt;DeBoom studio&lt;/a&gt; Make up: &lt;a href=&quot;http://www.evasanzmakeup.com/&quot;&gt;Eva Sanz&lt;/a&gt; Stylist: &lt;a href=&quot;http://www.stylish.es&quot;&gt;Antia Alonso Rodriguez&lt;/a&gt; Model 1: &lt;a href=&quot;http://www.flickr.com/photos/2dogs_productions/tags/dashagoncharenko/show/&quot;&gt;Dasha Goncharenko&lt;/a&gt; Model 2: &lt;a href=&quot;http://www.flickr.com/photos/24365175@N02/&quot;&gt;Thomas Dorman&lt;/a&gt;" id="2308679354" latitude="41.391732" license="4" longitude="2.165025" nbComments="6" rank="14" tags="fashion moda mode beauty belleza model mannequin glam glamour glamor portrait eos5d studio wwwstudioes vincentboiteau studioes allrightsreserved photoshoot90 dashagoncharenko dariagoncharenko thomasdorman deboomstudio makingof casabatlló advertising evasanz antiarodriguezalonso fashionshoot creativecommons vinnie" title="Ajuntament 02 © studio.es" url_b="http://static.flickr.com/3247/2308679354_2b62aca60f_b.jpg" username="Vincent Boiteau" views="3448" />
<photo  date_taken="2012-11-12 03:08:52" description="Barcelona, Spain" id="8179309276" latitude="41.391732" license="1" longitude="2.165025" nbComments="5" rank="15" tags="swirling ceiling gaudi casabatlló batllo house architecture barcelona spain picken design modernista" title="Swirling ceiling at Gaudi's Casa Batlló" url_b="http://static.flickr.com/8067/8179309276_bb1f8a6bce_b.jpg" username="John Picken" views="142" />
<photo  date_taken="2008-05-12 12:50:23" description="Este es el anuncio final que han publicado, aqui verais el &lt;a href=&quot;http://www.flickr.com/photos/2dogs_productions/tags/photoshoot90/show/&quot;&gt;making-of&lt;/a&gt; Agency: &lt;a href=&quot;http://www.deboomstudio.com/&quot;&gt;DeBoom studio&lt;/a&gt; Make up: &lt;a href=&quot;http://www.evasanzmakeup.com/&quot;&gt;Eva Sanz&lt;/a&gt; Stylist: &lt;a href=&quot;http://www.stylish.es&quot;&gt;Antia Alonso Rodriguez&lt;/a&gt; Model 1: &lt;a href=&quot;http://www.flickr.com/photos/2dogs_productions/tags/dashagoncharenko/show/&quot;&gt;Dasha Goncharenko&lt;/a&gt; Model 2: &lt;a href=&quot;http://www.flickr.com/photos/24365175@N02/&quot;&gt;Thomas Dorman&lt;/a&gt;" id="2486303436" latitude="41.391732" license="4" longitude="2.165025" nbComments="9" rank="16" tags="fashion moda mode beauty belleza model mannequin glam glamour glamor eos5d studio wwwstudioes vincentboiteau studioes allrightsreserved photoshoot90 casabatlló advertising adcampaign anuncio dashagoncharenko dariiagoncharenko thomasdorman evasanz antiarodriguezalonso creativecommons vinnie" title="Ajuntament 03 © studio.es" url_b="http://static.flickr.com/3034/2486303436_4f86e394fa_b.jpg" username="Vincent Boiteau" views="3056" />
<photo  date_taken="2008-07-28 13:44:18" description="" id="3587117278" latitude="41.391676" license="3" longitude="2.164928" nbComments="17" rank="17" tags="gaudi arquitectura architecture barcelona catalunya catalonia cataluña bcn casabatlló nikon nikond40 d40 1855mmf3556g modernisme antoni jujol passeigdegràcia cruzadas" title="" url_b="http://static.flickr.com/2449/3587117278_8e456ce184_b.jpg" username="jordi.martorell" views="237" />
<photo  date_taken="2008-09-12 12:03:26" description="" id="2885092188" latitude="41.39174" license="5" longitude="2.165004" nbComments="0" rank="18" tags="barcelona casabatlló 20080912 mlf spain streetview canonpowershots3is 2008" title="tourists @ Casa Batllò" url_b="http://static.flickr.com/3080/2885092188_3ec8ac7c36_b.jpg" username="Morgaine" views="56" />
<photo  date_taken="2007-11-03 16:26:27" description="Casa Batlló was designed by Gaudí for a wealthy Barcelona Aristocrat. The lower levels were for the owner and the upper floors for renting. The &amp;quot;house&amp;quot; is now a museum and I highly recommend visiting this building." id="3795941254" latitude="41.391667" license="2" longitude="2.165" nbComments="0" rank="19" tags="barcelona casabatlló cataluña españa gaudi" title="Casa Batlló (Barcelona, España)" url_b="http://static.flickr.com/3527/3795941254_bd55836d42_b.jpg" username="Satyrvs" views="96" />
<photo  date_taken="2003-12-17 21:01:45" description="Casa Batllo" id="621458534" latitude="41.391667" license="1" longitude="2.165" nbComments="0" rank="20" tags="barcelona casabatllo spain dc:audience=public iphoto:rating=4 iphoto:id=233" title="IMG_0553.JPG" url_b="http://static.flickr.com/1108/621458534_3b72a3bb78_b.jpg" username="liquidx" views="4" />
<photo  date_taken="2007-11-03 16:26:10" description="Casa Batlló was designed by Gaudí for a wealthy Barcelona Aristocrat. The lower levels were for the owner and the upper floors for renting. The &amp;quot;house&amp;quot; is now a museum and I highly recommend visiting this building." id="3795941024" latitude="41.391667" license="2" longitude="2.165" nbComments="0" rank="21" tags="barcelona casabatlló cataluña españa gaudi" title="Casa Batlló (Barcelona, España)" url_b="http://static.flickr.com/2461/3795941024_cb34a2dc85_b.jpg" username="Satyrvs" views="108" />
<photo  date_taken="2003-12-18 01:06:28" description="" id="621570696" latitude="41.391667" license="1" longitude="2.165" nbComments="0" rank="22" tags="barcelona casabatllo spain dc:audience=public iphoto:rating=4 iphoto:id=308" title="IMG_0629.JPG" url_b="http://static.flickr.com/1064/621570696_7e5fefa4e1_b.jpg" username="liquidx" views="3" />
<photo  date_taken="2003-12-17 21:06:15" description="Casa Batllo" id="621460394" latitude="41.391667" license="1" longitude="2.165" nbComments="0" rank="23" tags="barcelona spain dc:audience=public iphoto:rating=4 iphoto:id=234" title="IMG_0554.JPG" url_b="http://static.flickr.com/1148/621460394_1da4f69165_b.jpg" username="liquidx" views="3" />
<photo  date_taken="2011-06-09 22:39:14" description="@Percidi de Gracia, Barcelona" id="5861449702" latitude="41.391666" license="5" longitude="2.165" nbComments="0" rank="24" tags="casabatlló barcelona mothandmoth" title="Casa Batlló" url_b="http://static.flickr.com/5197/5861449702_2d02cf3b33_b.jpg" username="muammerokumus" views="46" />
<photo  date_taken="2012-01-27 17:30:16" description="In and around Barcelona, Spain." id="6772847565" latitude="41.391661" license="2" longitude="2.165002" nbComments="0" rank="25" tags="barcelona barcelonaspain jan2012 spain casabatlló antonigaudi gaudi" title="IMG_2284.JPG" url_b="http://static.flickr.com/7170/6772847565_1e0f6296fa_b.jpg" username="NothingToDeclare" views="4" />
<photo  date_taken="2011-09-29 07:49:40" description="Casa Batlló, Antoni Gaudí 1904-1906, Barcelona." id="6194530676" latitude="41.391668" license="2" longitude="2.164989" nbComments="1" rank="26" tags="casabatllo antonigaudi passeigdegracia barcelona catalunya españa sigma dp1 almusaiti 28mm foveon victorianojaviertornelgarcia es" title="" url_b="http://static.flickr.com/6160/6194530676_1fd8f76fab_b.jpg" username="Almusaiti" views="94" />
<photo  date_taken="2012-09-05 22:15:00" description="Casa Batlló de Gaudí" id="8027591201" latitude="41.391676" license="3" longitude="2.165014" nbComments="1" rank="27" tags="barcelona cuaderno sitges sketchbook urbansketcher urbansketchers usk gaudi" title="id205" url_b="http://static.flickr.com/8461/8027591201_45606c11d2_b.jpg" username="isaac duenyas" views="127" />
<photo  date_taken="2011-09-29 07:50:23" description="Casa Batlló, Antoni Gaudí 1904-1906, Barcelona." id="6194014487" latitude="41.39168" license="2" longitude="2.164989" nbComments="1" rank="28" tags="casabatllo antonigaudi passeigdegracia barcelona catalunya españa sigma dp1 almusaiti 28mm foveon victorianojaviertornelgarcia es" title="" url_b="http://static.flickr.com/6157/6194014487_e2420926dd_b.jpg" username="Almusaiti" views="108" />
<photo  date_taken="2009-06-08 10:58:04" description="" id="3627018612" latitude="41.391652" license="1" longitude="2.165014" nbComments="0" rank="29" tags="2009 balcony barcelona casabatllo europe facade passeigdegracia spain trees geotagged" title="BCN_June 8_107" url_b="http://static.flickr.com/2455/3627018612_707dccd5ca_b.jpg" username="mgrenner57" views="12" />
<photo  date_taken="2009-06-08 11:00:55" description="Casa Batllo as seen from across the Passeig de Gracia--one of a number of shots from different angles and distances." id="3627021482" latitude="41.391652" license="1" longitude="2.165014" nbComments="0" rank="30" tags="2009 balcony barcelona casabatllo europe facade passeigdegracia spain trees geotagged" title="BCN_June 8_110" url_b="http://static.flickr.com/3405/3627021482_e9320e72f4_b.jpg" username="mgrenner57" views="17" />
<photo  date_taken="2009-06-08 10:49:19" description="Balconies of the Casa Batllo -- looking like opera masks." id="3626867966" latitude="41.391652" license="1" longitude="2.165014" nbComments="0" rank="31" tags="2009 balcony barcelona casabatllo europe facade passeigdegracia spain geotagged" title="BCN_June 8_095" url_b="http://static.flickr.com/3634/3626867966_772237f504_b.jpg" username="mgrenner57" views="14" />
<photo  date_taken="2009-06-08 10:58:38" description="" id="3626204697" latitude="41.391652" license="1" longitude="2.165014" nbComments="0" rank="32" tags="2009 balcony barcelona casabatllo europe facade passeigdegracia spain trees geotagged" title="BCN_June 8_108" url_b="http://static.flickr.com/3616/3626204697_573daf767d_b.jpg" username="mgrenner57" views="7" />
<photo  date_taken="2009-06-08 10:57:53" description="" id="3626203641" latitude="41.391652" license="1" longitude="2.165014" nbComments="0" rank="33" tags="2009 balcony barcelona casabatllo europe facade passeigdegracia spain trees geotagged" title="BCN_June 8_106" url_b="http://static.flickr.com/2477/3626203641_69f388caa3_b.jpg" username="mgrenner57" views="9" />
<photo  date_taken="2009-06-08 10:49:03" description="The wild shapes of the Casa Batllo's windows." id="3626053249" latitude="41.391652" license="1" longitude="2.165014" nbComments="0" rank="34" tags="2009 balcony barcelona casabatllo europe facade passeigdegracia spain geotagged" title="BCN_June 8_094" url_b="http://static.flickr.com/3614/3626053249_335164e445_b.jpg" username="mgrenner57" views="24" />
<photo  date_taken="2009-06-08 10:50:20" description="" id="3626200145" latitude="41.391652" license="1" longitude="2.165014" nbComments="0" rank="35" tags="2009 balcony barcelona casabatllo europe facade passeigdegracia spain geotagged" title="BCN_June 8_097" url_b="http://static.flickr.com/3302/3626200145_2644747e15_b.jpg" username="mgrenner57" views="12" />
<photo  date_taken="2009-06-08 10:49:41" description="Top of Casa Batllo facade." id="3626868488" latitude="41.391652" license="1" longitude="2.165014" nbComments="0" rank="36" tags="2009 balcony barcelona casabatllo europe facade passeigdegracia spain geotagged" title="BCN_June 8_096" url_b="http://static.flickr.com/3630/3626868488_0463b0c9bb_b.jpg" username="mgrenner57" views="6" />
<photo  date_taken="2009-06-08 10:59:28" description="" id="3627019782" latitude="41.391652" license="1" longitude="2.165014" nbComments="0" rank="37" tags="2009 balcony barcelona casabatllo europe facade passeigdegracia spain trees geotagged" title="BCN_June 8_109" url_b="http://static.flickr.com/3357/3627019782_a101ccc295_b.jpg" username="mgrenner57" views="7" />
<photo  date_taken="2009-06-08 10:48:41" description="One of a series of shots of the exterior facade of the Casa Batllo (on Passeig de Gracia)." id="3626867280" latitude="41.391652" license="1" longitude="2.165014" nbComments="0" rank="38" tags="2009 balcony barcelona casabatllo europe facade passeigdegracia spain geotagged" title="BCN_June 8_093" url_b="http://static.flickr.com/3312/3626867280_d865c34ccd_b.jpg" username="mgrenner57" views="9" />
<photo  date_taken="2012-01-27 17:30:10" description="In and around Barcelona, Spain." id="6772846101" latitude="41.39168" license="2" longitude="2.165019" nbComments="0" rank="39" tags="barcelona barcelonaspain jan2012 spain casabatlló antonigaudi gaudi" title="IMG_2283.JPG" url_b="http://static.flickr.com/7001/6772846101_de08c2f9c2_b.jpg" username="NothingToDeclare" views="10" />
<photo  date_taken="2007-03-21 10:47:09" description="La Casa Amatller, otra obra modernista situada al lado de Casa Batlló, con unas interesantes molduras en sus ventanas. &amp;quot;Su estilo,&amp;quot; me dice Wikipedia, &amp;quot;es una mezcla de gótico catalán y flamenco&amp;quot;." id="557915191" latitude="41.391644" license="3" longitude="2.164982" nbComments="0" rank="40" tags="vacaciones 2007 españa barcelona detalles letrero sign señal fotofoto" title="&quot;P&quot;" url_b="http://static.flickr.com/1246/557915191_3081f29018_b.jpg" username="Quiquex!" views="49" />
<photo  date_taken="2008-07-04 11:47:22" description="Casa Batlló" id="3397927937" latitude="41.391692" license="6" longitude="2.164982" nbComments="1" rank="41" tags="casabatlló barcelona bcn barna catalunya gaudí genio arquitecto arquitectura sala architecture batlló" title="" url_b="http://static.flickr.com/3435/3397927937_18d9e08c68_b.jpg" username="Pecia!" views="38" />
<photo  date_taken="2008-02-17 09:04:14" description="" id="2283767553" latitude="41.391647" license="1" longitude="2.16503" nbComments="0" rank="42" tags="spain barcelona blockofdiscord casabatllo autostitch" title="Casa Batllo" url_b="http://static.flickr.com/3013/2283767553_ff2ce4561f_b.jpg" username="Kwong Yee Cheng" views="26" />
<photo  date_taken="2008-02-17 09:03:24" description="" id="2283767461" latitude="41.391647" license="1" longitude="2.16503" nbComments="0" rank="43" tags="spain barcelona blockofdiscord casabatllo" title="Casa Batllo" url_b="http://static.flickr.com/2371/2283767461_8af8e3d324_b.jpg" username="Kwong Yee Cheng" views="12" />
<photo  date_taken="2012-03-15 16:11:47" description="La casa Batlló es uno de los edificios más carismáticos del Eixample. La reforma del edificio anterior implicó un concepto nuevo de ornamentación, que antepone el color a la luz." id="6862951592" latitude="41.3917" license="1" longitude="2.164982" nbComments="20" rank="44" tags="casabatlló balcones ventanas azulejos boveda azotea barcelona catalunya nikond60 fototetegil" title="Casa Batlló Bóveda de la fachada y Balcones" url_b="http://static.flickr.com/7193/6862951592_ac21daa656_b.jpg" username="tetegil" views="134" />
<photo  date_taken="2011-01-27 18:27:50" description="La fachada esta cubierta con piezas de azulejos, y los balcones representan mascaras de carnaval./ The facade is covered with pieces of tiles, and the balconies represents carnival masks. Casa Batlló, No.43 Passeig de Gràcia, Metro &amp;quot;Passeig de Gràcia&amp;quot; (Green Line, L3)" id="6021099766" latitude="41.391632" license="4" longitude="2.164986" nbComments="3" rank="45" tags="barcelona spain españa cataluña catalona architecure arquitectura casabatlló gaudí" title="Casa Batlló" url_b="http://static.flickr.com/6011/6021099766_81f107c78d_b.jpg" username="Cris Valencia" views="89" />
<photo  date_taken="2010-08-23 00:01:57" description="Barcelona - Catalunya - España" id="4918805114" latitude="41.391664" license="2" longitude="2.165041" nbComments="3" rank="46" tags="cores surrealismo mosaico gaudí azul barcelona" title="Casa Batlló" url_b="http://static.flickr.com/4101/4918805114_9594b74028_b.jpg" username="nina vieira." views="38" />
<photo  date_taken="2010-10-17 13:05:01" description="Motivos marinos en las ventanas, y columnas como huesos que sostienen una casa modelada según las formas de la naturaleza." id="5132409301" latitude="41.391684" license="6" longitude="2.164961" nbComments="0" rank="47" tags="españa spain cataluña catalonia catalunya barcelona casa batllo gaudi architecture arquitectura" title="Casa Battló" url_b="http://static.flickr.com/1199/5132409301_2abaa670e1_b.jpg" username="TheFutureIsUnwritten" views="44" />
<photo  date_taken="2010-10-17 12:42:12" description="Un remolino en el techo, devorando un sol de mar" id="5132406947" latitude="41.391684" license="6" longitude="2.164961" nbComments="0" rank="48" tags="españa spain cataluña catalonia catalunya barcelona casa batllo gaudi architecture arquitectura" title="Casa Battló" url_b="http://static.flickr.com/1433/5132406947_42561bf213_b.jpg" username="TheFutureIsUnwritten" views="22" />
<photo  date_taken="2010-10-17 12:24:06" description="Finalmente, la Casa Batllo. Ninguna foto (y menos las mías en una tarde oscura) puede mostrar el mundo fantástico que Gaudí creo en su interior. Sólo diré que es la única vez que he visto a la biología, la matemática, la arquitectura y el diseño - las ciencias y las artes - juntas, sólo para crear magia." id="5132404175" latitude="41.391684" license="6" longitude="2.164961" nbComments="0" rank="49" tags="españa spain cataluña catalonia catalunya barcelona casa batllo gaudi architecture arquitectura" title="Casa Batlló" url_b="http://static.flickr.com/4041/5132404175_3aee3f71a7_b.jpg" username="TheFutureIsUnwritten" views="40" />
<photo  date_taken="2010-10-17 13:06:52" description="La vista a Passeig de Gracia, desde la ventana del segundo piso. Un hueso fósil observa el mundo que sigue adelante." id="5132410187" latitude="41.391684" license="6" longitude="2.164961" nbComments="0" rank="50" tags="españa spain cataluña catalonia catalunya barcelona casa batllo gaudi architecture arquitectura" title="Casa Battló" url_b="http://static.flickr.com/1436/5132410187_7712f5434d_b.jpg" username="TheFutureIsUnwritten" views="25" />
<photo  date_taken="2010-10-17 12:20:27" description="La fachada - una colección de osamentas, espinas de pescado, seres marinos y otras criaturas de la imaginacion gaudiana." id="5132406177" latitude="41.391684" license="6" longitude="2.164961" nbComments="0" rank="51" tags="españa spain cataluña catalonia catalunya barcelona casa batllo gaudi architecture arquitectura" title="Casa Battló" url_b="http://static.flickr.com/4039/5132406177_50555de3d8_b.jpg" username="TheFutureIsUnwritten" views="35" />
<photo  date_taken="2010-10-17 12:17:49" description="Patrimonio cultural de la Unesco, la Casa Batlló siempre tiene visitas. Es una suerte que la fila no sea tan larga. Algo tendrán que ver los precios, y el juego del Barza, claro." id="5132405217" latitude="41.391684" license="6" longitude="2.164961" nbComments="0" rank="52" tags="españa spain cataluña catalonia catalunya barcelona casa batllo gaudi architecture arquitectura" title="Casa Battló" url_b="http://static.flickr.com/1075/5132405217_ac7a8fa9d4_b.jpg" username="TheFutureIsUnwritten" views="31" />
<photo  date_taken="2010-06-13 14:12:16" description="" id="4695426799" latitude="41.391648" license="3" longitude="2.164961" nbComments="0" rank="53" tags="barcelona casabatlló gaudí" title="Casa Batlló" url_b="http://static.flickr.com/4056/4695426799_485089ee14_b.jpg" username="Camilo S.B." views="3" />
<photo  date_taken="2012-01-27 17:30:22" description="In and around Barcelona, Spain." id="6772848765" latitude="41.391691" license="2" longitude="2.164963" nbComments="0" rank="54" tags="barcelona barcelonaspain jan2012 spain casabatlló antonigaudi gaudi" title="IMG_2285.JPG" url_b="http://static.flickr.com/7015/6772848765_78cbf73827_b.jpg" username="NothingToDeclare" views="6" />
<photo  date_taken="2010-04-17 23:38:16" description="" id="4532363421" latitude="41.391644" license="1" longitude="2.164961" nbComments="0" rank="55" tags="barcelona casabatlló" title="Casa Batlló roof" url_b="http://static.flickr.com/4058/4532363421_ca7933ab8c_b.jpg" username="danny q" views="16" />
<photo  date_taken="2010-11-05 15:48:01" description="A visit to Gaudi's Casa Batllo and other sites in Barcelona" id="5157673960" latitude="41.391644" license="4" longitude="2.164961" nbComments="0" rank="56" tags="" title="IMG_20101105_154801" url_b="http://static.flickr.com/1410/5157673960_748d5ec4f4_b.jpg" username="caswell_tom" views="13" />
<photo  date_taken="2010-04-17 23:32:40" description="" id="4532992370" latitude="41.391644" license="1" longitude="2.164961" nbComments="0" rank="57" tags="barcelona" title="Casa Batlló" url_b="http://static.flickr.com/4066/4532992370_8e41e80d1c_b.jpg" username="danny q" views="4" />
<photo  date_taken="2010-04-17 23:35:06" description="" id="4532993794" latitude="41.391644" license="1" longitude="2.164961" nbComments="0" rank="58" tags="barcelona casabatlló" title="VIP Lounge, cleanup" url_b="http://static.flickr.com/2800/4532993794_4fd0cfe29d_b.jpg" username="danny q" views="34" />
<photo  date_taken="2010-06-13 22:38:10" description="酷！" id="4937205442" latitude="41.391638" license="3" longitude="2.165036" nbComments="0" rank="59" tags="sony dschx5v europe spain barcelona" title="Casa Batlló" url_b="http://static.flickr.com/4143/4937205442_a07283fc85_b.jpg" username="C.T. Chang" views="16" />
<photo  date_taken="2011-05-08 15:56:08" description="View from the roof of Casa Batlló" id="5700828921" latitude="41.391705" license="2" longitude="2.164972" nbComments="0" rank="60" tags="barcelona spain zoer gaudi" title="Barcelona, Spain" url_b="http://static.flickr.com/2740/5700828921_0b728262e6_b.jpg" username="zoer" views="7" />
<photo  date_taken="2010-11-05 15:47:51" description="A visit to Gaudi's Casa Batllo and other sites in Barcelona" id="5157673686" latitude="41.391658" license="4" longitude="2.164953" nbComments="0" rank="61" tags="" title="IMG_20101105_154751" url_b="http://static.flickr.com/4127/5157673686_f3736442db_b.jpg" username="caswell_tom" views="12" />
<photo  date_taken="2010-06-13 14:11:39" description="" id="4696060316" latitude="41.391676" license="3" longitude="2.16495" nbComments="0" rank="62" tags="barcelona gaudí casa batlló" title="Casa Batlló" url_b="http://static.flickr.com/4052/4696060316_da135d0966_b.jpg" username="Camilo S.B." views="4" />
<photo  date_taken="2010-11-05 15:50:42" description="A visit to Gaudi's Casa Batllo and other sites in Barcelona" id="5157674924" latitude="41.391625" license="4" longitude="2.164967" nbComments="0" rank="63" tags="" title="IMG_20101105_155043" url_b="http://static.flickr.com/1173/5157674924_360d86c670_b.jpg" username="caswell_tom" views="14" />
<photo  date_taken="2011-01-29 20:56:53" description="Casa Batllo at night." id="5412520451" latitude="41.391716" license="3" longitude="2.164975" nbComments="0" rank="64" tags="spain espana architecture antonigaudi gaudi barcelona casabatllo facebook" title="Casa Batllo at night" url_b="http://static.flickr.com/4153/5412520451_0ef0d7cc5f_b.jpg" username="asmythie" views="111" />
<photo  date_taken="2001-08-16 00:00:00" description="" id="6962449147" latitude="41.391636" license="4" longitude="2.165046" nbComments="0" rank="65" tags="spanje 2001 europa barcelona catalonië" title="Casa Batlló - Barcelona {2001}" url_b="http://static.flickr.com/7177/6962449147_3a99a8dc8e_b.jpg" username="westher" views="4" />
<photo  date_taken="2011-12-23 16:41:55" description="Immeuble de Gaudi, Barcelone" id="6639889759" latitude="41.391719" license="5" longitude="2.164975" nbComments="0" rank="66" tags="4966" title="Casa Batllo vue de face" url_b="http://static.flickr.com/7008/6639889759_7f073f3475_b.jpg" username="jfgornet" views="28" />
<photo  date_taken="2011-12-23 17:14:22" description="Casa Batllo, Barcelone" id="6659293365" latitude="41.391719" license="5" longitude="2.164975" nbComments="4" rank="67" tags="4988" title="Verre Gaudi" url_b="http://static.flickr.com/7145/6659293365_68b4ec8886_b.jpg" username="jfgornet" views="17" />
<photo  date_taken="2011-12-23 17:19:46" description="Casa Batllo, Barcelone" id="6665696431" latitude="41.391719" license="5" longitude="2.164975" nbComments="0" rank="68" tags="4997" title="Cheminées Gaudi" url_b="http://static.flickr.com/7008/6665696431_ebea7fa71f_b.jpg" username="jfgornet" views="25" />
<photo  date_taken="2011-12-23 17:23:09" description="Toit de la Casa Batllo, Barcelone" id="6671729647" latitude="41.391719" license="5" longitude="2.164975" nbComments="1" rank="69" tags="5008" title="Lézard Gaudi" url_b="http://static.flickr.com/7005/6671729647_135b599613_b.jpg" username="jfgornet" views="19" />
<photo  date_taken="2011-12-23 17:06:57" description="Casa Batllo, Barcelone" id="6651768253" latitude="41.391719" license="5" longitude="2.164975" nbComments="1" rank="70" tags="4976" title="Couleurs de Gaudi" url_b="http://static.flickr.com/7170/6651768253_e3049bca94_b.jpg" username="jfgornet" views="13" />
<photo  date_taken="2011-12-23 17:21:52" description="Casa Batllo, Barcelone" id="6677737931" latitude="41.391719" license="5" longitude="2.164975" nbComments="0" rank="71" tags="5005" title="Cheminées Gaudi au soleil couchant" url_b="http://static.flickr.com/7145/6677737931_cd531f3cac_b.jpg" username="jfgornet" views="15" />
<photo  date_taken="2011-09-29 07:48:11" description="Casa Amatller, Josep Puig i Cadafalch y Casa Batlló, Antoni Gaudí. Passeig de Gràcia, Barcelona." id="6205311222" latitude="41.391628" license="2" longitude="2.165043" nbComments="1" rank="72" tags="casabatllo casaamatller joseppuigicadafalch antonigaudi passeigdegracia barcelona manzanadeladiscordia catalunya españa sigma dp1 almusaiti 28mm foveon victorianojaviertornelgarcia es" title="" url_b="http://static.flickr.com/6165/6205311222_49d136a21e_b.jpg" username="Almusaiti" views="85" />
<photo  date_taken="2009-04-16 12:11:11" description="" id="3465780730" latitude="41.391636" license="1" longitude="2.16495" nbComments="0" rank="73" tags="barcelona gaudí batllo" title="Casa Batlló" url_b="http://static.flickr.com/3510/3465780730_68f7954ebf_b.jpg" username="LeireAizpuru" views="2" />
<photo  date_taken="2011-01-26 16:51:03" description="El pasamanos de la escalera lo diseño completamente ergonómic de manera que se acoplara perfecta a la palma de la mano y los dedos. / The staircase railings completely ergonomic design so that fits perfectly into the palm of the hand and fingers" id="6020545827" latitude="41.391608" license="4" longitude="2.164996" nbComments="1" rank="74" tags="barcelona spain españa cataluña catalona architecure arquitectura casabatlló gaudí" title="Casa Batlló" url_b="http://static.flickr.com/6125/6020545827_b4e01c63b7_b.jpg" username="Cris Valencia" views="77" />
<photo  date_taken="2011-07-15 22:42:16" description="" id="6023090916" latitude="41.391668" license="3" longitude="2.164939" nbComments="0" rank="75" tags="barcelona spain lacasabatlló casabatlló catalonia catalunya cataluña españa antonigaudí gaudi gaudí unescoworldheritagesite worldheritagesite catalanmodernism modernisme houseofbones foursquare:venue=188837" title="La Casa Batlló" url_b="http://static.flickr.com/6121/6023090916_7714a63b2b_b.jpg" username="Sean Munson" views="23" />
<photo  date_taken="2011-07-20 23:09:43" description="" id="6067008537" latitude="41.391668" license="3" longitude="2.164939" nbComments="0" rank="76" tags="catalonia catalunya cataluña españa barcelona spain lacasabatlló casabatlló antonigaudí gaudi gaudí unescoworldheritagesite worldheritagesite catalanmodernism modernisme houseofbones foursquare:venue=188837" title="La Casa Batlló" url_b="http://static.flickr.com/6205/6067008537_ffc60e12ed_b.jpg" username="Sean Munson" views="145" />
<photo  date_taken="2009-05-22 11:21:59" description="" id="3560322848" latitude="41.391728" license="1" longitude="2.164993" nbComments="0" rank="77" tags="spain casabatlló antonigaudí gaudí passeigdegràcia illadeladiscòrdia blockofdiscord modernisme catalanmodernism barcelona" title="Casa Batlló" url_b="http://static.flickr.com/3644/3560322848_3eb3655c74_b.jpg" username="Jamison Wieser" views="20" />
<photo  date_taken="2009-05-22 11:20:40" description="" id="3559514167" latitude="41.391728" license="1" longitude="2.164993" nbComments="0" rank="78" tags="spain casabatlló antonigaudí gaudí passeigdegràcia illadeladiscòrdia blockofdiscord modernisme catalanmodernism barcelona" title="Casa Batlló" url_b="http://static.flickr.com/3310/3559514167_b4dbbd7287_b.jpg" username="Jamison Wieser" views="31" />
<photo  date_taken="2009-05-22 11:20:50" description="" id="3560310582" latitude="41.391728" license="1" longitude="2.164993" nbComments="0" rank="79" tags="spain casabatlló antonigaudí gaudí passeigdegràcia illadeladiscòrdia blockofdiscord modernisme catalanmodernism barcelona" title="Casa Batlló" url_b="http://static.flickr.com/3347/3560310582_3062a34092_b.jpg" username="Jamison Wieser" views="19" />
<photo  date_taken="2009-05-22 11:27:23" description="" id="3559542003" latitude="41.391728" license="1" longitude="2.164993" nbComments="0" rank="80" tags="spain antonigaudí gaudí casabatlló passeigdegràcia illadeladiscòrdia blockofdiscord modernisme catalanmodernism barcelona" title="Casa Batlló" url_b="http://static.flickr.com/3558/3559542003_8d0e26bc27_b.jpg" username="Jamison Wieser" views="54" />
<photo  date_taken="2009-05-22 11:20:42" description="" id="3559501815" latitude="41.391728" license="1" longitude="2.164993" nbComments="0" rank="81" tags="spain casabatlló antonigaudí gaudí passeigdegràcia illadeladiscòrdia blockofdiscord modernisme catalanmodernism barcelona" title="Casa Batlló" url_b="http://static.flickr.com/3318/3559501815_24a99b3819_b.jpg" username="Jamison Wieser" views="23" />
<photo  date_taken="2011-05-19 15:10:23" description="Si hay algo evidente para todo aquel que se deje caer en la capital catalana es que Barcelona es Gaudí e, inevitablemente, por él y por todas las obras que representan a la ciudad, ésta es considerada como un icono del modernismo en nuestro país. Esto es innegable, tanto como que la Casa Batlló llama la atención desde el mismo Paseo de Gracia, lugar donde se encuentra junto con La Pedrera, otra de sus obras posteriores más famosas. Ambas son las responsables de crear esas colas de turistas en ambas aceras. Pero es que, su visita es prácticamente una necesidad con sólo observar su fachada." id="5891600866" latitude="41.39166" license="1" longitude="2.164939" nbComments="48" rank="82" tags="casabatllo ventanas balcones fachada modernismocatalan antonigaudiicornet barcelona catalunya nikond60 fototetegil برشلونة барселоне バルセロナ" title="Casa Batllo" url_b="http://static.flickr.com/5270/5891600866_7c5eedb4c4_b.jpg" username="tetegil" views="132" />
<photo  date_taken="2009-05-22 11:21:51" description="" id="3559505863" latitude="41.391728" license="1" longitude="2.164993" nbComments="0" rank="83" tags="spain casabatlló antonigaudí gaudí passeigdegràcia illadeladiscòrdia blockofdiscord modernisme catalanmodernism barcelona" title="Casa Batlló" url_b="http://static.flickr.com/2469/3559505863_686b229f3e_b.jpg" username="Jamison Wieser" views="21" />
<photo  date_taken="2007-01-28 19:14:40" description="" id="372210128" latitude="41.391658" license="1" longitude="2.164939" nbComments="0" rank="84" tags="casa batlló barcelona gaudi window" title="Casa Batlló" url_b="http://static.flickr.com/77/372210128_398ebd02fd_b.jpg" username="a free hour" views="6" />
<photo  date_taken="2007-01-28 19:14:57" description="" id="372210486" latitude="41.391658" license="1" longitude="2.164939" nbComments="0" rank="85" tags="casa batlló barcelona gaudi window floor light" title="Looking at Casa Batlló" url_b="http://static.flickr.com/177/372210486_baa2a3dbfc_b.jpg" username="a free hour" views="29" />
<photo  date_taken="2012-03-15 16:10:20" description="Casa Ametller de Jusep Puig i Cadalfalch Casa Batlló de Antoni Gaudí i Cornet" id="6997641425" latitude="41.391612" license="1" longitude="2.164971" nbComments="18" rank="86" tags="modernismecatalà modernismocatalan modernismo casaametller casabatlló ventanas balcones juseppuigicadalfalch18671956 antonigaudíicornet18521926 barcelona catalunya nikond60 fototetegil" title="Modernisme català" url_b="http://static.flickr.com/7087/6997641425_0ee25e782a_b.jpg" username="tetegil" views="101" />
<photo  date_taken="2008-09-10 13:42:18" description="" id="2871566313" latitude="41.391648" license="5" longitude="2.164939" nbComments="0" rank="87" tags="barcelona antonigaudí gaudí casabatlló spain 20080910 mlf canonpowershots3is 2008" title="Casa Batlló" url_b="http://static.flickr.com/3096/2871566313_42841e52e1_b.jpg" username="Morgaine" views="21" />
<photo  date_taken="2008-09-10 13:41:54" description="" id="2871565341" latitude="41.391648" license="5" longitude="2.164939" nbComments="0" rank="88" tags="barcelona antonigaudí gaudí casabatlló spain 20080910 mlf canonpowershots3is 2008" title="Casa Batlló" url_b="http://static.flickr.com/3001/2871565341_81fc69b46d_b.jpg" username="Morgaine" views="20" />
<photo  date_taken="2008-09-10 13:41:26" description="" id="2872394000" latitude="41.391648" license="5" longitude="2.164939" nbComments="0" rank="89" tags="barcelona antonigaudí gaudí casabatlló spain 20080910 mlf canonpowershots3is 2008" title="Casa Batlló" url_b="http://static.flickr.com/3244/2872394000_3d9f5c5180_b.jpg" username="Morgaine" views="17" />
<photo  date_taken="2008-09-10 13:47:28" description="" id="2872401240" latitude="41.391648" license="5" longitude="2.164939" nbComments="0" rank="90" tags="barcelona antonigaudí gaudí casabatlló spain 20080910 mlf canonpowershots3is 2008" title="Casa Batlló" url_b="http://static.flickr.com/3182/2872401240_e4e7b14c24_b.jpg" username="Morgaine" views="14" />
<photo  date_taken="2008-09-10 13:43:34" description="" id="2871566977" latitude="41.391648" license="5" longitude="2.164939" nbComments="0" rank="91" tags="barcelona antonigaudí gaudí casabatlló spain 20080910 mlf canonpowershots3is 2008" title="Casa Batlló" url_b="http://static.flickr.com/3258/2871566977_a31318671a_b.jpg" username="Morgaine" views="46" />
<photo  date_taken="2008-09-10 13:47:42" description="" id="2871571915" latitude="41.391648" license="5" longitude="2.164939" nbComments="0" rank="92" tags="barcelona antonigaudí gaudí casabatlló spain 20080910 mlf canonpowershots3is 2008" title="Casa Batlló" url_b="http://static.flickr.com/3052/2871571915_08ce5d813c_b.jpg" username="Morgaine" views="21" />
<photo  date_taken="2008-09-10 13:46:10" description="" id="2871569249" latitude="41.391648" license="5" longitude="2.164939" nbComments="0" rank="93" tags="barcelona antonigaudí gaudí casabatlló spain 20080910 mlf canonpowershots3is 2008" title="Casa Batlló" url_b="http://static.flickr.com/3152/2871569249_3402d4b247_b.jpg" username="Morgaine" views="36" />
<photo  date_taken="2008-09-10 13:41:42" description="" id="2872394188" latitude="41.391648" license="5" longitude="2.164939" nbComments="0" rank="94" tags="barcelona antonigaudí gaudí casabatlló spain 20080910 mlf canonpowershots3is 2008" title="Casa Batlló" url_b="http://static.flickr.com/3184/2872394188_8085b6a2ae_b.jpg" username="Morgaine" views="18" />
<photo  date_taken="2008-09-10 13:51:00" description="" id="2872404744" latitude="41.391648" license="5" longitude="2.164939" nbComments="0" rank="95" tags="barcelona antonigaudí gaudí casabatlló spain 20080910 mlf canonpowershots3is 2008" title="Casa Batlló" url_b="http://static.flickr.com/3017/2872404744_1b98ffab95_b.jpg" username="Morgaine" views="38" />
<photo  date_taken="2008-09-10 13:49:20" description="" id="2872403742" latitude="41.391648" license="5" longitude="2.164939" nbComments="0" rank="96" tags="barcelona antonigaudí gaudí casabatlló spain 20080910 mlf canonpowershots3is 2008" title="Casa Batlló" url_b="http://static.flickr.com/3013/2872403742_fe1b1bc76f_b.jpg" username="Morgaine" views="30" />
<photo  date_taken="2008-10-24 12:37:53" description="Exterior of the Casa Batlló." id="2984069483" latitude="41.391694" license="2" longitude="2.164939" nbComments="0" rank="97" tags="spain barcelona casabatllo gaudi" title="PA240092" url_b="http://static.flickr.com/3032/2984069483_db3cfa9ebd_b.jpg" username="Jared Hanson" views="20" />
<photo  date_taken="2008-10-27 20:53:05" description="Exterior of the Casa Batlló at night." id="2985443444" latitude="41.391694" license="2" longitude="2.164939" nbComments="0" rank="98" tags="spain barcelona casabatllo gaudi" title="PA270260" url_b="http://static.flickr.com/3247/2985443444_ce55e77853_b.jpg" username="Jared Hanson" views="14" />
<photo  date_taken="2008-10-27 20:55:17" description="Exterior of the Casa Batlló at night." id="2984587065" latitude="41.391694" license="2" longitude="2.164939" nbComments="0" rank="99" tags="spain barcelona casabatllo gaudi" title="PA270261" url_b="http://static.flickr.com/3207/2984587065_544df0d48c_b.jpg" username="Jared Hanson" views="26" />
<photo  date_taken="2008-10-24 12:38:14" description="Exterior of the Casa Batlló." id="2984069643" latitude="41.391694" license="2" longitude="2.164939" nbComments="0" rank="100" tags="spain barcelona casabatllo gaudi" title="PA240093" url_b="http://static.flickr.com/3282/2984069643_a8dc7306bc_b.jpg" username="Jared Hanson" views="11" />
<photo  date_taken="2008-10-24 12:39:24" description="Exterior of the Casa Batlló." id="2984925470" latitude="41.391694" license="2" longitude="2.164939" nbComments="0" rank="101" tags="spain barcelona casabatllo gaudi" title="PA240094" url_b="http://static.flickr.com/3204/2984925470_81091d6b5c_b.jpg" username="Jared Hanson" views="20" />
<photo  date_taken="2009-01-23 12:20:57" description="" id="3232215202" latitude="41.3916" license="4" longitude="2.164993" nbComments="0" rank="102" tags="casabatlló barcelona barcellona" title="Casa Batlló" url_b="http://static.flickr.com/3356/3232215202_a969f43920_b.jpg" username="Yellow.Cat" views="25" />
<photo  date_taken="2009-04-12 13:13:06" description="Un dettaglio di casa Batllò, preso da una vetrata che dà l'impressione di stare sott'acqua. Le pareti blu, il balcone a forma di rete, e le forme che ricordano quelle dei pesci danno l'impressione di vivere sott'acqua. &lt;a href=&quot;http://flattr.com/thing/6188/Ten-thousand-floors-under-the-sea&quot; target=&quot;_blank&quot; rel=&quot;nofollow&quot;&gt; Flattr This&lt;/a&gt;" id="3462765924" latitude="41.391612" license="1" longitude="2.164961" nbComments="3" rank="103" tags="barcelona batllo gaudi fish ocean streamofunconsciousness indoor architecture modernism stampaufficio" title="Diecimila piani sotto il mare" url_b="http://static.flickr.com/3519/3462765924_b0155d61ab_b.jpg" username="cernIO" views="124" />
<photo  date_taken="2009-04-10 19:45:22" description="" id="3447061054" latitude="41.391612" license="1" longitude="2.164961" nbComments="2" rank="104" tags="barcelona gaudi batllo manzana discordia nightlife modernismo" title="Casa Batllò" url_b="http://static.flickr.com/3311/3447061054_6fc3cc8a62_b.jpg" username="cernIO" views="32" />
<photo  date_taken="2012-11-12 03:28:04" description="" id="8180179050" latitude="41.391732" license="1" longitude="2.164982" nbComments="1" rank="105" tags="stair stairway gaudi casa batlló barcelona spain architecture picken modernista casabatllo" title="Stairway at Gaudi's Casa Batlló" url_b="http://static.flickr.com/8487/8180179050_77a8d1c4ce_b.jpg" username="John Picken" views="97" />
<photo  date_taken="2012-01-27 17:30:27" description="In and around Barcelona, Spain." id="6772850519" latitude="41.391697" license="2" longitude="2.164933" nbComments="0" rank="106" tags="barcelona barcelonaspain jan2012 spain casabatlló antonigaudi gaudi" title="IMG_2286.JPG" url_b="http://static.flickr.com/7013/6772850519_2d61599fa0_b.jpg" username="NothingToDeclare" views="6" />
<photo  date_taken="2007-05-20 16:42:35" description="" id="516437709" latitude="41.391728" license="3" longitude="2.165041" nbComments="0" rank="107" tags="barcelona casabatllo guadi geotagged geo:lat=41391729 geo:lon=2165042" title="Dragon roof - Casa Batlló" url_b="http://static.flickr.com/233/516437709_6a104bdad3_b.jpg" username="Rose Robinson" views="7" />
<photo  date_taken="2007-05-20 16:38:47" description="" id="516409900" latitude="41.391728" license="3" longitude="2.165041" nbComments="0" rank="108" tags="barcelona casabatllo guadi geotagged geo:lat=41391729 geo:lon=2165042" title="Roof tiles - Casa Batlló" url_b="http://static.flickr.com/239/516409900_47d4f7adf5_b.jpg" username="Rose Robinson" views="18" />
<photo  date_taken="2007-05-20 16:37:30" description="" id="516433577" latitude="41.391728" license="3" longitude="2.165041" nbComments="0" rank="109" tags="barcelona casabatllo guadi geotagged geo:lat=41391729 geo:lon=2165042" title="Roof detail - Casa Batlló" url_b="http://static.flickr.com/234/516433577_9f8b229dae_b.jpg" username="Rose Robinson" views="11" />
<photo  date_taken="2007-05-20 16:43:02" description="" id="516414256" latitude="41.391728" license="3" longitude="2.165041" nbComments="0" rank="110" tags="barcelona casabatllo guadi geotagged geo:lat=41391729 geo:lon=2165042" title="Colourful chimneys - Casa Batlló" url_b="http://static.flickr.com/210/516414256_27512bc7f7_b.jpg" username="Rose Robinson" views="10" />
<photo  date_taken="2007-05-19 14:44:44" description="" id="516274523" latitude="41.391728" license="3" longitude="2.165041" nbComments="0" rank="111" tags="barcelona casabatllo guadi geotagged geo:lat=41391729 geo:lon=2165042" title="Windows of Casa Batllo" url_b="http://static.flickr.com/198/516274523_6fe70b17b0_b.jpg" username="Rose Robinson" views="6" />
<photo  date_taken="2007-05-20 16:24:25" description="" id="516427673" latitude="41.391728" license="3" longitude="2.165041" nbComments="0" rank="112" tags="barcelona casabatllo guadi geotagged geo:lat=41391729 geo:lon=2165042" title="Window Casa Batlló" url_b="http://static.flickr.com/204/516427673_9c49be1df1_b.jpg" username="Rose Robinson" views="11" />
<photo  date_taken="2007-05-20 16:43:59" description="" id="516440291" latitude="41.391728" license="3" longitude="2.165041" nbComments="0" rank="113" tags="barcelona casabatllo guadi geotagged geo:lat=41391729 geo:lon=2165042" title="Colourful" url_b="http://static.flickr.com/231/516440291_af548014fe_b.jpg" username="Rose Robinson" views="8" />
<photo  date_taken="2007-05-20 16:24:17" description="" id="516401516" latitude="41.391728" license="3" longitude="2.165041" nbComments="1" rank="114" tags="barcelona casabatllo guadi geotagged geo:lat=41391729 geo:lon=2165042" title="Window detail - Casa Batlló" url_b="http://static.flickr.com/225/516401516_3e64bff828_b.jpg" username="Rose Robinson" views="27" />
<photo  date_taken="2007-05-20 16:25:43" description="" id="516429107" latitude="41.391728" license="3" longitude="2.165041" nbComments="0" rank="115" tags="barcelona casabatllo guadi geotagged geo:lat=41391729 geo:lon=2165042" title="Ceiling details Casa Batlló" url_b="http://static.flickr.com/232/516429107_c86ed8927a_b.jpg" username="Rose Robinson" views="32" />
<photo  date_taken="2007-05-20 16:36:51" description="" id="516407668" latitude="41.391728" license="3" longitude="2.165041" nbComments="0" rank="116" tags="barcelona casabatllo guadi geotagged geo:lat=41391729 geo:lon=2165042" title="Chimneys - Casa Batlló" url_b="http://static.flickr.com/210/516407668_dcd4d45566_b.jpg" username="Rose Robinson" views="22" />
<photo  date_taken="2007-05-20 16:42:14" description="" id="516435999" latitude="41.391728" license="3" longitude="2.165041" nbComments="0" rank="117" tags="barcelona casabatllo guadi geotagged geo:lat=41391729 geo:lon=2165042" title="Chimneys - Casa Batlló" url_b="http://static.flickr.com/208/516435999_a83857e894_b.jpg" username="Rose Robinson" views="7" />
<photo  date_taken="2007-05-20 16:28:25" description="" id="516406302" latitude="41.391728" license="3" longitude="2.165041" nbComments="0" rank="118" tags="barcelona casabatllo guadi geotagged geo:lat=41391729 geo:lon=2165042" title="Rear of Casa Batlló" url_b="http://static.flickr.com/214/516406302_a2a14c9d39_b.jpg" username="Rose Robinson" views="6" />
<photo  date_taken="2011-05-08 15:20:07" description="Inside Casa Batlló looking out onto the roof terrace." id="5701231616" latitude="41.391638" license="2" longitude="2.165069" nbComments="0" rank="119" tags="barcelona spain zoer gaudi" title="Barcelona, Spain" url_b="http://static.flickr.com/5141/5701231616_23dddd9047_b.jpg" username="zoer" views="34" />
<photo  date_taken="2011-05-08 15:18:24" description="Inside Casa Batlló" id="5701222434" latitude="41.391638" license="2" longitude="2.165069" nbComments="0" rank="120" tags="barcelona spain zoer gaudi" title="Barcelona, Spain" url_b="http://static.flickr.com/5103/5701222434_db9708daa6_b.jpg" username="zoer" views="20" />
<photo  date_taken="2011-05-08 15:36:16" description="On the roof terrace of Casa Batlló" id="5701293912" latitude="41.391638" license="2" longitude="2.165069" nbComments="0" rank="121" tags="barcelona spain zoer gaudi" title="Barcelona, Spain" url_b="http://static.flickr.com/5145/5701293912_11f4688231_b.jpg" username="zoer" views="13" />
<photo  date_taken="2011-05-08 15:31:40" description="On the roof terrace of Casa Batlló" id="5701275566" latitude="41.391638" license="2" longitude="2.165069" nbComments="0" rank="122" tags="barcelona spain zoer gaudi" title="Barcelona, Spain" url_b="http://static.flickr.com/2283/5701275566_bfc16fe62b_b.jpg" username="zoer" views="9" />
<photo  date_taken="2011-05-08 15:42:19" description="Inside Casa Batlló" id="5701335342" latitude="41.391638" license="2" longitude="2.165069" nbComments="0" rank="123" tags="barcelona spain zoer gaudi" title="Barcelona, Spain" url_b="http://static.flickr.com/2097/5701335342_24b4e04c44_b.jpg" username="zoer" views="8" />
<photo  date_taken="2011-05-08 15:29:05" description="Inside Casa Batlló" id="5700694517" latitude="41.391638" license="2" longitude="2.165069" nbComments="0" rank="124" tags="barcelona spain zoer gaudi" title="Barcelona, Spain" url_b="http://static.flickr.com/5142/5700694517_fe35800488_b.jpg" username="zoer" views="8" />
<photo  date_taken="2011-05-08 15:39:14" description="Doorway onto the roof terrace of Casa Batlló" id="5701330306" latitude="41.391638" license="2" longitude="2.165069" nbComments="0" rank="125" tags="barcelona spain zoer gaudi" title="Barcelona, Spain" url_b="http://static.flickr.com/2260/5701330306_7fa7427d9e_b.jpg" username="zoer" views="11" />
<photo  date_taken="2011-05-08 15:25:34" description="The lift shaft inside Casa Batlló" id="5700679553" latitude="41.391638" license="2" longitude="2.165069" nbComments="0" rank="126" tags="barcelona spain zoer gaudi" title="Barcelona, Spain" url_b="http://static.flickr.com/2174/5700679553_90fb91c046_b.jpg" username="zoer" views="6" />
<photo  date_taken="2011-05-08 15:31:13" description="On the roof of Casa Batlló" id="5701270292" latitude="41.391638" license="2" longitude="2.165069" nbComments="0" rank="127" tags="barcelona spain zoer gaudi" title="Barcelona, Spain" url_b="http://static.flickr.com/2289/5701270292_a66c5c6daf_b.jpg" username="zoer" views="7" />
<photo  date_taken="2011-05-08 15:16:06" description="Inside Casa Batlló" id="5700637977" latitude="41.391638" license="2" longitude="2.165069" nbComments="0" rank="128" tags="barcelona spain zoer gaudi" title="Barcelona, Spain" url_b="http://static.flickr.com/3353/5700637977_64986b5ffe_b.jpg" username="zoer" views="13" />
<photo  date_taken="2011-05-08 15:13:33" description="Inside Casa Batlló" id="5701198364" latitude="41.391638" license="2" longitude="2.165069" nbComments="0" rank="129" tags="barcelona spain zoer gaudi" title="Barcelona, Spain" url_b="http://static.flickr.com/5069/5701198364_6b9dec4581_b.jpg" username="zoer" views="8" />
<photo  date_taken="2011-05-08 15:35:53" description="On the roof terrace of Casa Batlló" id="5701287280" latitude="41.391638" license="2" longitude="2.165069" nbComments="0" rank="130" tags="barcelona spain zoer gaudi" title="Barcelona, Spain" url_b="http://static.flickr.com/5141/5701287280_fc04e239f7_b.jpg" username="zoer" views="9" />
<photo  date_taken="2011-05-08 15:20:50" description="Inside Casa Batlló" id="5700665109" latitude="41.391638" license="2" longitude="2.165069" nbComments="0" rank="131" tags="barcelona spain zoer gaudi" title="Barcelona, Spain" url_b="http://static.flickr.com/3279/5700665109_9dbe1a6f4d_b.jpg" username="zoer" views="8" />
<photo  date_taken="2011-05-08 15:46:30" description="Stairway inside Casa Batlló" id="5700769527" latitude="41.391638" license="2" longitude="2.165069" nbComments="0" rank="132" tags="barcelona spain zoer gaudi" title="Barcelona, Spain" url_b="http://static.flickr.com/2005/5700769527_858314344b_b.jpg" username="zoer" views="10" />
<photo  date_taken="2011-05-08 15:17:40" description="Inside Casa Batlló" id="5700647107" latitude="41.391638" license="2" longitude="2.165069" nbComments="0" rank="133" tags="barcelona spain zoer gaudi" title="Barcelona, Spain" url_b="http://static.flickr.com/5104/5700647107_8e092f7fd4_b.jpg" username="zoer" views="9" />
<photo  date_taken="2011-05-08 15:16:37" description="Inside Casa Batlló" id="5700643093" latitude="41.391638" license="2" longitude="2.165069" nbComments="0" rank="134" tags="barcelona spain zoer gaudi" title="Barcelona, Spain" url_b="http://static.flickr.com/5109/5700643093_dbd70159c9_b.jpg" username="zoer" views="14" />
<photo  date_taken="2011-05-08 16:02:28" description="On the roof of Casa Batlló" id="5702100901" latitude="41.391605" license="2" longitude="2.165044" nbComments="0" rank="135" tags="barcelona spain zoer" title="Barcelona, Spain" url_b="http://static.flickr.com/3010/5702100901_7d0f340705_b.jpg" username="zoer" views="12" />
<photo  date_taken="2011-05-08 16:08:44" description="Inside view of Casa Batlló" id="5702113265" latitude="41.391591" license="2" longitude="2.165005" nbComments="0" rank="136" tags="barcelona spain zoer" title="Barcelona, Spain" url_b="http://static.flickr.com/3342/5702113265_a79d048021_b.jpg" username="zoer" views="12" />
<photo  date_taken="2011-05-08 16:09:13" description="View of stairway of Casa Batlló" id="5702116451" latitude="41.391591" license="2" longitude="2.165005" nbComments="0" rank="137" tags="barcelona spain zoer" title="Barcelona, Spain" url_b="http://static.flickr.com/5030/5702116451_f0071a1843_b.jpg" username="zoer" views="8" />
<photo  date_taken="2011-05-08 16:10:11" description="View inside Casa Batlló" id="5702119545" latitude="41.391591" license="2" longitude="2.165005" nbComments="0" rank="138" tags="barcelona spain zoer" title="Barcelona, Spain" url_b="http://static.flickr.com/3028/5702119545_1f327f6933_b.jpg" username="zoer" views="10" />
<photo  date_taken="2011-05-08 16:07:18" description="Inside view of Casa Batlló" id="5702674988" latitude="41.391591" license="2" longitude="2.165005" nbComments="0" rank="139" tags="barcelona spain zoer" title="Barcelona, Spain" url_b="http://static.flickr.com/2392/5702674988_78de10b544_b.jpg" username="zoer" views="14" />
<photo  date_taken="2010-06-13 14:09:48" description="" id="4696056600" latitude="41.391596" license="3" longitude="2.164971" nbComments="0" rank="140" tags="barcelona guadí" title="Casa Batlló" url_b="http://static.flickr.com/1278/4696056600_9175288a68_b.jpg" username="Camilo S.B." views="3" />
<photo  date_taken="2012-09-23 09:38:46" description="© Victor Wong, 2012" id="8055636943" latitude="41.391705" license="1" longitude="2.164933" nbComments="0" rank="141" tags="barcelona casabatlló gaudi spain" title="Gaudi's Casa Batlló, Barcelona, Spain" url_b="http://static.flickr.com/8040/8055636943_6e11fba63f_b.jpg" username="Magic Ketchup" views="13" />
<photo  date_taken="2009-02-24 10:07:28" description="" id="3473147481" latitude="41.391604" license="1" longitude="2.164955" nbComments="0" rank="142" tags="barcelona casabatllo gaudi spain travel" title="Roof of Casa Batllo" url_b="http://static.flickr.com/3375/3473147481_d7e8d125c0_b.jpg" username="denovich" views="11" />
<photo  date_taken="2009-02-24 10:07:59" description="" id="3473961676" latitude="41.391604" license="1" longitude="2.164955" nbComments="0" rank="143" tags="barcelona casabatllo gaudi spain travel" title="Mosaic Tiling another Gaudi favorite" url_b="http://static.flickr.com/3324/3473961676_3f70d05a93_b.jpg" username="denovich" views="12" />
<photo  date_taken="2009-02-24 10:08:14" description="" id="3473157925" latitude="41.391604" license="1" longitude="2.164955" nbComments="0" rank="144" tags="barcelona casabatllo gaudi spain travel" title="Another Dr. Seuss-like Gaudi creation: Casa Batllo" url_b="http://static.flickr.com/3377/3473157925_8d24995c91_b.jpg" username="denovich" views="34" />
<photo  date_taken="2009-02-24 10:07:21" description="" id="3473951426" latitude="41.391604" license="1" longitude="2.164955" nbComments="1" rank="145" tags="barcelona casabatllo gaudi spain travel" title="Casa Batllo, Barcelona" url_b="http://static.flickr.com/3400/3473951426_aaff21778f_b.jpg" username="denovich" views="18" />
<photo  date_taken="2009-02-24 10:08:23" description="" id="3473162565" latitude="41.391604" license="1" longitude="2.164955" nbComments="0" rank="146" tags="barcelona casabatllo gaudi spain travel" title="Casa Batllo" url_b="http://static.flickr.com/3644/3473162565_04c60a70d6_b.jpg" username="denovich" views="44" />
<photo  date_taken="2009-09-14 16:12:24" description="" id="4077513428" latitude="41.391722" license="4" longitude="2.165055" nbComments="0" rank="147" tags="antoni barcelona batllo casa gaudi architecture arquitectura art" title="IMG_9820" url_b="http://static.flickr.com/3522/4077513428_77870d51dc_b.jpg" username="marko8904" views="10" />
<photo  date_taken="2008-08-15 16:36:43" description="...but not straight. Apart from the floors, there are nò straight lines in Casa Batllo." id="2778663308" latitude="41.391653" license="1" longitude="2.164923" nbComments="2" rank="148" tags="barcelona casabattlò dof gaudi casabattl modernism catalunya spain blackandwhite blackwhite bnw" title="Parallel..." url_b="http://static.flickr.com/3241/2778663308_109feea19b_b.jpg" username="plαdys" views="55" />
<photo  date_taken="2011-01-26 17:04:38" description="Representación de las olas del mar, en el techo de la sala. Para Gaudí el mar tenia gran impacto en su inspiración. / Representation of the ocean waves on the living room's roof. The sea to Gaudí had great impact in his inspiration" id="6020545989" latitude="41.391604" license="4" longitude="2.164953" nbComments="2" rank="149" tags="barcelona spain españa cataluña catalona architecure arquitectura casabatlló gaudí" title="Casa Batlló" url_b="http://static.flickr.com/6140/6020545989_764f2496a2_b.jpg" username="Cris Valencia" views="136" />
<photo  date_taken="2009-07-24 09:52:25" description="casa batllo - barcelona" id="3778962953" latitude="41.391608" license="1" longitude="2.165052" nbComments="0" rank="150" tags="barcelona cataluna spain esp 2009" title="IMGP8625" url_b="http://static.flickr.com/3440/3778962953_80bf284fd5_b.jpg" username="mikesm" views="4" />
</photos>
