<?xml version="1.0" encoding="UTF-8" standalone="no"?>
<photos monument="Casa de Pilatos">

<photo  date_taken="2009-10-19 13:27:16" description="Some info on &lt;a href=&quot;http://en.fundacionmedinaceli.org/monumentos/pilatos/index.aspx&quot; target=&quot;_blank&quot; rel=&quot;nofollow&quot;&gt;&lt;b&gt;Casa de Pilatos&lt;/b&gt;&lt;/a&gt;. &lt;a href=&quot;http://loc.alize.us/#/flickr:4104522877&quot; rel=&quot;nofollow&quot;&gt;See where this picture was taken.&lt;/a&gt; &lt;a href=&quot;http://www.flickr.com/groups/geotagging/discuss/72157594165549916/&quot;&gt;[?]&lt;/a&gt;" id="4104522877" latitude="37.389962" license="4" longitude="-5.987077" nbComments="10" rank="1" tags="geo:lat=37389962 geo:lon=5987077 geotagged 2009 seville sevilla spain holiday casadepilatos ceiling ornate moorish" title="Ceiling 2" url_b="http://static.flickr.com/2712/4104522877_21c3831629_b.jpg" username="Son of Groucho" views="78" />
<photo  date_taken="2009-10-19 12:59:30" description="Some info on &lt;a href=&quot;http://en.fundacionmedinaceli.org/monumentos/pilatos/index.aspx&quot; target=&quot;_blank&quot; rel=&quot;nofollow&quot;&gt;&lt;b&gt;Casa de Pilatos&lt;/b&gt;&lt;/a&gt;. &lt;a href=&quot;http://loc.alize.us/#/flickr:4097733161&quot; rel=&quot;nofollow&quot;&gt;See where this picture was taken.&lt;/a&gt; &lt;a href=&quot;http://www.flickr.com/groups/geotagging/discuss/72157594165549916/&quot;&gt;[?]&lt;/a&gt;" id="4097733161" latitude="37.389962" license="4" longitude="-5.987098" nbComments="0" rank="2" tags="2009 seville sevilla spain holiday casadepilatos ceramic tile geo:lat=37389962 geo:lon=5987098 geotagged" title="Ceramic Beauty 2" url_b="http://static.flickr.com/2611/4097733161_521366163b_b.jpg" username="Son of Groucho" views="67" />
<photo  date_taken="2009-10-19 12:41:36" description="Some info on &lt;a href=&quot;http://en.fundacionmedinaceli.org/monumentos/pilatos/index.aspx&quot; target=&quot;_blank&quot; rel=&quot;nofollow&quot;&gt;&lt;b&gt;Casa de Pilatos&lt;/b&gt;&lt;/a&gt;. &lt;a href=&quot;http://loc.alize.us/#/flickr:4098465488&quot; rel=&quot;nofollow&quot;&gt;See where this picture was taken.&lt;/a&gt; &lt;a href=&quot;http://www.flickr.com/groups/geotagging/discuss/72157594165549916/&quot;&gt;[?]&lt;/a&gt;" id="4098465488" latitude="37.389955" license="4" longitude="-5.987096" nbComments="0" rank="3" tags="2009 seville sevilla spain holiday casadepilatos entrance moorish geo:lat=37389955 geo:lon=5987096 geotagged" title="Casa de Pilatos 3" url_b="http://static.flickr.com/2766/4098465488_b327e27c73_b.jpg" username="Son of Groucho" views="78" />
<photo  date_taken="2009-10-19 12:42:31" description="Some info on &lt;a href=&quot;http://en.fundacionmedinaceli.org/monumentos/pilatos/index.aspx&quot; target=&quot;_blank&quot; rel=&quot;nofollow&quot;&gt;&lt;b&gt;Casa de Pilatos&lt;/b&gt;&lt;/a&gt;. &lt;a href=&quot;http://loc.alize.us/#/flickr:4098472148&quot; rel=&quot;nofollow&quot;&gt;See where this picture was taken.&lt;/a&gt; &lt;a href=&quot;http://www.flickr.com/groups/geotagging/discuss/72157594165549916/&quot;&gt;[?]&lt;/a&gt;" id="4098472148" latitude="37.389951" license="4" longitude="-5.98709" nbComments="0" rank="4" tags="2009 seville sevilla spain holiday casadepilatos crest geo:lat=37389951 geo:lon=598709 geotagged" title="Casa de Pilatos 4" url_b="http://static.flickr.com/2565/4098472148_6d1c530e73_b.jpg" username="Son of Groucho" views="68" />
<photo  date_taken="2009-10-19 13:25:49" description="Some info on &lt;a href=&quot;http://en.fundacionmedinaceli.org/monumentos/pilatos/index.aspx&quot; target=&quot;_blank&quot; rel=&quot;nofollow&quot;&gt;&lt;b&gt;Casa de Pilatos&lt;/b&gt;&lt;/a&gt;. &lt;a href=&quot;http://loc.alize.us/#/flickr:4098486622&quot; rel=&quot;nofollow&quot;&gt;See where this picture was taken.&lt;/a&gt; &lt;a href=&quot;http://www.flickr.com/groups/geotagging/discuss/72157594165549916/&quot;&gt;[?]&lt;/a&gt;" id="4098486622" latitude="37.389951" license="4" longitude="-5.987096" nbComments="0" rank="5" tags="2009 seville sevilla spain holiday casadepilatos ceramic tile geo:lat=37389951 geo:lon=5987096 geotagged" title="Ceramic Beauty 1" url_b="http://static.flickr.com/2502/4098486622_6de5669be7_b.jpg" username="Son of Groucho" views="47" />
<photo  date_taken="2009-10-19 12:39:34" description="Some info on &lt;a href=&quot;http://en.fundacionmedinaceli.org/monumentos/pilatos/index.aspx&quot; target=&quot;_blank&quot; rel=&quot;nofollow&quot;&gt;&lt;b&gt;Casa de Pilatos&lt;/b&gt;&lt;/a&gt;. &lt;a href=&quot;http://loc.alize.us/#/flickr:4098460304&quot; rel=&quot;nofollow&quot;&gt;See where this picture was taken.&lt;/a&gt; &lt;a href=&quot;http://www.flickr.com/groups/geotagging/discuss/72157594165549916/&quot;&gt;[?]&lt;/a&gt;" id="4098460304" latitude="37.38994" license="4" longitude="-5.987096" nbComments="1" rank="6" tags="2009 seville sevilla spain holiday casadepilatos statue geo:lat=3738994 geo:lon=5987096 geotagged" title="Casa de Pilatos 2" url_b="http://static.flickr.com/2616/4098460304_b68695b705_b.jpg" username="Son of Groucho" views="140" />
<photo  date_taken="2008-10-25 18:02:09" description="Amazing mozaics, mudejar at first floor but going upstairs it's a little bit waist of time and money to see tiny Goya painting (which in my opinion is poor)" id="2972436192" latitude="37.390115" license="4" longitude="-5.987141" nbComments="1" rank="7" tags="seville sevilla sewilla spain hiszpania mudejar casadepilotos geotagted geo map" title="Casa de Pilatos" url_b="http://static.flickr.com/3186/2972436192_e74b6c2f05_b.jpg" username="kojotomoto" views="101" />
<photo  date_taken="2009-06-06 11:11:27" description="...o &lt;a href=&quot;http://es.wikipedia.org/wiki/Casa_de_Pilatos_(Sevilla)&quot; rel=&quot;nofollow&quot;&gt;Palacio de Medinaceli&lt;/a&gt; :) Probando a realizar HDR desde Lightroom, con el plugin LR/Enfuse. Tomada a mano, usando el &lt;i&gt;bracketing&lt;/i&gt; de 3 tomas con 2EV de diferencia. -- &lt;strong&gt;Casa de Pilatos&lt;/strong&gt; Sevilla, Spain" id="3601353884" latitude="37.389821" license="1" longitude="-5.98699" nbComments="0" rank="8" tags="sevilla andalucía españa geotagged hdr pilatos palacio palace sonyalpha700 tamron18250 urbana medinaceli exif:aperture=f80 exif:exposure=0008sec1125 exif:focal_length=35mm exif:iso_speed=200 camera:make=sony camera:model=dslra700 exif:max_aperture_value=45 meta:exif=1249550852" title="Casa de Pilatos" url_b="http://static.flickr.com/3599/3601353884_cafa41f9bb_b.jpg" username="Javier Prieto (ganso.org)" views="155" />
<photo  date_taken="2009-10-19 14:12:48" description="&lt;a href=&quot;http://loc.alize.us/#/flickr:4111804458&quot; rel=&quot;nofollow&quot;&gt;See where this picture was taken.&lt;/a&gt; &lt;a href=&quot;http://www.flickr.com/groups/geotagging/discuss/72157594165549916/&quot;&gt;[?]&lt;/a&gt;" id="4111804458" latitude="37.390149" license="4" longitude="-5.98683" nbComments="5" rank="9" tags="basil gnome statue romantic 2009 seville sevilla spain holiday casadepilatos geo:lat=37390149 geo:lon=598683 geotagged" title="The Romantic Side of Basil" url_b="http://static.flickr.com/2564/4111804458_ec54a25ac6_b.jpg" username="Son of Groucho" views="106" />
<photo  date_taken="2009-10-19 13:51:26" description="&lt;a href=&quot;http://loc.alize.us/#/flickr:4111800810&quot; rel=&quot;nofollow&quot;&gt;See where this picture was taken.&lt;/a&gt; &lt;a href=&quot;http://www.flickr.com/groups/geotagging/discuss/72157594165549916/&quot;&gt;[?]&lt;/a&gt;" id="4111800810" latitude="37.390141" license="4" longitude="-5.986787" nbComments="4" rank="10" tags="face sculpture grotesque 2009 seville sevilla spain holiday casadepilatos geo:lat=37390141 geo:lon=5986787 geotagged" title="Face" url_b="http://static.flickr.com/2793/4111800810_652dc146be_b.jpg" username="Son of Groucho" views="85" />
<photo  date_taken="2010-07-28 18:16:45" description="" id="5254443882" latitude="37.390336" license="1" longitude="-5.987044" nbComments="0" rank="11" tags="sevilla seville andalusia spain" title="Casa de Pilatos 05" url_b="http://static.flickr.com/5006/5254443882_a54f4bdcc8_b.jpg" username="flurryofsmoke" views="17" />
<photo  date_taken="2009-04-28 13:03:47" description="" id="3564079508" latitude="37.38971" license="2" longitude="-5.987044" nbComments="0" rank="12" tags="siviglia manu pilatos" title="Casa de Pilatos (alla finestra..)" url_b="http://static.flickr.com/3371/3564079508_48958587b9_b.jpg" username="Emanuele Ferrari" views="4" />
<photo  date_taken="2009-10-19 13:36:47" description="&lt;a href=&quot;http://loc.alize.us/#/flickr:4111789296&quot; rel=&quot;nofollow&quot;&gt;See where this picture was taken.&lt;/a&gt; &lt;a href=&quot;http://www.flickr.com/groups/geotagging/discuss/72157594165549916/&quot;&gt;[?]&lt;/a&gt;" id="4111789296" latitude="37.390124" license="4" longitude="-5.986755" nbComments="1" rank="13" tags="2009 seville sevilla spain holiday casadepilatos nikon d300 2470mmf28g geo:lat=37390124 geo:lon=5986755 geotagged" title="Dappled Light" url_b="http://static.flickr.com/2541/4111789296_67c7b67dbb_b.jpg" username="Son of Groucho" views="224" />
<photo  date_taken="2009-10-19 13:48:48" description="&lt;a href=&quot;http://loc.alize.us/#/flickr:4111028159&quot; rel=&quot;nofollow&quot;&gt;See where this picture was taken.&lt;/a&gt; &lt;a href=&quot;http://www.flickr.com/groups/geotagging/discuss/72157594165549916/&quot;&gt;[?]&lt;/a&gt;" id="4111028159" latitude="37.390141" license="4" longitude="-5.986562" nbComments="4" rank="14" tags="fountain garden 2009 seville sevilla spain holiday casadepilatos geo:lat=37390141 geo:lon=5986562 geotagged" title="Fountain" url_b="http://static.flickr.com/2777/4111028159_f70e22bcec_b.jpg" username="Son of Groucho" views="71" />
<photo  date_taken="2009-09-03 12:15:36" description="The Casa de Pilatos, Seville." id="3967412932" latitude="37.390051" license="1" longitude="-5.987656" nbComments="0" rank="15" tags="casadepilatos seville fountain" title="Casa de Pilatos" url_b="http://static.flickr.com/2651/3967412932_688a6d5c10_b.jpg" username="dnas2" views="79" />
<photo  date_taken="2009-09-03 12:19:53" description="The Casa de Pilatos, Seville." id="3967415054" latitude="37.390051" license="1" longitude="-5.987656" nbComments="0" rank="16" tags="casadepilatos seville" title="Casa de Pilatos" url_b="http://static.flickr.com/2447/3967415054_97310e720b_b.jpg" username="dnas2" views="74" />
<photo  date_taken="2009-09-03 12:21:57" description="The Casa de Pilatos, Seville." id="3966638027" latitude="37.390051" license="1" longitude="-5.987656" nbComments="0" rank="17" tags="casadepilatos seville" title="Casa de Pilatos" url_b="http://static.flickr.com/3440/3966638027_3b445ef730_b.jpg" username="dnas2" views="47" />
<photo  date_taken="2007-06-18 13:00:52" description="Francesco Pinelli (1473) banquero genovés, rompe el viejo caserío sevillano, de lógicamente tradición islámica, con la introducción de la arquitectura doméstica renacentista. Esta casa-palacio es la primera manifestación sevillana del nuevo arte. Luego vendrá la famosa &amp;quot;Casa de Pilatos&amp;quot; y &amp;quot;de las Dueñas&amp;quot;." id="696155059" latitude="37.387685" license="4" longitude="-5.991035" nbComments="1" rank="18" tags="sevilla plateresco renacimiento casadelospinelos casadepilatos" title="CASA DE LOS PINELOS (casa-palacio, siglo XVI)" url_b="http://static.flickr.com/1030/696155059_9c9d0a8335_b.jpg" username="jl FILPO" views="352" />
<photo  date_taken="2012-09-25 12:30:38" description="La Casa de Pilatos es un palacio situado en la ciudad de Sevilla, El edificio es una combinación de los estilos renacentista italiano y el mudéjar español. Esta considerada como el mas relevante prototipo de palacio andaluz" id="8103170377" latitude="37.392578" license="1" longitude="-5.993943" nbComments="11" rank="19" tags="casapilatos palaciodemedinaceli arcos columnas puerta ventanas azulejos estatua hierroforjado renancentistaitaliano mudéjarespañol patio sevilla andalucia españa nikond60 fototetegil" title="Puerta Ventanas Arcos Columnas y Estatua Casa Pilatos Sevilla" url_b="http://static.flickr.com/8193/8103170377_7de33bcfb1_b.jpg" username="tetegil" views="76" />
<photo  date_taken="2005-09-09 16:32:38" description="" id="541054053" latitude="37.389991" license="1" longitude="-5.987098" nbComments="0" rank="20" tags="sevilla andalucía españa" title="Casa de Pilatos - Patio principal" url_b="http://static.flickr.com/1341/541054053_e451dc6b67_b.jpg" username="albTotxo" views="66" />
<photo  date_taken="2005-09-09 16:41:25" description="" id="540929764" latitude="37.389991" license="1" longitude="-5.987098" nbComments="0" rank="21" tags="sevilla andalucía españa" title="Casa de Pilatos - Altorrelieve romano 2" url_b="http://static.flickr.com/1089/540929764_9fabe9ac06_b.jpg" username="albTotxo" views="14" />
<photo  date_taken="2005-09-09 16:39:29" description="" id="540934894" latitude="37.389991" license="1" longitude="-5.987098" nbComments="0" rank="22" tags="sevilla andalucía españa" title="Casa de Pilatos - Artesonado salón dorado" url_b="http://static.flickr.com/1421/540934894_9fae3aba97_b.jpg" username="albTotxo" views="85" />
<photo  date_taken="2005-09-09 16:40:23" description="" id="540931996" latitude="37.389991" license="1" longitude="-5.987098" nbComments="0" rank="23" tags="sevilla andalucía españa" title="Casa de Pilatos - Altorrelive romano" url_b="http://static.flickr.com/1305/540931996_ecf0ffdc8b_b.jpg" username="albTotxo" views="14" />
<photo  date_taken="2005-09-09 16:49:03" description="" id="540939514" latitude="37.389991" license="1" longitude="-5.987098" nbComments="0" rank="24" tags="sevilla andalucía españa" title="Casa de Pilatos - Casco de Palas" url_b="http://static.flickr.com/1330/540939514_15bfc49b45_b.jpg" username="albTotxo" views="36" />
<photo  date_taken="2005-09-09 16:31:51" description="" id="540946560" latitude="37.389991" license="1" longitude="-5.987098" nbComments="0" rank="25" tags="sevilla andalucía españa" title="Casa de Pilatos - Puerta patio" url_b="http://static.flickr.com/1325/540946560_29252670f7_b.jpg" username="albTotxo" views="21" />
<photo  date_taken="2005-09-09 16:52:44" description="" id="541046503" latitude="37.389991" license="1" longitude="-5.987098" nbComments="0" rank="26" tags="sevilla andalucía españa" title="Casa de Pilatos - Bóveda escalera" url_b="http://static.flickr.com/1054/541046503_56ee62dae2_b.jpg" username="albTotxo" views="50" />
<photo  date_taken="2005-09-09 16:38:02" description="" id="541051473" latitude="37.389991" license="1" longitude="-5.987098" nbComments="0" rank="27" tags="sevilla andalucía españa" title="Casa de Pilatos - Estatua de Palas" url_b="http://static.flickr.com/1198/541051473_8407572c34_b.jpg" username="albTotxo" views="73" />
<photo  date_taken="2005-09-09 16:34:11" description="" id="541052433" latitude="37.389991" license="1" longitude="-5.987098" nbComments="0" rank="28" tags="sevilla andalucía españa" title="Casa de Pilatos - Mujer barbuda" url_b="http://static.flickr.com/1246/541052433_6486ee2a6c_b.jpg" username="albTotxo" views="54" />
<photo  date_taken="2005-09-09 16:53:38" description="" id="540942890" latitude="37.389991" license="1" longitude="-5.987098" nbComments="0" rank="29" tags="sevilla andalucía españa" title="Casa de Pilatos - Decoración escalera" url_b="http://static.flickr.com/1215/540942890_45ab727fc0_b.jpg" username="albTotxo" views="18" />
<photo  date_taken="2005-09-09 16:44:46" description="" id="540927278" latitude="37.389991" license="1" longitude="-5.987098" nbComments="0" rank="30" tags="sevilla andalucía españa" title="Casa de Pilatos -  Buen pastor" url_b="http://static.flickr.com/1110/540927278_9646f69cbc_b.jpg" username="albTotxo" views="41" />
<photo  date_taken="2007-02-17 17:54:41" description="En 1.483, el Adelantado Mayor de Andalucía, don PEDRO ENRÍQUEZ y su esposa, doña CATALINA DE RIBERA, compran las primitivas casas, origen del actual palacio" id="1667515470" latitude="37.389983" license="4" longitude="-5.987108" nbComments="0" rank="31" tags="sevilla casadepilatos palacios andalucía" title="El Marqués de Tarifa (1483-1599)" url_b="http://static.flickr.com/2039/1667515470_e69101667e_b.jpg" username="jl FILPO" views="276" />
<photo  date_taken="2009-10-19 13:27:53" description="Best viewed &lt;a href=&quot;http://www.flickr.com/photos/sonofgroucho/4105291812/sizes/l/in/set-72057594109733682/&quot; target=&quot;_blank&quot;&gt;&lt;b&gt;large&lt;/b&gt;&lt;/a&gt;. &lt;a href=&quot;http://loc.alize.us/#/flickr:4105291812&quot; rel=&quot;nofollow&quot;&gt;See where this picture was taken.&lt;/a&gt; &lt;a href=&quot;http://www.flickr.com/groups/geotagging/discuss/72157594165549916/&quot;&gt;[?]&lt;/a&gt;" id="4105291812" latitude="37.389966" license="4" longitude="-5.987104" nbComments="4" rank="32" tags="geo:lat=37389966 geo:lon=5987104 geotagged 2009 seville sevilla spain holiday casadepilatos eithne wosog photographer interior moorish lamp" title="Wosog Exploring" url_b="http://static.flickr.com/2689/4105291812_a1df68673f_b.jpg" username="Son of Groucho" views="138" />
<photo  date_taken="2009-05-09 18:09:29" description="" id="4043520688" latitude="37.389961" license="1" longitude="-5.987108" nbComments="0" rank="33" tags="200905valenciaandalucia espagne espana spain andalucia seville sevilla casa pilatos" title="200905 - Sevilla - Casa de Pilatos" url_b="http://static.flickr.com/3531/4043520688_c0e5f872f9_b.jpg" username="sim00n" views="8" />
<photo  date_taken="2009-05-09 18:15:59" description="" id="4042781565" latitude="37.389961" license="1" longitude="-5.987108" nbComments="0" rank="34" tags="espagne espana spain andalucia seville sevilla casa pilatos" title="200905 - Sevilla - Casa de Pilatos" url_b="http://static.flickr.com/2548/4042781565_e9fd5f9a71_b.jpg" username="sim00n" views="11" />
<photo  date_taken="2009-05-09 18:15:38" description="" id="4042778495" latitude="37.389961" license="1" longitude="-5.987108" nbComments="0" rank="35" tags="200905valenciaandalucia espagne espana spain andalucia seville sevilla casa pilatos" title="200905 - Sevilla - Casa de Pilatos" url_b="http://static.flickr.com/2788/4042778495_08a742bd59_b.jpg" username="sim00n" views="33" />
<photo  date_taken="2009-05-09 18:17:40" description="" id="4042787739" latitude="37.389961" license="1" longitude="-5.987108" nbComments="0" rank="36" tags="espagne espana spain andalucia seville sevilla casa pilatos" title="200905 - Sevilla - Casa de Pilatos" url_b="http://static.flickr.com/2559/4042787739_e980f6dc8e_b.jpg" username="sim00n" views="25" />
<photo  date_taken="2009-05-09 18:17:19" description="" id="4043528960" latitude="37.389961" license="1" longitude="-5.987108" nbComments="0" rank="37" tags="espagne espana spain andalucia seville sevilla casa pilatos" title="200905 - Sevilla - Casa de Pilatos" url_b="http://static.flickr.com/2785/4043528960_e7db3b0dac_b.jpg" username="sim00n" views="6" />
<photo  date_taken="2009-10-19 13:26:55" description="Some info on &lt;a href=&quot;http://en.fundacionmedinaceli.org/monumentos/pilatos/index.aspx&quot; target=&quot;_blank&quot; rel=&quot;nofollow&quot;&gt;&lt;b&gt;Casa de Pilatos&lt;/b&gt;&lt;/a&gt;. &lt;a href=&quot;http://loc.alize.us/#/flickr:4105283754&quot; rel=&quot;nofollow&quot;&gt;See where this picture was taken.&lt;/a&gt; &lt;a href=&quot;http://www.flickr.com/groups/geotagging/discuss/72157594165549916/&quot;&gt;[?]&lt;/a&gt;" id="4105283754" latitude="37.38994" license="4" longitude="-5.987082" nbComments="0" rank="38" tags="geo:lat=3738994 geo:lon=5987082 geotagged 2009 seville sevilla spain holiday casadepilatos ceiling ornate moorish" title="Ceiling 1" url_b="http://static.flickr.com/2456/4105283754_be017972fd_b.jpg" username="Son of Groucho" views="68" />
<photo  date_taken="2008-04-20 14:39:47" description="" id="2478326531" latitude="37.390133" license="3" longitude="-5.987039" nbComments="2" rank="39" tags="casadepilatos spain spanje sevilla seville flowers bloemen" title="Casa de Pilatos" url_b="http://static.flickr.com/3076/2478326531_ea9652a578_b.jpg" username="Silvain de Munck" views="62" />
<photo  date_taken="2008-04-20 13:42:47" description="" id="2479138062" latitude="37.390133" license="3" longitude="-5.987039" nbComments="3" rank="40" tags="casadepilatos spain spanje sevilla seville standbeeld statue" title="Casa de Pilatos" url_b="http://static.flickr.com/2219/2479138062_fd6a742c14_b.jpg" username="Silvain de Munck" views="84" />
<photo  date_taken="2008-04-20 13:36:05" description="" id="2478326369" latitude="37.390133" license="3" longitude="-5.987039" nbComments="0" rank="41" tags="casadepilatos spain spanje sevilla seville" title="Casa de Pilatos" url_b="http://static.flickr.com/2264/2478326369_b3046d9e1d_b.jpg" username="Silvain de Munck" views="106" />
<photo  date_taken="2011-01-22 13:06:04" description="" id="5380758464" latitude="37.390029" license="1" longitude="-5.987226" nbComments="0" rank="42" tags="" title="Casa de Pilatos IV. Sevilla" url_b="http://static.flickr.com/5245/5380758464_bcaee08775_b.jpg" username="Armando G Alonso" views="19" />
<photo  date_taken="2011-01-22 12:35:33" description="" id="5380754210" latitude="37.390029" license="1" longitude="-5.987226" nbComments="0" rank="43" tags="" title="Casa de Pilatos II. Sevilla" url_b="http://static.flickr.com/5283/5380754210_39dcf09b88_b.jpg" username="Armando G Alonso" views="16" />
<photo  date_taken="2011-01-22 12:50:41" description="" id="5380155887" latitude="37.390029" license="1" longitude="-5.987226" nbComments="0" rank="44" tags="" title="Casa de Pilatos I. Sevilla" url_b="http://static.flickr.com/5206/5380155887_f165de2af6_b.jpg" username="Armando G Alonso" views="19" />
<photo  date_taken="2012-10-26 11:46:43" description="" id="8170511190" latitude="37.390169" license="5" longitude="-5.986992" nbComments="0" rank="45" tags="seville sevilla andalusia spain europe casadepilatos" title="Casa de Pilatos (Seville)" url_b="http://static.flickr.com/8488/8170511190_1731598d2f_b.jpg" username="Olivier Bruchez" views="9" />
<photo  date_taken="2010-12-05 12:44:35" description="Sevilla, España. Seville, Spain." id="5256013148" latitude="37.389995" license="1" longitude="-5.987232" nbComments="0" rank="46" tags="sevilla seville españa spain" title="Fachada de Casa de Pilatos" url_b="http://static.flickr.com/5089/5256013148_748a4e53f2_b.jpg" username="Belannaer" views="30" />
<photo  date_taken="2012-10-26 11:09:36" description="" id="8170509078" latitude="37.390197" license="5" longitude="-5.986992" nbComments="0" rank="47" tags="seville sevilla andalusia spain europe casadepilatos" title="Casa de Pilatos (Seville)" url_b="http://static.flickr.com/7118/8170509078_98bcee4acb_b.jpg" username="Olivier Bruchez" views="17" />
<photo  date_taken="2012-10-26 11:09:45" description="" id="8170479581" latitude="37.390202" license="5" longitude="-5.986998" nbComments="0" rank="48" tags="seville sevilla andalusia spain europe casadepilatos" title="Casa de Pilatos (Seville)" url_b="http://static.flickr.com/8208/8170479581_74795c4beb_b.jpg" username="Olivier Bruchez" views="12" />
<photo  date_taken="2012-10-26 10:46:38" description="" id="8170503006" latitude="37.390213" license="5" longitude="-5.987009" nbComments="0" rank="49" tags="seville sevilla andalusia spain europe casadepilatos" title="Casa de Pilatos (Seville)" url_b="http://static.flickr.com/8065/8170503006_926cd14ff9_b.jpg" username="Olivier Bruchez" views="9" />
<photo  date_taken="2012-10-26 10:46:04" description="" id="8170502732" latitude="37.390225" license="5" longitude="-5.987098" nbComments="0" rank="50" tags="seville sevilla andalusia spain europe casadepilatos" title="Casa de Pilatos (Seville)" url_b="http://static.flickr.com/7249/8170502732_b44c1207c4_b.jpg" username="Olivier Bruchez" views="11" />
<photo  date_taken="2012-07-15 12:59:23" description="" id="7686810092" latitude="37.389822" license="1" longitude="-5.987067" nbComments="0" rank="51" tags="" title="Casa de Pilatos" url_b="http://static.flickr.com/7270/7686810092_6d9c8727db_b.jpg" username="Cochonou" views="8" />
<photo  date_taken="2012-07-15 12:53:36" description="" id="7686823236" latitude="37.389822" license="1" longitude="-5.987067" nbComments="0" rank="52" tags="" title="Casa de Pilatos" url_b="http://static.flickr.com/8428/7686823236_7f0e5b8b21_b.jpg" username="Cochonou" views="10" />
<photo  date_taken="2012-10-26 10:46:55" description="" id="8170503266" latitude="37.390211" license="5" longitude="-5.986962" nbComments="0" rank="53" tags="seville sevilla andalusia spain europe casadepilatos" title="Casa de Pilatos (Seville)" url_b="http://static.flickr.com/7279/8170503266_45fa78224e_b.jpg" username="Olivier Bruchez" views="12" />
<photo  date_taken="2012-10-26 11:46:49" description="" id="8170481609" latitude="37.390175" license="5" longitude="-5.986892" nbComments="0" rank="54" tags="seville sevilla andalusia spain europe casadepilatos" title="Casa de Pilatos (Seville)" url_b="http://static.flickr.com/8490/8170481609_345c90678f_b.jpg" username="Olivier Bruchez" views="8" />
<photo  date_taken="2012-07-15 13:40:28" description="" id="7689270256" latitude="37.390061" license="1" longitude="-5.9873" nbComments="0" rank="55" tags="" title="Casa de Pilatos" url_b="http://static.flickr.com/8285/7689270256_6d5c79d089_b.jpg" username="Cochonou" views="4" />
<photo  date_taken="2012-07-15 13:36:52" description="" id="7689279104" latitude="37.390061" license="1" longitude="-5.9873" nbComments="0" rank="56" tags="" title="Casa de Pilatos" url_b="http://static.flickr.com/7126/7689279104_c99ac4201a_b.jpg" username="Cochonou" views="3" />
<photo  date_taken="2012-07-15 13:39:59" description="" id="7689276250" latitude="37.390061" license="1" longitude="-5.9873" nbComments="0" rank="57" tags="" title="Casa de Pilatos" url_b="http://static.flickr.com/8424/7689276250_ac9723efe2_b.jpg" username="Cochonou" views="6" />
<photo  date_taken="2008-05-06 14:19:59" description="Sevilla, 20080506. The first courtyard and the entrance to the main courtyard of the Casa de Pilatos is overgrown with Bougainvillea. It's springtime...." id="2553865343" latitude="37.390191" license="1" longitude="-5.987253" nbComments="0" rank="58" tags="spain andalucia sevilla bougainvillea casadepilatos trip" title="Entrance" url_b="http://static.flickr.com/2196/2553865343_25d627f802_b.jpg" username="Freddie H." views="132" />
<photo  date_taken="2008-05-06 14:20:35" description="Sevilla, 20080506. Sevilla, 20080506. In the gardens of the Casa de Pilatos, the beautiful flowers are teeming, and the first courtyard is overgrown with bougainvillea. It's springtime...." id="2553864633" latitude="37.390191" license="1" longitude="-5.987253" nbComments="0" rank="59" tags="spain andalucia sevilla flower bougainvillea macro trip" title="Bougainvillea" url_b="http://static.flickr.com/3039/2553864633_64c300b03f_b.jpg" username="Freddie H." views="59" />
<photo  date_taken="2012-10-26 11:48:22" description="" id="8170511826" latitude="37.390236" license="5" longitude="-5.986914" nbComments="0" rank="60" tags="seville sevilla andalusia spain europe casadepilatos" title="Casa de Pilatos (Seville)" url_b="http://static.flickr.com/8209/8170511826_d0148a64f1_b.jpg" username="Olivier Bruchez" views="12" />
<photo  date_taken="2008-05-06 15:13:29" description="Sevilla, 20080506. Sevilla, 20080506. In the gardens of the Casa de Pilatos, the beautiful flowers are teeming. A copy of an Cupid statue in a background of massive bougainvilleas" id="2554695690" latitude="37.390144" license="1" longitude="-5.986835" nbComments="0" rank="61" tags="spain andalucia sevilla bougainvillea trip" title="Cupid" url_b="http://static.flickr.com/3121/2554695690_5f2927a3c3_b.jpg" username="Freddie H." views="100" />
<photo  date_taken="2008-05-06 15:20:04" description="Sevilla, 20080506. Sevilla, 20080506. In the gardens of the Casa de Pilatos, the beautiful flowers are teeming. It's springtime.... I'm not very good at flowers. It is this a brugmansia?" id="2554695942" latitude="37.390144" license="1" longitude="-5.986835" nbComments="0" rank="62" tags="spain andalucia sevilla brugmansia flower trip" title="Brugmansia?" url_b="http://static.flickr.com/3025/2554695942_8fe6b149a1_b.jpg" username="Freddie H." views="50" />
<photo  date_taken="2008-05-06 15:22:30" description="Sevilla, 20080506. In the gardens of the Casa de Pilatos, the beautiful flowers are teeming. It's springtime...." id="2554696390" latitude="37.390144" license="1" longitude="-5.986835" nbComments="1" rank="63" tags="spain andalucia sevilla zantedeschiaaethiopica asymmetrya trip" title="Arum lily" url_b="http://static.flickr.com/3127/2554696390_265af98847_b.jpg" username="Freddie H." views="50" />
<photo  date_taken="2008-05-06 15:12:46" description="Sevilla, 20080506. Sevilla, 20080506. In the gardens of the Casa de Pilatos, the beautiful flowers are teeming. It's springtime...." id="2553870225" latitude="37.390144" license="1" longitude="-5.986835" nbComments="0" rank="64" tags="spain andalucia sevilla trip" title="Roses &amp; palm trees" url_b="http://static.flickr.com/3067/2553870225_c7e14a19fc_b.jpg" username="Freddie H." views="36" />
<photo  date_taken="2008-05-06 15:21:58" description="Sevilla, 20080506. Sevilla, 20080506. In the gardens of the Casa de Pilatos, the beautiful flowers are teeming. It's springtime...." id="2553871799" latitude="37.390144" license="1" longitude="-5.986835" nbComments="2" rank="65" tags="spain andalucia sevilla birdofparadise trip" title="Bird of paradise" url_b="http://static.flickr.com/3078/2553871799_10daff92ab_b.jpg" username="Freddie H." views="68" />
<photo  date_taken="2012-10-26 11:48:42" description="" id="8170482199" latitude="37.39025" license="5" longitude="-5.986925" nbComments="0" rank="66" tags="seville sevilla andalusia spain europe casadepilatos" title="Casa de Pilatos (Seville)" url_b="http://static.flickr.com/8066/8170482199_4a671a2c22_b.jpg" username="Olivier Bruchez" views="11" />
<photo  date_taken="2012-10-26 10:57:40" description="" id="8170507742" latitude="37.390186" license="5" longitude="-5.986845" nbComments="0" rank="67" tags="seville sevilla andalusia spain europe casadepilatos" title="Casa de Pilatos (Seville)" url_b="http://static.flickr.com/7263/8170507742_3cfa514712_b.jpg" username="Olivier Bruchez" views="10" />
<photo  date_taken="2012-10-26 11:49:28" description="" id="8170482525" latitude="37.390283" license="5" longitude="-5.986956" nbComments="0" rank="68" tags="seville sevilla andalusia spain europe casadepilatos" title="Casa de Pilatos (Seville)" url_b="http://static.flickr.com/7140/8170482525_8109d2be64_b.jpg" username="Olivier Bruchez" views="8" />
<photo  date_taken="2012-10-26 11:49:38" description="" id="8170512846" latitude="37.390291" license="5" longitude="-5.986964" nbComments="0" rank="69" tags="seville sevilla andalusia spain europe casadepilatos" title="Casa de Pilatos (Seville)" url_b="http://static.flickr.com/7114/8170512846_39aeed7c4d_b.jpg" username="Olivier Bruchez" views="9" />
<photo  date_taken="2012-10-26 11:40:48" description="" id="8170510908" latitude="37.390308" license="5" longitude="-5.986995" nbComments="0" rank="70" tags="seville sevilla andalusia spain europe casadepilatos" title="Casa de Pilatos (Seville)" url_b="http://static.flickr.com/7257/8170510908_a70bb7a74f_b.jpg" username="Olivier Bruchez" views="14" />
<photo  date_taken="2007-12-27 12:47:34" description="" id="2270340193" latitude="37.390315" license="3" longitude="-5.987001" nbComments="0" rank="71" tags="andalusia seville spain" title="Genoese fountain in Patio Principal  of Casa de Pilatos" url_b="http://static.flickr.com/2011/2270340193_b411b774bf_b.jpg" username="Dmitry Shakin" views="54" />
<photo  date_taken="2012-10-26 11:36:41" description="" id="8170480511" latitude="37.389888" license="5" longitude="-5.986809" nbComments="0" rank="72" tags="seville sevilla andalusia spain europe casadepilatos" title="Casa de Pilatos (Seville)" url_b="http://static.flickr.com/8482/8170480511_99eda4be02_b.jpg" username="Olivier Bruchez" views="13" />
<photo  date_taken="2009-07-22 14:34:29" description="Pilate's House in Seville, Spain" id="4611368272" latitude="37.390336" license="5" longitude="-5.987044" nbComments="0" rank="73" tags="seville spain casadepilatos sevilla andalusia" title="Casa de Pilatos" url_b="http://static.flickr.com/4033/4611368272_92e79df33d_b.jpg" username="Nirgal Ksi" views="58" />
<photo  date_taken="2010-07-28 17:30:18" description="" id="5254444318" latitude="37.390336" license="1" longitude="-5.987044" nbComments="0" rank="74" tags="sevilla seville andalusia spain" title="Casa de Pilatos Pano" url_b="http://static.flickr.com/5008/5254444318_1990cb3346_b.jpg" username="flurryofsmoke" views="8" />
<photo  date_taken="2010-07-28 17:32:01" description="" id="5254443338" latitude="37.390336" license="1" longitude="-5.987044" nbComments="0" rank="75" tags="sevilla seville andalusia spain" title="Casa de Pilatos 01" url_b="http://static.flickr.com/5084/5254443338_2f48bbb471_b.jpg" username="flurryofsmoke" views="23" />
<photo  date_taken="2010-07-28 17:45:48" description="" id="5254443466" latitude="37.390336" license="1" longitude="-5.987044" nbComments="0" rank="76" tags="sevilla seville andalusia spain" title="Casa de Pilatos 02" url_b="http://static.flickr.com/5088/5254443466_91f404d680_b.jpg" username="flurryofsmoke" views="16" />
<photo  date_taken="2009-07-22 14:44:53" description="Pilate's House in Seville, Spain" id="4611367596" latitude="37.390336" license="5" longitude="-5.987044" nbComments="0" rank="77" tags="seville spain casadepilatos sevilla andalusia" title="Casa de Pilatos" url_b="http://static.flickr.com/3392/4611367596_265eb8bed7_b.jpg" username="Nirgal Ksi" views="90" />
<photo  date_taken="2009-07-22 14:32:21" description="Pilate's House in Seville, Spain" id="4610759709" latitude="37.390336" license="5" longitude="-5.987044" nbComments="0" rank="78" tags="seville spain casadepilatos sevilla andalusia" title="Casa de Pilatos" url_b="http://static.flickr.com/1401/4610759709_e9141497a6_b.jpg" username="Nirgal Ksi" views="53" />
<photo  date_taken="2010-07-28 17:58:44" description="" id="5254443732" latitude="37.390336" license="1" longitude="-5.987044" nbComments="0" rank="79" tags="sevilla seville andalusia spain" title="Casa de Pilatos 04" url_b="http://static.flickr.com/5123/5254443732_29e8ae0ee0_b.jpg" username="flurryofsmoke" views="8" />
<photo  date_taken="2009-07-22 14:47:42" description="Pilate's House in Seville, Spain" id="4611365716" latitude="37.390336" license="5" longitude="-5.987044" nbComments="0" rank="80" tags="seville spain casadepilatos sevilla andalusia" title="Casa de Pilatos" url_b="http://static.flickr.com/3354/4611365716_f7c3feccf7_b.jpg" username="Nirgal Ksi" views="39" />
<photo  date_taken="2010-12-08 20:14:19" description="" id="5254444426" latitude="37.390336" license="1" longitude="-5.987044" nbComments="0" rank="81" tags="hdr highdynamicrange tonemapping sevilla seville andalusia spain" title="Casa de Pilatos HDR A" url_b="http://static.flickr.com/5250/5254444426_893020c017_b.jpg" username="flurryofsmoke" views="10" />
<photo  date_taken="2009-07-22 14:46:13" description="Pilate's House in Seville, Spain" id="4610756667" latitude="37.390336" license="5" longitude="-5.987044" nbComments="0" rank="82" tags="seville spain casadepilatos sevilla andalusia" title="Casa de Pilatos" url_b="http://static.flickr.com/1225/4610756667_dc58fcbc95_b.jpg" username="Nirgal Ksi" views="58" />
<photo  date_taken="2009-07-22 14:32:51" description="Pilate's House in Seville, Spain" id="4610759067" latitude="37.390336" license="5" longitude="-5.987044" nbComments="0" rank="83" tags="seville spain casadepilatos sevilla andalusia" title="Casa de Pilatos" url_b="http://static.flickr.com/4040/4610759067_3fbfde9d86_b.jpg" username="Nirgal Ksi" views="38" />
<photo  date_taken="2009-07-22 14:33:34" description="Pilate's House in Seville, Spain" id="4610758439" latitude="37.390336" license="5" longitude="-5.987044" nbComments="0" rank="84" tags="seville spain casadepilatos sevilla andalusia" title="Casa de Pilatos" url_b="http://static.flickr.com/4047/4610758439_b157abde5d_b.jpg" username="Nirgal Ksi" views="44" />
<photo  date_taken="2010-07-28 17:50:11" description="" id="5253832179" latitude="37.390336" license="1" longitude="-5.987044" nbComments="0" rank="85" tags="sevilla seville andalusia spain" title="Casa de Pilatos 03" url_b="http://static.flickr.com/5247/5253832179_492b794f49_b.jpg" username="flurryofsmoke" views="7" />
<photo  date_taken="2009-07-22 14:47:22" description="Pilate's House in Seville, Spain" id="4611366408" latitude="37.390336" license="5" longitude="-5.987044" nbComments="0" rank="86" tags="seville spain casadepilatos sevilla andalusia" title="Casa de Pilatos" url_b="http://static.flickr.com/1249/4611366408_13c9c4f9e1_b.jpg" username="Nirgal Ksi" views="40" />
<photo  date_taken="2010-12-08 22:09:21" description="" id="5253833179" latitude="37.390336" license="1" longitude="-5.987044" nbComments="0" rank="87" tags="hdr highdynamicrange tonemapping sevilla seville andalusia spain" title="Casa de Pilatos HDR B" url_b="http://static.flickr.com/5125/5253833179_2a0f6b50f3_b.jpg" username="flurryofsmoke" views="32" />
<photo  date_taken="2010-07-28 18:19:46" description="" id="5253832603" latitude="37.390336" license="1" longitude="-5.987044" nbComments="0" rank="88" tags="sevilla seville andalusia spain" title="Casa de Pilatos 06" url_b="http://static.flickr.com/5163/5253832603_6419e8664d_b.jpg" username="flurryofsmoke" views="8" />
<photo  date_taken="2012-10-26 12:13:32" description="" id="8170414955" latitude="37.389802" license="5" longitude="-5.987278" nbComments="0" rank="89" tags="seville sevilla andalusia spain europe casadepilatos" title="Casa de Pilatos (Seville)" url_b="http://static.flickr.com/7255/8170414955_0725c781f2_b.jpg" username="Olivier Bruchez" views="8" />
<photo  date_taken="2012-10-26 10:43:45" description="" id="8170502080" latitude="37.390347" license="5" longitude="-5.987117" nbComments="0" rank="90" tags="seville sevilla andalusia spain europe casadepilatos" title="Casa de Pilatos (Seville)" url_b="http://static.flickr.com/7115/8170502080_526537db89_b.jpg" username="Olivier Bruchez" views="10" />
<photo  date_taken="2007-12-27 16:29:19" description="" id="2157637549" latitude="37.390174" license="3" longitude="-5.986744" nbComments="0" rank="91" tags="garden andalusia seville spain" title="Jardin Chico at Casa de Pilatos" url_b="http://static.flickr.com/2247/2157637549_956b48bc73_b.jpg" username="Dmitry Shakin" views="83" />
<photo  date_taken="2012-10-26 10:42:58" description="" id="8170501824" latitude="37.390386" license="5" longitude="-5.987087" nbComments="0" rank="92" tags="seville sevilla andalusia spain europe casadepilatos" title="Casa de Pilatos (Seville)" url_b="http://static.flickr.com/7134/8170501824_f58eae5987_b.jpg" username="Olivier Bruchez" views="11" />
<photo  date_taken="2012-10-26 10:42:16" description="" id="8170501546" latitude="37.390391" license="5" longitude="-5.987067" nbComments="0" rank="93" tags="seville sevilla andalusia spain europe casadepilatos" title="Casa de Pilatos (Seville)" url_b="http://static.flickr.com/7275/8170501546_ff85f0e148_b.jpg" username="Olivier Bruchez" views="9" />
<photo  date_taken="2010-12-06 16:57:07" description="Detalle del techo. Sevilla, España. Ceiling detail. Seville, Spain." id="5255397165" latitude="37.390387" license="1" longitude="-5.987135" nbComments="0" rank="94" tags="sevilla seville españa spain" title="Techo de la Casa de Pilatos" url_b="http://static.flickr.com/5250/5255397165_0f48e46a32_b.jpg" username="Belannaer" views="30" />
<photo  date_taken="2012-10-26 10:48:21" description="" id="8170473889" latitude="37.390183" license="5" longitude="-5.986734" nbComments="0" rank="95" tags="seville sevilla andalusia spain europe casadepilatos" title="Casa de Pilatos (Seville)" url_b="http://static.flickr.com/7246/8170473889_998e446f46_b.jpg" username="Olivier Bruchez" views="11" />
<photo  date_taken="2012-10-26 10:41:26" description="" id="8170501238" latitude="37.390322" license="5" longitude="-5.987309" nbComments="0" rank="96" tags="seville sevilla andalusia spain europe casadepilatos" title="Casa de Pilatos (Seville)" url_b="http://static.flickr.com/7262/8170501238_9ecfdc1836_b.jpg" username="Olivier Bruchez" views="10" />
<photo  date_taken="2012-10-26 11:37:05" description="" id="8170510606" latitude="37.39013" license="5" longitude="-5.9867" nbComments="0" rank="97" tags="seville sevilla andalusia spain europe casadepilatos" title="Casa de Pilatos (Seville)" url_b="http://static.flickr.com/7264/8170510606_ac028cebe6_b.jpg" username="Olivier Bruchez" views="13" />
<photo  date_taken="2012-10-26 11:52:42" description="" id="8170513148" latitude="37.390425" license="5" longitude="-5.987084" nbComments="0" rank="98" tags="seville sevilla andalusia spain europe casadepilatos" title="Casa de Pilatos (Seville)" url_b="http://static.flickr.com/7111/8170513148_9be2186bcd_b.jpg" username="Olivier Bruchez" views="9" />
<photo  date_taken="2007-12-27 13:45:50" description="" id="2271117514" latitude="37.390123" license="3" longitude="-5.986679" nbComments="0" rank="99" tags="andalusia garden seville spain" title="Jardin Chico at Casa de Pilatos" url_b="http://static.flickr.com/2253/2271117514_6669c66f26_b.jpg" username="Dmitry Shakin" views="80" />
<photo  date_taken="2007-12-27 13:36:32" description="" id="2271125622" latitude="37.390123" license="3" longitude="-5.986679" nbComments="0" rank="100" tags="andalusia stucco seville spain" title="Arch at Casa de Pilatos" url_b="http://static.flickr.com/2369/2271125622_55cdc005bb_b.jpg" username="Dmitry Shakin" views="56" />
<photo  date_taken="2012-10-26 10:44:42" description="" id="8170472627" latitude="37.390375" license="5" longitude="-5.986862" nbComments="0" rank="101" tags="seville sevilla andalusia spain europe casadepilatos" title="Casa de Pilatos (Seville)" url_b="http://static.flickr.com/8199/8170472627_e7bd645ca0_b.jpg" username="Olivier Bruchez" views="14" />
<photo  date_taken="2012-10-26 10:40:12" description="" id="8170500972" latitude="37.390388" license="5" longitude="-5.987262" nbComments="0" rank="102" tags="seville sevilla andalusia spain europe casadepilatos" title="Casa de Pilatos (Seville)" url_b="http://static.flickr.com/8062/8170500972_2880763290_b.jpg" username="Olivier Bruchez" views="13" />
<photo  date_taken="2012-10-26 10:56:55" description="" id="8170507178" latitude="37.390255" license="5" longitude="-5.986723" nbComments="0" rank="103" tags="seville sevilla andalusia spain europe casadepilatos" title="Casa de Pilatos (Seville)" url_b="http://static.flickr.com/7118/8170507178_70f814b301_b.jpg" username="Olivier Bruchez" views="9" />
<photo  date_taken="2012-10-26 10:44:15" description="" id="8170502318" latitude="37.390422" license="5" longitude="-5.986934" nbComments="0" rank="104" tags="seville sevilla andalusia spain europe casadepilatos" title="Casa de Pilatos (Seville)" url_b="http://static.flickr.com/7247/8170502318_01e54f8456_b.jpg" username="Olivier Bruchez" views="10" />
<photo  date_taken="2008-05-06 14:27:53" description="Sevilla, 20080506. Very renaissance: statues of classical gods and heroes. Except here the surroundings are mudejar: the muslim style continued under catholic rule." id="2553867133" latitude="37.390447" license="1" longitude="-5.98706" nbComments="0" rank="105" tags="spain andalucia sevilla casadepilatos trip" title="Renaissance" url_b="http://static.flickr.com/3064/2553867133_9d37734741_b.jpg" username="Freddie H." views="65" />
<photo  date_taken="2008-05-06 14:22:00" description="Sevilla, 20080506. This palace was built in the 15th century and remains a family house. It is a mix of gothic, mudejar and renaissance styles. It is named Pilatos, because its plan is supposed to be similar to the plan of the palace of Pontius Pilatus in Jerusalem. In any case, the owner who ordered the renaissance styling did visit Jerusalem. This is the main patio. The stucco is mudejar, but the structure as a whole is very italian. The fountain in the middle has been imported from Genua." id="2554690582" latitude="37.390447" license="1" longitude="-5.98706" nbComments="0" rank="106" tags="spain andalucia sevilla casadepilatos mudejar renaissance trip" title="Casa de Pilatos" url_b="http://static.flickr.com/3280/2554690582_2bdb922e37_b.jpg" username="Freddie H." views="420" />
<photo  date_taken="2008-05-06 14:30:37" description="Sevilla, 20080506. Galleries and arches surrounding the main patio." id="2553868681" latitude="37.390447" license="1" longitude="-5.98706" nbComments="0" rank="107" tags="spain andalucia sevilla casadepilatos trip" title="Patio" url_b="http://static.flickr.com/3162/2553868681_47e53e7038_b.jpg" username="Freddie H." views="78" />
<photo  date_taken="2008-05-06 14:25:36" description="Sevilla, 20080506. The stucco is mudejar style: the work of the muslim artists and artisans that continued after the reconquista." id="2553866527" latitude="37.390447" license="1" longitude="-5.98706" nbComments="0" rank="108" tags="spain andalucia sevilla casadepilatos trip" title="Mudejar" url_b="http://static.flickr.com/3070/2553866527_f1eac310b7_b.jpg" username="Freddie H." views="81" />
<photo  date_taken="2008-05-06 15:04:26" description="Sevilla, 20080506. A statue of the godess of wisdom and warriors in a mudejar setting. She is a copy of a roman statue, made in Italy." id="2553869845" latitude="37.390447" license="1" longitude="-5.98706" nbComments="0" rank="109" tags="spain andalucia sevilla casadepilatos trip" title="Minerva" url_b="http://static.flickr.com/3079/2553869845_97968514a2_b.jpg" username="Freddie H." views="101" />
<photo  date_taken="2008-05-06 14:45:24" description="Sevilla, 20080506. Arch leading from the dark, cool interior of the Casa de Pilatos into the blinding sunlight of the courtyard." id="2554693326" latitude="37.390447" license="1" longitude="-5.98706" nbComments="0" rank="110" tags="spain andalucia sevilla casadepilatos trip" title="To the light" url_b="http://static.flickr.com/3070/2554693326_2c83b0df3c_b.jpg" username="Freddie H." views="55" />
<photo  date_taken="2008-05-06 14:30:01" description="Sevilla, 20080506. Artesonados; beautifully carved and painted ceilings." id="2553868219" latitude="37.390447" license="1" longitude="-5.98706" nbComments="0" rank="111" tags="spain andalucia sevilla casadepilatos trip" title="Artesonado" url_b="http://static.flickr.com/3114/2553868219_fc65aa5965_b.jpg" username="Freddie H." views="76" />
<photo  date_taken="2008-05-06 14:51:16" description="Sevilla, 20080506. The walls of the corridors and rooms of the Case de Pilatos are covered in colourful azulos (tiles), and the wooden artesonado ceilings are painted in as many colours" id="2554693840" latitude="37.390447" license="1" longitude="-5.98706" nbComments="2" rank="112" tags="spain andalucia sevilla azulos casadepilatos trip" title="Riot of colours" url_b="http://static.flickr.com/3107/2554693840_1678fe53d6_b.jpg" username="Freddie H." views="58" />
<photo  date_taken="2007-12-27 13:24:20" description="" id="2154557374" latitude="37.390451" license="3" longitude="-5.98699" nbComments="1" rank="113" tags="andalusia seville spain" title="Ceiling at Casa de Pilatos" url_b="http://static.flickr.com/2246/2154557374_1bce6cfbd1_b.jpg" username="Dmitry Shakin" views="54" />
<photo  date_taken="2012-10-26 10:52:59" description="" id="8170505064" latitude="37.390002" license="5" longitude="-5.986637" nbComments="0" rank="114" tags="seville sevilla andalusia spain europe casadepilatos" title="Casa de Pilatos (Seville)" url_b="http://static.flickr.com/7138/8170505064_22df732b5f_b.jpg" username="Olivier Bruchez" views="9" />
<photo  date_taken="2012-10-26 10:40:03" description="" id="8170470851" latitude="37.390405" license="5" longitude="-5.987314" nbComments="0" rank="115" tags="seville sevilla andalusia spain europe casadepilatos" title="Casa de Pilatos (Seville)" url_b="http://static.flickr.com/8346/8170470851_d370cc7983_b.jpg" username="Olivier Bruchez" views="12" />
<photo  date_taken="2012-10-26 11:34:42" description="" id="8170510066" latitude="37.389905" license="5" longitude="-5.986639" nbComments="0" rank="116" tags="seville sevilla andalusia spain europe casadepilatos" title="Casa de Pilatos (Seville)" url_b="http://static.flickr.com/7138/8170510066_383f22c152_b.jpg" username="Olivier Bruchez" views="38" />
<photo  date_taken="2011-05-13 11:14:16" description="" id="5772506846" latitude="37.390419" license="2" longitude="-5.987297" nbComments="0" rank="117" tags="essevilla tile" title="Casa de Pilatos" url_b="http://static.flickr.com/2645/5772506846_86d46aef20_b.jpg" username="Norm Walsh" views="10" />
<photo  date_taken="2012-10-26 10:54:00" description="" id="8170475719" latitude="37.390075" license="5" longitude="-5.986603" nbComments="0" rank="118" tags="seville sevilla andalusia spain europe casadepilatos" title="Casa de Pilatos (Seville)" url_b="http://static.flickr.com/8067/8170475719_f5c6d96e0a_b.jpg" username="Olivier Bruchez" views="11" />
<photo  date_taken="2012-10-26 12:05:38" description="" id="8170415605" latitude="37.390405" license="5" longitude="-5.987359" nbComments="0" rank="119" tags="seville sevilla andalusia spain europe casadepilatos" title="Casa de Pilatos (Seville)" url_b="http://static.flickr.com/8347/8170415605_1074daed65_b.jpg" username="Olivier Bruchez" views="11" />
<photo  date_taken="2012-10-26 10:53:22" description="" id="8170475451" latitude="37.390083" license="5" longitude="-5.986598" nbComments="0" rank="120" tags="seville sevilla andalusia spain europe casadepilatos" title="Casa de Pilatos (Seville)" url_b="http://static.flickr.com/7137/8170475451_1577835ce0_b.jpg" username="Olivier Bruchez" views="11" />
<photo  date_taken="2012-07-15 13:26:02" description="" id="7689288642" latitude="37.390466" license="1" longitude="-5.987264" nbComments="0" rank="121" tags="" title="Casa de Pilatos" url_b="http://static.flickr.com/8150/7689288642_4aa7f1fe5b_b.jpg" username="Cochonou" views="8" />
<photo  date_taken="2012-07-15 13:29:22" description="" id="7689285680" latitude="37.390466" license="1" longitude="-5.987264" nbComments="0" rank="122" tags="" title="Casa de Pilatos" url_b="http://static.flickr.com/8167/7689285680_2fdbd80d8f_b.jpg" username="Cochonou" views="5" />
<photo  date_taken="2012-07-15 13:15:37" description="" id="7686792542" latitude="37.390466" license="1" longitude="-5.987264" nbComments="0" rank="123" tags="" title="Casa de Pilatos" url_b="http://static.flickr.com/7114/7686792542_8ccaceb9a4_b.jpg" username="Cochonou" views="3" />
<photo  date_taken="2012-07-15 13:31:11" description="" id="7689282230" latitude="37.390466" license="1" longitude="-5.987264" nbComments="0" rank="124" tags="" title="Casa de Pilatos" url_b="http://static.flickr.com/8287/7689282230_809c1ab97e_b.jpg" username="Cochonou" views="3" />
<photo  date_taken="2012-07-15 13:06:48" description="" id="7686816794" latitude="37.390472" license="1" longitude="-5.987262" nbComments="0" rank="125" tags="" title="Casa de Pilatos" url_b="http://static.flickr.com/7250/7686816794_8f2833728d_b.jpg" username="Cochonou" views="4" />
<photo  date_taken="2012-10-26 11:02:43" description="" id="8170508716" latitude="37.390522" license="5" longitude="-5.987103" nbComments="0" rank="126" tags="seville sevilla andalusia spain europe casadepilatos" title="Casa de Pilatos (Seville)" url_b="http://static.flickr.com/8346/8170508716_d969132918_b.jpg" username="Olivier Bruchez" views="18" />
<photo  date_taken="2012-10-26 12:00:57" description="" id="8170514580" latitude="37.390452" license="5" longitude="-5.987328" nbComments="0" rank="127" tags="seville sevilla andalusia spain europe casadepilatos" title="Casa de Pilatos (Seville)" url_b="http://static.flickr.com/7277/8170514580_baa6fd5675_b.jpg" username="Olivier Bruchez" views="14" />
<photo  date_taken="2007-08-05 10:28:54" description="" id="1328018950" latitude="37.390149" license="1" longitude="-5.986583" nbComments="3" rank="128" tags="casadepilatos sevilla estatuariaclasica escultura marmol blanco venus afrodita venusaphrodite jardingrande gruta" title="Venus dormida. Casa de Pilatos. Sevilla" url_b="http://static.flickr.com/1050/1328018950_dbd27ac89c_b.jpg" username="González-Alba" views="349" />
<photo  date_taken="2012-10-26 10:56:23" description="" id="8170506870" latitude="37.390261" license="5" longitude="-5.986623" nbComments="0" rank="129" tags="seville sevilla andalusia spain europe casadepilatos" title="Casa de Pilatos (Seville)" url_b="http://static.flickr.com/7110/8170506870_416d3bcbf9_b.jpg" username="Olivier Bruchez" views="13" />
<photo  date_taken="2011-05-13 11:06:21" description="" id="5771965141" latitude="37.390358" license="2" longitude="-5.987472" nbComments="0" rank="130" tags="essevilla" title="Casa de Pilatos" url_b="http://static.flickr.com/2182/5771965141_86215b43f8_b.jpg" username="Norm Walsh" views="8" />
<photo  date_taken="2012-10-26 11:00:59" description="" id="8170508404" latitude="37.390547" license="5" longitude="-5.987137" nbComments="0" rank="131" tags="seville sevilla andalusia spain europe casadepilatos" title="Casa de Pilatos (Seville)" url_b="http://static.flickr.com/7253/8170508404_ef540d825b_b.jpg" username="Olivier Bruchez" views="14" />
<photo  date_taken="2012-10-26 10:57:16" description="" id="8170477779" latitude="37.390147" license="5" longitude="-5.986559" nbComments="0" rank="132" tags="seville sevilla andalusia spain europe casadepilatos" title="Casa de Pilatos (Seville)" url_b="http://static.flickr.com/7112/8170477779_1424bf08f7_b.jpg" username="Olivier Bruchez" views="9" />
<photo  date_taken="2012-10-26 10:51:29" description="" id="8170504330" latitude="37.390138" license="5" longitude="-5.986548" nbComments="0" rank="133" tags="seville sevilla andalusia spain europe casadepilatos" title="Casa de Pilatos (Seville)" url_b="http://static.flickr.com/7279/8170504330_5c6f520ba4_b.jpg" username="Olivier Bruchez" views="11" />
<photo  date_taken="2012-10-26 10:54:27" description="" id="8170505842" latitude="37.390161" license="5" longitude="-5.98655" nbComments="0" rank="134" tags="seville sevilla andalusia spain europe casadepilatos" title="Casa de Pilatos (Seville)" url_b="http://static.flickr.com/8062/8170505842_08031ef37e_b.jpg" username="Olivier Bruchez" views="11" />
<photo  date_taken="2012-10-26 10:49:27" description="" id="8170474225" latitude="37.390225" license="5" longitude="-5.98657" nbComments="0" rank="135" tags="seville sevilla andalusia spain europe casadepilatos" title="Casa de Pilatos (Seville)" url_b="http://static.flickr.com/7247/8170474225_9e354c8119_b.jpg" username="Olivier Bruchez" views="11" />
<photo  date_taken="2012-10-26 12:04:33" description="" id="8170415827" latitude="37.390422" license="5" longitude="-5.98747" nbComments="0" rank="136" tags="seville sevilla andalusia spain europe casadepilatos" title="Casa de Pilatos (Seville)" url_b="http://static.flickr.com/7264/8170415827_90b86db963_b.jpg" username="Olivier Bruchez" views="10" />
<photo  date_taken="2012-10-26 11:58:32" description="" id="8170514066" latitude="37.390538" license="5" longitude="-5.987309" nbComments="0" rank="137" tags="seville sevilla andalusia spain europe casadepilatos" title="Casa de Pilatos (Seville)" url_b="http://static.flickr.com/7253/8170514066_df23596dec_b.jpg" username="Olivier Bruchez" views="10" />
<photo  date_taken="2012-10-26 10:52:35" description="" id="8170475027" latitude="37.390072" license="5" longitude="-5.986495" nbComments="0" rank="138" tags="seville sevilla andalusia spain europe casadepilatos" title="Casa de Pilatos (Seville)" url_b="http://static.flickr.com/7250/8170475027_36e174a7a4_b.jpg" username="Olivier Bruchez" views="12" />
<photo  date_taken="2012-10-26 10:55:26" description="" id="8170506484" latitude="37.390175" license="5" longitude="-5.986506" nbComments="0" rank="139" tags="seville sevilla andalusia spain europe casadepilatos" title="Casa de Pilatos (Seville)" url_b="http://static.flickr.com/8349/8170506484_48e7d35d0b_b.jpg" username="Olivier Bruchez" views="18" />
<photo  date_taken="2009-09-03 12:24:21" description="The Casa de Pilatos, Seville." id="3967417884" latitude="37.390051" license="1" longitude="-5.987656" nbComments="0" rank="140" tags="casadepilatos seville column" title="Column" url_b="http://static.flickr.com/2482/3967417884_e15812fbd0_b.jpg" username="dnas2" views="20" />
<photo  date_taken="2009-09-03 12:15:58" description="The Casa de Pilatos, Seville." id="3967413938" latitude="37.390051" license="1" longitude="-5.987656" nbComments="0" rank="141" tags="casadepilatos seville architecture moorish" title="Moorish Architecture" url_b="http://static.flickr.com/2458/3967413938_6802a4cc31_b.jpg" username="dnas2" views="28" />
<photo  date_taken="2009-09-03 12:23:11" description="The Casa de Pilatos, Seville." id="3966639049" latitude="37.390051" license="1" longitude="-5.987656" nbComments="0" rank="142" tags="casadepilatos seville statues alcoves" title="Statues in Alcoves" url_b="http://static.flickr.com/3475/3966639049_2f8e9ce140_b.jpg" username="dnas2" views="33" />
<photo  date_taken="2009-09-03 12:56:38" description="A typically odd mix of a Greek status amongst Moorish architecture. The Casa de Pilatos, Seville." id="3967418666" latitude="37.390051" license="1" longitude="-5.987656" nbComments="0" rank="143" tags="casadepilatos seville architecture statue greek moorish" title="Greek and Moorish Mix" url_b="http://static.flickr.com/2628/3967418666_00b5fec42b_b.jpg" username="dnas2" views="75" />
<photo  date_taken="2011-05-13 11:11:06" description="" id="5771965257" latitude="37.390561" license="2" longitude="-5.987319" nbComments="0" rank="144" tags="essevilla" title="Casa de Pilatos" url_b="http://static.flickr.com/2424/5771965257_b3edba49b5_b.jpg" username="Norm Walsh" views="6" />
<photo  date_taken="2012-10-26 11:56:43" description="" id="8170513414" latitude="37.390533" license="5" longitude="-5.987437" nbComments="0" rank="145" tags="seville sevilla andalusia spain europe casadepilatos" title="Casa de Pilatos (Seville)" url_b="http://static.flickr.com/7113/8170513414_c0cca287d9_b.jpg" username="Olivier Bruchez" views="13" />
<photo  date_taken="2012-10-26 10:52:05" description="" id="8170474709" latitude="37.390041" license="5" longitude="-5.986437" nbComments="0" rank="146" tags="seville sevilla andalusia spain europe casadepilatos" title="Casa de Pilatos (Seville)" url_b="http://static.flickr.com/8345/8170474709_fb98b95e74_b.jpg" username="Olivier Bruchez" views="8" />
<photo  date_taken="2012-10-26 10:59:03" description="" id="8170508032" latitude="37.390358" license="5" longitude="-5.986517" nbComments="0" rank="147" tags="seville sevilla andalusia spain europe casadepilatos" title="Casa de Pilatos (Seville)" url_b="http://static.flickr.com/8205/8170508032_9ca7fc6a53_b.jpg" username="Olivier Bruchez" views="9" />
<photo  date_taken="2012-10-26 10:54:57" description="" id="8170476349" latitude="37.390183" license="5" longitude="-5.986437" nbComments="0" rank="148" tags="seville sevilla andalusia spain europe casadepilatos" title="Casa de Pilatos (Seville)" url_b="http://static.flickr.com/8200/8170476349_2d43a84915_b.jpg" username="Olivier Bruchez" views="9" />
<photo  date_taken="2012-10-26 11:34:24" description="" id="8170509850" latitude="37.389572" license="5" longitude="-5.986192" nbComments="0" rank="149" tags="seville sevilla andalusia spain europe casadepilatos" title="Casa de Pilatos (Seville)" url_b="http://static.flickr.com/8068/8170509850_c08ea214ac_b.jpg" username="Olivier Bruchez" views="15" />
<photo  date_taken="2012-10-26 11:33:15" description="" id="8170479845" latitude="37.389649" license="5" longitude="-5.988156" nbComments="0" rank="150" tags="seville sevilla andalusia spain europe casadepilatos" title="Casa de Pilatos (Seville)" url_b="http://static.flickr.com/8485/8170479845_8310de4336_b.jpg" username="Olivier Bruchez" views="13" />
</photos>
