<?xml version="1.0" encoding="UTF-8" standalone="no"?>
<photos monument="Grande Arche">

<photo  date_taken="2009-11-24 11:33:27" description="Impressive. &lt;a href=&quot;http://en.wikipedia.org/wiki/Grande_Arche&quot; rel=&quot;nofollow&quot;&gt;en.wikipedia.org/wiki/Grande_Arche&lt;/a&gt; &lt;a href=&quot;http://www.grandearche.com/&quot; rel=&quot;nofollow&quot;&gt;www.grandearche.com/&lt;/a&gt;" id="4193358555" latitude="48.892776" license="5" longitude="2.235833" nbComments="5" rank="1" tags="raw grandearche paris france ladéfense nikonafs18200mmf3556gifeddxvr iphoto" title="Grande Arche de la Défense" url_b="http://static.flickr.com/2626/4193358555_3cceb8a2d6_b.jpg" username="vitamindave" views="93" />
<photo  date_taken="2012-12-23 14:11:59" description="---------------------------------------------- &lt;b&gt;Contact me &amp;amp; Buy Print at:&lt;/b&gt; &lt;a href=&quot;http://lesparisii.tumblr.com&quot; rel=&quot;nofollow&quot;&gt;Les Parisii&lt;/a&gt; // &lt;a href=&quot;http://www.facebook.com/lesparisii&quot; rel=&quot;nofollow&quot;&gt;Facebook Page&lt;/a&gt; // &lt;a href=&quot;http://www.500px.com/ahuypham&quot; rel=&quot;nofollow&quot;&gt;500px&lt;/a&gt;" id="8476325616" latitude="48.892698" license="3" longitude="2.235975" nbComments="0" rank="2" tags="grandearchedeladéfense flickriosapp:filter=nofilter uploaded:by=flickrmobile" title="Build the World" url_b="http://static.flickr.com/8368/8476325616_b83655c83e_b.jpg" username="StylelaB" views="70" />
<photo  date_taken="2009-08-15 10:57:36" description="" id="3928378777" latitude="48.892634" license="5" longitude="2.235739" nbComments="10" rank="3" tags="paris parigi défense moderno modern grandearche scale escalier stairs alessandro prada" title="Paris - La Défense" url_b="http://static.flickr.com/2423/3928378777_655bc4cee3_b.jpg" username="bibendum84" views="46" />
<photo  date_taken="2009-08-15 11:03:37" description="" id="3929162554" latitude="48.892634" license="5" longitude="2.235739" nbComments="9" rank="4" tags="paris parigi défense moderno modern grandearche scale escalier stairs alessandro prada" title="Paris - La Défense" url_b="http://static.flickr.com/2484/3929162554_173346c91b_b.jpg" username="bibendum84" views="44" />
<photo  date_taken="2012-08-27 17:39:55" description="Kodak Tri-X 400 TX400, D-76 1+1, 20°C, 9,75min" id="8060903253" latitude="48.892869" license="5" longitude="2.235558" nbComments="2" rank="5" tags="135 35mm d7611 france frankreich kodaktrix400 ladéfense minoltaxe1 paris analog puteaux îledefrance" title="Grande Arche" url_b="http://static.flickr.com/8310/8060903253_70d0f1d113_b.jpg" username="miez!" views="54" />
<photo  date_taken="2012-11-13 09:45:58" description="La Grande Arche de la Defense (1989) by Danish architect Johan Otto von Spreckelsen and dedicated to the glory of mankind. White marble, steel and glass. Aligned in the historic axis across Paris from the Louvre. Inauguarated to celebrate the bicentennial of the French Revolution." id="8207127584" latitude="48.892579" license="3" longitude="2.235567" nbComments="0" rank="6" tags="la defense grande arche business district axis louvre arc" title="Paris: La Defense" url_b="http://static.flickr.com/8350/8207127584_888a308fab_b.jpg" username="kaysgeog" views="18" />
<photo  date_taken="4501-01-01 00:00:00" description="Paris anaglyph red/cyan" id="7970613478" latitude="48.892599" license="3" longitude="2.236114" nbComments="0" rank="7" tags="lagrandearche ladefense paris parijs 3d stereo anaglyph redcyan" title="La Grande Arche 3D" url_b="http://static.flickr.com/8041/7970613478_a3df327e04_b.jpg" username="wim hoppenbrouwers" views="66" />
<photo  date_taken="2009-05-12 18:12:53" description="" id="3626089910" latitude="48.892444" license="4" longitude="2.235943" nbComments="0" rank="8" tags="la grande arche de défense arch erik reitzel paul andreu johann otto von spreckelsen paris france" title="La Grande Arche de la Défense" url_b="http://static.flickr.com/3654/3626089910_12c19df7d4_b.jpg" username="CHRISTOPHER MACSURAK" views="26" />
<photo  date_taken="2011-08-11 13:44:27" description="" id="6032647927" latitude="48.892395" license="5" longitude="2.235932" nbComments="1" rank="9" tags="grandearche défense" title="La Grande Arche" url_b="http://static.flickr.com/6195/6032647927_ff053ee4c3_b.jpg" username="Matt Biddulph" views="142" />
<photo  date_taken="2010-10-26 17:01:03" description="La Grande Arche." id="5129773201" latitude="48.89262" license="1" longitude="2.236232" nbComments="0" rank="10" tags="ladéfenselagrandearchejohanottovonspreckelsenparis françaograndearco" title="La Défense." url_b="http://static.flickr.com/1411/5129773201_4befec430c_b.jpg" username="Elias Rovielo" views="3" />
<photo  date_taken="2010-10-26 17:03:32" description="La Grande Arche. Nuvem." id="5130392672" latitude="48.89262" license="1" longitude="2.236232" nbComments="0" rank="11" tags="ladéfenselagrandearchejohanottovonspreckelsenparis françaograndearco" title="La Défense." url_b="http://static.flickr.com/1184/5130392672_5dd4e0d532_b.jpg" username="Elias Rovielo" views="2" />
<photo  date_taken="2012-11-13 10:45:33" description="La Grande Arche de la Defense (1989) by Danish architect Johan Otto von Spreckelsen and dedicated to the glory of mankind. White marble, steel and glass. Aligned in the historic axis across Paris from the Louvre. Inauguarated to celebrate the bicentennial of the French Revolution." id="8206038143" latitude="48.892629" license="3" longitude="2.235417" nbComments="0" rank="12" tags="la defense grande arche business district axis louvre arc" title="Paris: La Defense" url_b="http://static.flickr.com/8064/8206038143_d5219ff1d3_b.jpg" username="kaysgeog" views="15" />
<photo  date_taken="4501-01-01 00:00:00" description="La Defense Paris anaglyph" id="7961359808" latitude="48.892402" license="3" longitude="2.2362" nbComments="0" rank="13" tags="ladefense paris parijs anaglyph lagrandearche 3d stereo redcyan" title="La Grande Arche 3D" url_b="http://static.flickr.com/8029/7961359808_076a9827e6_b.jpg" username="wim hoppenbrouwers" views="124" />
<photo  date_taken="2005-10-16 21:29:56" description="The Grande Arche is pretty big. You really feel small standing there. And when you want to go to the top you use these glass(!) elevators in this metallic structure. That really is a strange feeling in there." id="53086796" latitude="48.892253" license="1" longitude="2.235985" nbComments="2" rank="14" tags="paris travel architecture grandarche metal perspective france night elevator worldcitycenters grabthar sebastianniedlich building sonydscs70 s70" title="Up To The Top Of Grande Arche" url_b="http://static.flickr.com/31/53086796_f8506d94ec_b.jpg" username="Sebastian Niedlich (Grabthar)" views="222" />
<photo  date_taken="2012-09-07 17:24:24" description="La Defense Paris anaglyph" id="7949901168" latitude="48.892303" license="3" longitude="2.236157" nbComments="1" rank="15" tags="lagrandearche paris parijs 3d ladefense anaglyph" title="La Grande Arche 3D" url_b="http://static.flickr.com/8178/7949901168_c056f8c78d_b.jpg" username="wim hoppenbrouwers" views="153" />
<photo  date_taken="2011-01-16 14:27:36" description="" id="5394758911" latitude="48.89262" license="1" longitude="2.235234" nbComments="0" rank="16" tags="paris île de france la défense offices high rise me self portrait glass grande arche art reflection" title="Me" url_b="http://static.flickr.com/5252/5394758911_937bb89082_b.jpg" username="Forumgouda" views="63" />
<photo  date_taken="2008-05-08 08:38:23" description="This huge building is not really beautiful, just gigantic, but I love when the sunlight is reflected in the windows." id="2478090734" latitude="48.892955" license="3" longitude="2.235208" nbComments="1" rank="17" tags="france paris ladéfense hautsdeseine 92 architecture light lumière shadow ombre stairs marches escaliers windows fenêtres color couleur grandearche gregorybastien parisianphotography pentaxk10d urban urbain street city ville greg iledefrance pentax panam architecturecontemporaine contemporaryarchitecture architecturemoderne modernarchitecture aficionados geotagged geotaggée" title="La Grande Arche de la Défense" url_b="http://static.flickr.com/2175/2478090734_e2de47e4c9_b.jpg" username="Gregory Bastien" views="432" />
<photo  date_taken="2005-01-09 09:48:16" description="This guy totally rocked our world, with his extra special photography pose. (Although it looks like he is holding up a miniature guy, instead of taking a photo from this angle.)" id="59678626" latitude="48.892462" license="1" longitude="2.236522" nbComments="9" rank="18" tags="grandearche défensegrande archedeladéfense photographer metaphotography tourist japanese asian insane kungfu salaryman france paris ladéfense ladefense défense cityscape" title="Tourist Attack!" url_b="http://static.flickr.com/33/59678626_9c01282330_b.jpg" username="Giant Ginkgo" views="1238" />
<photo  date_taken="2011-04-11 08:32:12" description="La Defense" id="5861371279" latitude="48.892165" license="4" longitude="2.2363" nbComments="0" rank="19" tags="arcdetriomphe champselysees grandearche ladefense paris sitting" title="Down the Champs-elysees all the way down" url_b="http://static.flickr.com/2788/5861371279_1f8ca5c102_b.jpg" username="waitscm" views="20" />
<photo  date_taken="2009-01-21 18:27:40" description="La Défense, Paris. &lt;i&gt;Nef developed using Apple Aperture 2.1.2&lt;/i&gt;" id="3278009145" latitude="48.89238" license="4" longitude="2.236533" nbComments="15" rank="20" tags="sigma1770mmf2845dcmacroaspif nikon nikond50 d50 sigma sigma1770 1770 nef raw aperture appleaperture ladéfense defense paris cell cellphone mobilephone mobile ladder lagrandearche grandarche reddressedwoman reddress red modernarchitecture lines geometries geometry cronacheurbane urbanjungle" title="Different interconnections" url_b="http://static.flickr.com/3431/3278009145_32d4fb2214_b.jpg" username="Marco Bellucci" views="469" />
<photo  date_taken="2007-09-20 14:47:10" description="&lt;a href=&quot;http://loc.alize.us/#/flickr:1419323444&quot;&gt;See where this picture was taken.&lt;/a&gt; &lt;a href=&quot;http://www.flickr.com/groups/geotagging/discuss/72157594165549916/&quot;&gt;[?]&lt;/a&gt;" id="1419323444" latitude="48.89212" license="5" longitude="2.236372" nbComments="4" rank="21" tags="paris ladéfense france ville urbain architecture urban construction building modern grandearche skyscraper gratteciel city europe geo:lat=4889212 geo:lon=2236372 geotagged" title="La Grande Arche" url_b="http://static.flickr.com/1071/1419323444_5c3f2b1788_b.jpg" username="Stéfan" views="515" />
<photo  date_taken="2007-07-27 13:49:31" description="View from the top" id="1160930972" latitude="48.892246" license="4" longitude="2.236533" nbComments="0" rank="22" tags="2007 france paris ladéfense ladéfensegrandearche grandearchedeladéfense lagrandearche photobystignygaard creativecommons 400d canoneos400d canonefs1022mmf3545usm wideangle lagrandearchedeladéfense" title="Paris" url_b="http://static.flickr.com/1376/1160930972_f51b1f2b11_b.jpg" username="Stig Nygaard" views="153" />
<photo  date_taken="2007-07-27 13:50:33" description="View from the top" id="1160935312" latitude="48.892246" license="4" longitude="2.236533" nbComments="0" rank="23" tags="2007 france paris ladéfense ladéfensegrandearche grandearchedeladéfense lagrandearche photobystignygaard creativecommons 400d canoneos400d canonefs1022mmf3545usm wideangle lagrandearchedeladéfense" title="Paris" url_b="http://static.flickr.com/1274/1160935312_9363f3f4c9_b.jpg" username="Stig Nygaard" views="97" />
<photo  date_taken="2010-01-30 18:56:24" description="(Ciao &lt;a href=&quot;http://blog.flickr.net/en/2013/01/30/paris-architecture-la-grande-arche-de-la-defense/&quot; rel=&quot;nofollow&quot;&gt;Flickr&lt;/a&gt;, si può dire che per me La Grande Arche de la Défense è stato un gigantesco, sensazionale meh?)" id="8430096635" latitude="48.892529" license="3" longitude="2.236683" nbComments="1" rank="24" tags="paris parigi defense arche arco coso truc lomo dianamini meh clouds nuvole skyer sky cielo giao" title="La Grande Meh de la Défense." url_b="http://static.flickr.com/8094/8430096635_c56b8d5fbb_b.jpg" username="piermario" views="101" />
<photo  date_taken="2011-09-05 10:25:03" description="" id="6447287369" latitude="48.892273" license="4" longitude="2.236587" nbComments="0" rank="25" tags="canonef28mmf18 ladéfense lagrandearchedelafraternité paris stairs" title="It's been a while." url_b="http://static.flickr.com/7017/6447287369_3f3f1814d3_b.jpg" username="florianplag" views="108" />
<photo  date_taken="2011-09-05 10:30:23" description="" id="6198713966" latitude="48.892273" license="4" longitude="2.236587" nbComments="0" rank="26" tags="canonef100mmf2 grandearche ladéfense lagrandearchedelafraternité paris" title="La Grande Arche." url_b="http://static.flickr.com/6006/6198713966_ba456a6624_b.jpg" username="florianplag" views="55" />
<photo  date_taken="2005-04-23 14:39:32" description="That's a tiny scenic elevator ascending the gaping central void." id="10667718" latitude="48.892225" license="1" longitude="2.236576" nbComments="0" rank="27" tags="paris arche" title="La Grande Arche" url_b="http://static.flickr.com/7/10667718_1461dc0b99_b.jpg" username="diamond geezer" views="439" />
<photo  date_taken="2008-03-10 11:38:03" description="#0261" id="2330304596" latitude="48.892067" license="3" longitude="2.236458" nbComments="0" rank="28" tags="paris france la defense monument arch great grande arche mitterand modern architecture highrise pattern city office building tall business district tz3 lumix lumixdmctz3" title="Grande Arche" url_b="http://static.flickr.com/2241/2330304596_36381d3d1c_b.jpg" username="p_valdivieso" views="66" />
<photo  date_taken="2012-09-10 14:08:13" description="La Defense Paris anaglyph red/cyan" id="7970622734" latitude="48.892275" license="3" longitude="2.236715" nbComments="0" rank="29" tags="ladefense lagrandearche paris parijs 3d stereo anaglyph" title="La Grande Arche 3D" url_b="http://static.flickr.com/8041/7970622734_f662ebe69b_b.jpg" username="wim hoppenbrouwers" views="171" />
<photo  date_taken="2010-11-16 17:34:17" description="In Paris" id="5207372603" latitude="48.892377" license="3" longitude="2.236919" nbComments="6" rank="30" tags="ladéfense lagrandearche france frankrijk grafisme graphism graphisme minimalism minimalisme nikkorafd50mmf18 parijs paris" title="Sitting Around" url_b="http://static.flickr.com/4149/5207372603_7d6d5d5993_b.jpg" username="Amaury Henderick" views="371" />
<photo  date_taken="2012-07-24 16:23:43" description="" id="8087832285" latitude="48.892191" license="4" longitude="2.236863" nbComments="0" rank="31" tags="europe france iledefrance ladéfense lagrandearchedeladéfense neuillysurseine paris puteaux îledefrance" title="La Grande Arche de la Défense" url_b="http://static.flickr.com/8196/8087832285_cd3557b422_b.jpg" username="frozenchipmunk" views="34" />
<photo  date_taken="2009-05-09 00:27:31" description="" id="3514154840" latitude="48.892592" license="3" longitude="2.237026" nbComments="2" rank="32" tags="skgz nikond90 paris ladefense arche grandearchedeladefense building sky ciel bleu blue reflection nuage clouds soleil sun moderne art contemporain modern" title="window_on_the_sky" url_b="http://static.flickr.com/3403/3514154840_929f25819f_b.jpg" username="skgz" views="9" />
<photo  date_taken="2009-11-24 11:30:38" description="Looking north-west from under the Arche." id="4193358277" latitude="48.892776" license="5" longitude="2.235833" nbComments="3" rank="33" tags="raw grandearche paris france ladéfense nikonafs18200mmf3556gifeddxvr iphoto esplanadedeladéfense" title="Through the Glass" url_b="http://static.flickr.com/2800/4193358277_345932a541_b.jpg" username="vitamindave" views="38" />
<photo  date_taken="2009-03-07 14:53:37" description="2009." id="3336869959" latitude="48.892648" license="3" longitude="2.235771" nbComments="0" rank="34" tags="paris ladéfense 2009 architecture lagrandearche urban businesscenter cube noiretblanc bw black white" title="Grande arche de La Défense..." url_b="http://static.flickr.com/3371/3336869959_04ec15c405_b.jpg" username="cracoucas27" views="13" />
<photo  date_taken="1999-10-20 00:00:00" description="Elevator to the top of La Grande Arche de la Defense" id="312486074" latitude="48.892633" license="3" longitude="2.235866" nbComments="0" rank="35" tags="europe france paris 35mm disposablecamera lagrandearchedeladefense ladefense elevator nikonsupercoolscan5000ed supercoolscan5000" title="Europe Roll 2 10" url_b="http://static.flickr.com/115/312486074_3583532c7c_b.jpg" username="zemistor" views="73" />
<photo  date_taken="2005-10-08 17:56:59" description="Going up to the top of the Grande Arche" id="367804083" latitude="48.892619" license="3" longitude="2.235863" nbComments="0" rank="36" tags="paris europe france grandearche ladefense lagrandearchedeladefense elevator" title="ParisII291" url_b="http://static.flickr.com/112/367804083_f354527e2d_b.jpg" username="zemistor" views="86" />
<photo  date_taken="2012-04-19 14:35:07" description="" id="6947147212" latitude="48.892698" license="4" longitude="2.235975" nbComments="0" rank="37" tags="instagramapp square squareformat iphoneography uploaded:by=instagram normal foursquare:venue=4b2b5fc5f964a52000b624e3" title="Grande Arche" url_b="http://static.flickr.com/7272/6947147212_39d5287ce1_b.jpg" username="RUDEWORKS" views="11" />
<photo  date_taken="2010-09-27 16:36:01" description="" id="5031558688" latitude="48.892617" license="3" longitude="2.235782" nbComments="0" rank="38" tags="paris ladéfense architecturemoderne urbanisme architecture" title="la défense - la grande arche - détail" url_b="http://static.flickr.com/4113/5031558688_11b372ccf7_b.jpg" username="regard 1400" views="12" />
<photo  date_taken="2009-08-15 11:12:21" description="" id="3929162614" latitude="48.892634" license="5" longitude="2.235739" nbComments="2" rank="39" tags="paris parigi défense moderno modern grandearche scale escalier stairs alessandro prada" title="Paris - La Défense" url_b="http://static.flickr.com/2449/3929162614_fbc8175d73_b.jpg" username="bibendum84" views="43" />
<photo  date_taken="2009-08-15 11:14:51" description="" id="3928379111" latitude="48.892634" license="5" longitude="2.235739" nbComments="5" rank="40" tags="paris parigi défense moderno modern grandearche scale escalier stairs alessandro prada" title="Paris - La Défense" url_b="http://static.flickr.com/2550/3928379111_17b9d977f5_b.jpg" username="bibendum84" views="61" />
<photo  date_taken="2009-08-15 11:13:03" description="" id="3929162670" latitude="48.892634" license="5" longitude="2.235739" nbComments="4" rank="41" tags="paris parigi défense moderno modern grandearche scale escalier stairs pigeon piccione alessandro prada" title="Paris - La Défense" url_b="http://static.flickr.com/2606/3929162670_896711b398_b.jpg" username="bibendum84" views="44" />
<photo  date_taken="2009-04-04 15:54:05" description="La Défense" id="3436191980" latitude="48.892607" license="3" longitude="2.235653" nbComments="0" rank="42" tags="paris" title="La Grande Arche de la Fraternité" url_b="http://static.flickr.com/3340/3436191980_123de30b54_b.jpg" username="Jayjay P" views="9" />
<photo  date_taken="2009-04-04 15:51:38" description="La Grande Arche" id="3439044768" latitude="48.892607" license="3" longitude="2.235653" nbComments="0" rank="43" tags="paris" title="La Défense" url_b="http://static.flickr.com/3657/3439044768_30cd2895b5_b.jpg" username="Jayjay P" views="10" />
<photo  date_taken="2009-04-04 15:54:51" description="La Grande Arche" id="3439051024" latitude="48.892607" license="3" longitude="2.235653" nbComments="0" rank="44" tags="paris" title="La Défense" url_b="http://static.flickr.com/3634/3439051024_0f97c2508c_b.jpg" username="Jayjay P" views="17" />
<photo  date_taken="2009-04-04 15:50:33" description="La Grande Arche" id="3438224293" latitude="48.892607" license="3" longitude="2.235653" nbComments="0" rank="45" tags="paris" title="La Défense" url_b="http://static.flickr.com/3406/3438224293_5a02fa2bbf_b.jpg" username="Jayjay P" views="4" />
<photo  date_taken="2009-04-04 15:49:08" description="La Grande Arche" id="3438217449" latitude="48.892607" license="3" longitude="2.235653" nbComments="0" rank="46" tags="paris" title="La Défense" url_b="http://static.flickr.com/3623/3438217449_023db8c1a2_b.jpg" username="Jayjay P" views="5" />
<photo  date_taken="2011-12-26 11:32:06" description="Looking for that non-cliche image of La Grande Arche de la Défense, Paris, France. Processed using PS5.1 and Nik Silver Efex. This is PS stitch-up of two 10mm shots, hence the rather strange perspective." id="6588718883" latitude="48.892546" license="3" longitude="2.235739" nbComments="12" rank="47" tags="7d paris monochrome france architecture buildings grandearche ladéfense glass silverefex nik reflection" title="hole in the roof" url_b="http://static.flickr.com/7149/6588718883_a73f3eac0a_b.jpg" username="iFovea" views="112" />
<photo  date_taken="2007-04-28 14:12:59" description="" id="480479780" latitude="48.892974" license="1" longitude="2.235677" nbComments="0" rank="48" tags="wall glass grandearche paris" title="The Wall." url_b="http://static.flickr.com/195/480479780_2c5229d3cf_b.jpg" username="Ruben Bos" views="72" />
<photo  date_taken="2011-12-26 11:33:28" description="Looking for that non-cliche image of La Grande Arche de la Défense, Paris, France. Processed using PS5.1 and Nik Silver Efex." id="6582559355" latitude="48.892514" license="3" longitude="2.235846" nbComments="1" rank="49" tags="7d paris monochrome france architecture buildings grandearche ladéfense glass silverefex nik reflection" title="inside the arch" url_b="http://static.flickr.com/7028/6582559355_0504787b2e_b.jpg" username="iFovea" views="54" />
<photo  date_taken="2012-09-06 13:54:04" description="La Defense Paris" id="7942977898" latitude="48.892529" license="3" longitude="2.235943" nbComments="1" rank="50" tags="paris parijs ladefense lagrandearche arche 3d stereo anaglyph redcyan" title="La Grande Arche 3D" url_b="http://static.flickr.com/8036/7942977898_9ba8b28e3e_b.jpg" username="wim hoppenbrouwers" views="54" />
<photo  date_taken="2007-05-08 10:48:04" description="Architecture" id="493612447" latitude="48.892486" license="1" longitude="2.235846" nbComments="0" rank="51" tags="architecture france paris lagrandearche bridot ladéfense rémibridot building galeriecouleur" title="050defense" url_b="http://static.flickr.com/210/493612447_14a7726e8c_b.jpg" username="R E M I B R I D O T" views="15" />
<photo  date_taken="2007-04-18 17:25:49" description="Architecture" id="493624669" latitude="48.892486" license="1" longitude="2.235846" nbComments="1" rank="52" tags="architecture lagrandearche leparvisdeladéfense bridot architecturecontemporaine ladéfense rémibridot building paris favoritesarchitecture galeriecouleur" title="241defense" url_b="http://static.flickr.com/198/493624669_65e63d4ade_b.jpg" username="R E M I B R I D O T" views="67" />
<photo  date_taken="2007-05-08 10:48:03" description="Architecture" id="493611405" latitude="48.892486" license="1" longitude="2.235846" nbComments="1" rank="53" tags="architecture france lagrandearche paris bridot ladéfense rémibridot building galeriecouleur" title="035defense" url_b="http://static.flickr.com/227/493611405_4f6331fea6_b.jpg" username="R E M I B R I D O T" views="16" />
<photo  date_taken="2007-04-18 17:43:05" description="Architecture" id="493625097" latitude="48.892486" license="1" longitude="2.235846" nbComments="1" rank="54" tags="architecture lagrandearche bridot architecturecontemporaine ladéfense rémibridot building paris favoritespictures galeriecouleur" title="243defense" url_b="http://static.flickr.com/194/493625097_25c681683b_b.jpg" username="R E M I B R I D O T" views="47" />
<photo  date_taken="2007-05-08 10:48:04" description="Architecture" id="493612439" latitude="48.892486" license="1" longitude="2.235846" nbComments="1" rank="55" tags="architecture france paris lagrandearche bridot ladéfense rémibridot building galeriecouleur" title="043defense" url_b="http://static.flickr.com/208/493612439_a0698f9ab7_b.jpg" username="R E M I B R I D O T" views="18" />
<photo  date_taken="2007-04-18 17:43:05" description="Architecture" id="493599408" latitude="48.892486" license="1" longitude="2.235846" nbComments="0" rank="56" tags="architecture lagrandearche bridot architecturecontemporaine ladéfense rémibridot building paris galeriecouleur" title="211defense" url_b="http://static.flickr.com/194/493599408_7055562243_b.jpg" username="R E M I B R I D O T" views="22" />
<photo  date_taken="2007-05-08 10:48:04" description="Architecture" id="493612453" latitude="48.892486" license="1" longitude="2.235846" nbComments="0" rank="57" tags="architecture france paris lagrandearche bridot ladéfense rémibridot building favoritesarchitecture galeriecouleur" title="052defense" url_b="http://static.flickr.com/193/493612453_29b6754c39_b.jpg" username="R E M I B R I D O T" views="15" />
<photo  date_taken="2007-05-08 10:48:04" description="Architecture" id="493611413" latitude="48.892486" license="1" longitude="2.235846" nbComments="1" rank="58" tags="architecture france lagrandearche paris bridot ladéfense rémibridot building favoritespictures galeriecouleur" title="038defense" url_b="http://static.flickr.com/189/493611413_fae348045c_b.jpg" username="R E M I B R I D O T" views="31" />
<photo  date_taken="2007-05-08 10:48:03" description="Architecture" id="493611409" latitude="48.892486" license="1" longitude="2.235846" nbComments="1" rank="59" tags="architecture france lagrandearche paris bridot ladéfense rémibridot building galeriecouleur" title="036defense" url_b="http://static.flickr.com/196/493611409_f659ac14bc_b.jpg" username="R E M I B R I D O T" views="18" />
<photo  date_taken="2007-05-08 10:48:04" description="Architecture" id="493612431" latitude="48.892486" license="1" longitude="2.235846" nbComments="1" rank="60" tags="architecture lagrandearche paris bridot ladéfense rémibridot building favoritespictures galeriecouleur" title="040defense" url_b="http://static.flickr.com/189/493612431_8ee80a65da_b.jpg" username="R E M I B R I D O T" views="30" />
<photo  date_taken="2007-05-08 10:48:04" description="Architecture" id="493612455" latitude="48.892486" license="1" longitude="2.235846" nbComments="0" rank="61" tags="architecture france lagrandearche paris bridot ladéfense rémibridot building galeriecouleur" title="054defense" url_b="http://static.flickr.com/195/493612455_2e6691e7d5_b.jpg" username="R E M I B R I D O T" views="13" />
<photo  date_taken="2012-08-03 14:20:09" description="This amazing building in the shape of a picture frame is situated on the Axis Historique inline with the Arc de Triomph" id="7866158194" latitude="48.892791" license="4" longitude="2.236133" nbComments="0" rank="62" tags="modern defense grand arch" title="La Grande Arche" url_b="http://static.flickr.com/7271/7866158194_e87566b738_b.jpg" username="Elsie esq." views="8" />
<photo  date_taken="2010-11-12 20:38:45" description="La Grande Arche." id="5432783951" latitude="48.892465" license="1" longitude="2.2359" nbComments="0" rank="63" tags="ladéfense défense paris parís francia france night noche" title="La Défense" url_b="http://static.flickr.com/5134/5432783951_e278f1d618_b.jpg" username="SamwiseGamgee69" views="57" />
<photo  date_taken="2010-11-12 20:44:03" description="La Grande Arche." id="5432788423" latitude="48.892465" license="1" longitude="2.2359" nbComments="0" rank="64" tags="ladéfense défense paris parís francia france night noche" title="La Défense" url_b="http://static.flickr.com/5093/5432788423_bbb6183083_b.jpg" username="SamwiseGamgee69" views="60" />
<photo  date_taken="2010-09-12 10:57:53" description="" id="5002862890" latitude="48.892543" license="3" longitude="2.235613" nbComments="1" rank="65" tags="" title="La Grande Arche" url_b="http://static.flickr.com/4108/5002862890_a537ac3765_b.jpg" username="jmbaud74" views="12" />
<photo  date_taken="2012-11-13 11:07:30" description="La Grande Arche de la Defense (1989) by Danish architect Johan Otto von Spreckelsen and dedicated to the glory of mankind. White marble, steel and glass. Aligned in the historic axis across Paris from the Louvre. Inauguarated to celebrate the bicentennial of the French Revolution." id="8207132994" latitude="48.892529" license="3" longitude="2.236039" nbComments="0" rank="66" tags="la defense grande arche business district axis louvre arc" title="Paris: La Defense" url_b="http://static.flickr.com/8490/8207132994_31873720c8_b.jpg" username="kaysgeog" views="16" />
<photo  date_taken="2006-08-19 07:48:22" description="" id="219149054" latitude="48.892941" license="1" longitude="2.236136" nbComments="0" rank="67" tags="cfsl paris defense arche mansionis" title="Un bout de grande arche" url_b="http://static.flickr.com/70/219149054_eef0c48f33_b.jpg" username="alecska" views="27" />
<photo  date_taken="2005-10-29 15:05:46" description="The inside of La Grand Arche" id="363516747" latitude="48.892684" license="4" longitude="2.236168" nbComments="0" rank="68" tags="architecture buildings fourdimensionalhypercube france johannottovonspreckelsen ladefense lagrandearche paris paulandreu skyscrapers" title="La Grand Arche" url_b="http://static.flickr.com/158/363516747_46512b7f13_b.jpg" username="borkur.net" views="138" />
<photo  date_taken="2010-05-16 10:59:14" description="" id="4611330008" latitude="48.892423" license="1" longitude="2.235803" nbComments="5" rank="69" tags="ladéfense glass girl legrandearche arche grand tiles tranparency yashicamat124g ilforddelta400 bw paris" title="La Défense - Glass" url_b="http://static.flickr.com/3371/4611330008_7715606e26_b.jpg" username="Balthus Van Tassel" views="140" />
<photo  date_taken="2012-08-27 17:39:46" description="Kodak Tri-X 400 TX400, D-76 1+1, 20°C, 9,75min" id="7876730076" latitude="48.893088" license="5" longitude="2.235633" nbComments="1" rank="70" tags="135 35mm d7611 france frankreich kodaktrix400 ladéfense minoltaxe1 paris analog puteaux îledefrance" title="Grande Arche" url_b="http://static.flickr.com/8304/7876730076_34d99292bc_b.jpg" username="miez!" views="45" />
<photo  date_taken="2008-06-28 14:45:05" description="" id="2748018326" latitude="48.892405" license="1" longitude="2.235878" nbComments="0" rank="71" tags="cathyaontour summer2008 paris ladéfense" title="La Grande Arche de la Défense" url_b="http://static.flickr.com/3147/2748018326_7246c3d51f_b.jpg" username="cjoel" views="24" />
<photo  date_taken="2012-11-13 09:41:40" description="La Grande Arche de la Defense (1989) by Danish architect Johan Otto von Spreckelsen and dedicated to the glory of mankind. White marble, steel and glass. Aligned in the historic axis across Paris from the Louvre. Inauguarated to celebrate the bicentennial of the French Revolution." id="8207126368" latitude="48.892696" license="3" longitude="2.235417" nbComments="0" rank="72" tags="la defense grande arche business district axis louvre arc" title="Paris: La Defense" url_b="http://static.flickr.com/8344/8207126368_5ca7da5c0a_b.jpg" username="kaysgeog" views="18" />
<photo  date_taken="2010-10-26 17:01:27" description="Nuvem, uma espécie de velário." id="5129775939" latitude="48.89262" license="1" longitude="2.236232" nbComments="0" rank="73" tags="ladéfenselagrandearchejohanottovonspreckelsenparis françaograndearcovelárionuvem" title="La Défense." url_b="http://static.flickr.com/4067/5129775939_f4835d857b_b.jpg" username="Elias Rovielo" views="0" />
<photo  date_taken="2008-12-27 18:16:48" description="" id="3147788239" latitude="48.892345" license="2" longitude="2.235782" nbComments="0" rank="74" tags="" title="La Grande Arche de la Fraternité" url_b="http://static.flickr.com/3241/3147788239_9146736b70_b.jpg" username="Textz" views="4" />
<photo  date_taken="2008-12-27 18:17:22" description="" id="3148620098" latitude="48.892345" license="2" longitude="2.235782" nbComments="0" rank="75" tags="" title="La Grande Arche de la Fraternité" url_b="http://static.flickr.com/3104/3148620098_6bf6df64f2_b.jpg" username="Textz" views="4" />
<photo  date_taken="2012-06-16 12:37:11" description="La Grande Arche - the full story" id="7852369022" latitude="48.892333" license="2" longitude="2.235833" nbComments="0" rank="76" tags="arch info ladefense paris" title="IMG_0532" url_b="http://static.flickr.com/7134/7852369022_ebab520c11_b.jpg" username="georgemoga" views="5" />
<photo  date_taken="2005-01-09 09:49:34" description="" id="59678682" latitude="48.892536" license="1" longitude="2.236222" nbComments="0" rank="77" tags="grandearche défensegrande archedeladéfense france paris ladéfense ladefense défense cityscape person alone businessman man male" title="Approaching the Mothership" url_b="http://static.flickr.com/25/59678682_7aaedd426d_b.jpg" username="Giant Ginkgo" views="300" />
<photo  date_taken="2011-01-16 14:26:07" description="" id="5394759263" latitude="48.892338" license="1" longitude="2.235964" nbComments="0" rank="78" tags="paris île de france la défense offices high rise grande arche" title="Grande Arche" url_b="http://static.flickr.com/5055/5394759263_2348c408aa_b.jpg" username="Forumgouda" views="21" />
<photo  date_taken="2010-03-27 16:09:00" description="" id="4467419791" latitude="48.892423" license="3" longitude="2.236179" nbComments="0" rank="79" tags="ladefense puteaux hautsdeseine paris iledefrance grandearche france sony alpha330" title="Grande Arche" url_b="http://static.flickr.com/4020/4467419791_b469a20fda_b.jpg" username="Dimacius" views="37" />
<photo  date_taken="2011-01-03 16:44:43" description="" id="5320493736" latitude="48.892889" license="3" longitude="2.23528" nbComments="1" rank="80" tags="hipstamatic mélodie psexpress paris ladéfense grandearche lomography iphone" title="Grande Arche" url_b="http://static.flickr.com/5006/5320493736_0d5913ec2c_b.jpg" username="photogreuhphies" views="11" />
<photo  date_taken="2009-04-29 20:03:08" description="A la Grande Arche de la Défense" id="3489807604" latitude="48.892902" license="3" longitude="2.235277" nbComments="1" rank="81" tags="aldor gegl c2g gimp défense archedeladéfense" title="Face au monde (et à Nanterre)" url_b="http://static.flickr.com/3654/3489807604_d00ac18332_b.jpg" username="Aldor" views="91" />
<photo  date_taken="2009-03-20 13:31:41" description="Merged from 5 differents exposures, tonemapped with Photomatix. Colors boosted with Photoshop Elements. Taken from the stairs of the &lt;a href=&quot;http://en.wikipedia.org/wiki/Grande_Arche&quot;&gt;Great Ark&lt;/a&gt;." id="3374493498" latitude="48.892377" license="5" longitude="2.236252" nbComments="0" rank="82" tags="paris defense skyscrapers 5xp hdr" title="La Défense" url_b="http://static.flickr.com/3603/3374493498_940e699300_b.jpg" username="stephanemartin" views="215" />
<photo  date_taken="2011-05-19 19:00:47" description="" id="5770384507" latitude="48.89274" license="3" longitude="2.235213" nbComments="0" rank="83" tags="ladéfense france bibiweb hautsdeseine" title="Au coeur de la Grande Arche" url_b="http://static.flickr.com/2175/5770384507_eaba7aa99a_b.jpg" username="Bibi Web" views="48" />
<photo  date_taken="2008-09-09 20:24:02" description="" id="2846954638" latitude="48.892455" license="2" longitude="2.236382" nbComments="0" rank="84" tags="50ansdefensefeudartificefireworks arche50ansdefensefeudartificefireworks" title="la Grande Arche" url_b="http://static.flickr.com/3050/2846954638_bc2f88c03b_b.jpg" username="Damien [Phototrend.fr]" views="32" />
<photo  date_taken="2008-07-23 18:58:42" description="Vista do mirante do Grande Arche. Ao fundo &amp;quot;La Etoile&amp;quot; com o Arc du Triomph no centro. Estou a 180 metros do chão (segundo o ascenssorista)." id="2701783069" latitude="48.892201" license="5" longitude="2.236104" nbComments="0" rank="85" tags="paris france frança ladefense" title="La Defense" url_b="http://static.flickr.com/3068/2701783069_ba4caf1113_b.jpg" username="Luciano Guelfi" views="17" />
<photo  date_taken="2008-07-23 19:06:00" description="Dentro do &amp;quot;Grande Arche&amp;quot;" id="2702604014" latitude="48.892201" license="5" longitude="2.236104" nbComments="0" rank="86" tags="ladefense paris france frança grandearche" title="La Defense" url_b="http://static.flickr.com/3047/2702604014_bcffd71ff5_b.jpg" username="Luciano Guelfi" views="11" />
<photo  date_taken="2008-07-23 19:32:24" description="O &amp;quot;Grande Arco&amp;quot; da Defense. Um prédio de escritórios, com um mirante no topo, restaurante e um centro de convenções. Dizem que caberia a catedral de Notre Dame dentro dele." id="2702607194" latitude="48.892201" license="5" longitude="2.236104" nbComments="0" rank="87" tags="ladefense paris france frança grandearche" title="La Defense" url_b="http://static.flickr.com/3054/2702607194_0982ac5ecd_b.jpg" username="Luciano Guelfi" views="41" />
<photo  date_taken="2008-06-01 09:57:00" description="" id="2548302427" latitude="48.892271" license="4" longitude="2.236227" nbComments="0" rank="88" tags="grande arche la défense defence paris voie triomphale" title="Looking down the Voie Triomphale" url_b="http://static.flickr.com/3278/2548302427_ca51716bff_b.jpg" username="Andy Hay" views="23" />
<photo  date_taken="2008-06-01 09:57:22" description="" id="2548307847" latitude="48.892271" license="4" longitude="2.236227" nbComments="0" rank="89" tags="grande arche la défense defence paris" title="Looking down the Voie Triomphale" url_b="http://static.flickr.com/3145/2548307847_44c83d6f8d_b.jpg" username="Andy Hay" views="33" />
<photo  date_taken="2013-01-25 14:42:10" description="La Grande Arche." id="8414787218" latitude="48.892359" license="1" longitude="2.236361" nbComments="0" rank="90" tags="ladéfenselagrandearchejohanottovonspreckelsenparis françaograndearco" title="La Défense." url_b="http://static.flickr.com/8355/8414787218_88a4ff6c74_b.jpg" username="Elias Rovielo" views="3" />
<photo  date_taken="2010-10-26 16:58:08" description="La Grande Arche." id="5129770255" latitude="48.892359" license="1" longitude="2.236361" nbComments="0" rank="91" tags="ladéfenselagrandearchejohanottovonspreckelsenparis françaograndearco" title="La Défense." url_b="http://static.flickr.com/1082/5129770255_79119521d8_b.jpg" username="Elias Rovielo" views="0" />
<photo  date_taken="2010-10-26 16:54:39" description="La Grande Arche. Em reformas." id="5129745065" latitude="48.892359" license="1" longitude="2.236361" nbComments="0" rank="92" tags="ladéfenselagrandearchejohanottovonspreckelsenparis françaograndearco" title="La Défense." url_b="http://static.flickr.com/4067/5129745065_76ba5e1d41_b.jpg" username="Elias Rovielo" views="0" />
<photo  date_taken="2010-10-26 16:55:17" description="" id="5129747747" latitude="48.892359" license="1" longitude="2.236361" nbComments="0" rank="93" tags="ladéfenselagrandearchejohanottovonspreckelsenparis françaograndearco" title="La Défense." url_b="http://static.flickr.com/4145/5129747747_43f0afd45d_b.jpg" username="Elias Rovielo" views="0" />
<photo  date_taken="2010-10-26 16:57:46" description="La Grande Arche." id="5130367916" latitude="48.892359" license="1" longitude="2.236361" nbComments="0" rank="94" tags="ladéfenselagrandearchejohanottovonspreckelsenparis françaograndearco" title="La Défense." url_b="http://static.flickr.com/1130/5130367916_4ff8ef7077_b.jpg" username="Elias Rovielo" views="0" />
<photo  date_taken="2010-10-26 16:57:57" description="La Grande Arche." id="5129767497" latitude="48.892359" license="1" longitude="2.236361" nbComments="0" rank="95" tags="ladéfenselagrandearchejohanottovonspreckelsenparis françaograndearco" title="La Défense." url_b="http://static.flickr.com/4031/5129767497_a2cf634658_b.jpg" username="Elias Rovielo" views="0" />
<photo  date_taken="2010-11-16 17:39:06" description="Paris - La Défense" id="5209792009" latitude="48.892289" license="3" longitude="2.236318" nbComments="0" rank="96" tags="ladéfense france frankrijk lagrandearche gratteciel parijs paris skyscraper toren tour tower wolkenkrabber" title="SFR" url_b="http://static.flickr.com/5205/5209792009_84f915b24a_b.jpg" username="Amaury Henderick" views="196" />
<photo  date_taken="2005-10-08 18:56:23" description="View from the back of the Grande Arche" id="367807572" latitude="48.892738" license="3" longitude="2.235136" nbComments="0" rank="97" tags="paris europe france grandearche ladefense lagrandearchedeladefense" title="ParisII296" url_b="http://static.flickr.com/155/367807572_fba41dc891_b.jpg" username="zemistor" views="10" />
<photo  date_taken="2010-07-25 12:42:54" description="" id="4837658618" latitude="48.892275" license="1" longitude="2.236323" nbComments="0" rank="98" tags="paris parijs 2010" title="Grande Arche" url_b="http://static.flickr.com/4144/4837658618_863ecd9f15_b.jpg" username="Berlotti" views="14" />
<photo  date_taken="2006-07-07 16:27:42" description="" id="2800947604" latitude="48.89225" license="3" longitude="2.236297" nbComments="0" rank="99" tags="paris france γαλλία ladéfense lagrandearch grandearchedelafraternité archedeladéfens dvdphotos02 παρίσι osm:way=19441489 openstreetmap" title="La Grande Arch, Paris" url_b="http://static.flickr.com/3235/2800947604_ce4e908dbd_b.jpg" username="Tilemahos Efthimiadis" views="15" />
<photo  date_taken="2006-07-07 16:15:25" description="" id="2800905048" latitude="48.89225" license="3" longitude="2.236297" nbComments="0" rank="100" tags="paris france γαλλία ladéfense lagrandearch grandearchedelafraternité archedeladéfens dvdphotos02 παρίσι osm:way=19441489 openstreetmap" title="La Grande Arch, Paris" url_b="http://static.flickr.com/3128/2800905048_969389c1b7_b.jpg" username="Tilemahos Efthimiadis" views="9" />
<photo  date_taken="2006-07-07 16:15:55" description="" id="2800910754" latitude="48.89225" license="3" longitude="2.236297" nbComments="0" rank="101" tags="paris france γαλλία ladéfense lagrandearch grandearchedelafraternité archedeladéfens fav favorite dvdphotos02 παρίσι osm:way=19441489 openstreetmap" title="La Grande Arch, Paris" url_b="http://static.flickr.com/3270/2800910754_d1be5aac10_b.jpg" username="Tilemahos Efthimiadis" views="6" />
<photo  date_taken="2006-07-07 16:22:10" description="" id="2800085097" latitude="48.89225" license="3" longitude="2.236297" nbComments="13" rank="102" tags="paris france γαλλία ladéfense lagrandearch grandearchedelafraternité archedeladéfens dvdphotos02 παρίσι osm:way=19441489 openstreetmap secondchance platinumheartaward" title="La Grande Arch, Paris" url_b="http://static.flickr.com/3220/2800085097_4864762ee5_b.jpg" username="Tilemahos Efthimiadis" views="24" />
<photo  date_taken="2006-07-07 16:17:44" description="" id="2800916092" latitude="48.89225" license="3" longitude="2.236297" nbComments="1" rank="103" tags="paris france γαλλία ladéfense lagrandearch grandearchedelafraternité archedeladéfens dvdphotos02 παρίσι osm:way=19441489 openstreetmap" title="La Grande Arch, Paris" url_b="http://static.flickr.com/3065/2800916092_5abd1ee5ce_b.jpg" username="Tilemahos Efthimiadis" views="23" />
<photo  date_taken="2007-08-20 09:00:27" description="" id="1260398846" latitude="48.892155" license="3" longitude="2.236168" nbComments="0" rank="104" tags="cemetary grandearche ladefense paris france" title="View behind Grande Arche" url_b="http://static.flickr.com/1261/1260398846_2f0b587e70_b.jpg" username="Drumaboy" views="16" />
<photo  date_taken="2007-08-20 08:48:56" description="" id="1259536797" latitude="48.892155" license="3" longitude="2.236168" nbComments="0" rank="105" tags="" title="Elysées la Défense and Grande Arche" url_b="http://static.flickr.com/1035/1259536797_c5abe86546_b.jpg" username="Drumaboy" views="29" />
<photo  date_taken="2007-08-20 08:52:19" description="" id="1259539405" latitude="48.892155" license="3" longitude="2.236168" nbComments="0" rank="106" tags="grandearche ladefense clouds axishistorique esplanade paris france architecture" title="La Grande Arche" url_b="http://static.flickr.com/1052/1259539405_f9d29049cf_b.jpg" username="Drumaboy" views="58" />
<photo  date_taken="2011-08-15 19:57:12" description="" id="6086603293" latitude="48.892444" license="1" longitude="2.236458" nbComments="0" rank="107" tags="" title="Areva Tour from Le Grande Arche" url_b="http://static.flickr.com/6187/6086603293_b19e41e905_b.jpg" username="VTCarter" views="14" />
<photo  date_taken="2011-11-04 22:15:42" description="Une troupe de clowns arrive à la grande arche." id="6952154945" latitude="48.892387" license="3" longitude="2.236463" nbComments="0" rank="108" tags="défense paris indignés occupy démocratie réelle manifestation nuit bw nb crs police hiver tente manifestant acampadaparis acampada" title="Indignés Défense 03" url_b="http://static.flickr.com/7055/6952154945_cd7232d931_b.jpg" username="lucas deve" views="67" />
<photo  date_taken="2011-11-04 22:15:56" description="Une troupe de clowns arrive à la grande arche." id="6806041174" latitude="48.892387" license="3" longitude="2.236463" nbComments="0" rank="109" tags="défense paris indignés occupy démocratie réelle manifestation nuit bw nb crs police hiver tente manifestant acampadaparis acampada" title="Indignés Défense 04" url_b="http://static.flickr.com/7041/6806041174_8a7962afca_b.jpg" username="lucas deve" views="49" />
<photo  date_taken="2010-10-26 17:13:48" description="La Grande Arche. 105 metros de altura." id="5130406424" latitude="48.892028" license="1" longitude="2.235792" nbComments="0" rank="110" tags="ladéfenselagrandearchejohanottovonspreckelsenparis françaograndearco" title="La Défense." url_b="http://static.flickr.com/1198/5130406424_27dbf4234e_b.jpg" username="Elias Rovielo" views="0" />
<photo  date_taken="2008-06-01 09:47:10" description="" id="2549095234" latitude="48.892222" license="4" longitude="2.236388" nbComments="0" rank="111" tags="grande arche la défense defence paris" title="La Grande Arche at La Défense" url_b="http://static.flickr.com/3133/2549095234_9beec26b5d_b.jpg" username="Andy Hay" views="83" />
<photo  date_taken="2008-07-03 16:18:52" description="La Défense, Paris" id="2716670089" latitude="48.892624" license="2" longitude="2.23661" nbComments="2" rank="112" tags="paris france architecture ladefense" title="Grande Arche #3" url_b="http://static.flickr.com/3106/2716670089_200fc7bc0c_b.jpg" username="Mesq" views="28" />
<photo  date_taken="2005-10-08 18:13:57" description="The Eiffel Tower from the Grande Arche" id="367805521" latitude="48.892225" license="3" longitude="2.236444" nbComments="1" rank="113" tags="paris europe france grandearche ladefense lagrandearchedeladefense eiffeltower" title="ParisII293" url_b="http://static.flickr.com/185/367805521_ee51e63197_b.jpg" username="zemistor" views="34" />
<photo  date_taken="2005-10-08 18:45:07" description="On the top of the Grande Arche de la Defense" id="367806845" latitude="48.892225" license="3" longitude="2.236444" nbComments="0" rank="114" tags="paris europe france grandearche ladefense lagrandearchedeladefense" title="ParisII295" url_b="http://static.flickr.com/128/367806845_bc043fd083_b.jpg" username="zemistor" views="25" />
<photo  date_taken="2005-10-08 18:10:48" description="View down the Champs Elysees from the Grande Arche" id="367804795" latitude="48.892225" license="3" longitude="2.236444" nbComments="1" rank="115" tags="paris europe france grandearche ladefense lagrandearchedeladefense champselysees arcdetriomphe" title="ParisII292" url_b="http://static.flickr.com/179/367804795_c60eaac280_b.jpg" username="zemistor" views="49" />
<photo  date_taken="2005-10-08 18:14:27" description="La Defense" id="367806268" latitude="48.892225" license="3" longitude="2.236444" nbComments="0" rank="116" tags="paris europe france grandearche ladefense lagrandearchedeladefense eiffeltower arcdetriomphe champselysees" title="ParisII294" url_b="http://static.flickr.com/161/367806268_ae207f1aca_b.jpg" username="zemistor" views="56" />
<photo  date_taken="1999-10-20 00:00:00" description="View from La Grande Arche de la Defense" id="312486258" latitude="48.892225" license="3" longitude="2.236447" nbComments="0" rank="117" tags="europe france paris 35mm disposablecamera eiffeltower ladefense lagrandearchedeladefense nikonsupercoolscan5000ed supercoolscan5000" title="Europe Roll 2 11" url_b="http://static.flickr.com/109/312486258_a211f7f88a_b.jpg" username="zemistor" views="35" />
<photo  date_taken="2012-06-30 17:49:48" description="It looks a bit like a Windows wallpaper, but I like it anyway :)" id="7475483850" latitude="48.892246" license="3" longitude="2.235181" nbComments="0" rank="118" tags="la défense grande arche architecture" title="La Defense-1" url_b="http://static.flickr.com/8024/7475483850_dd31a75ae0_b.jpg" username="Zonkooo" views="16" />
<photo  date_taken="2008-06-26 11:15:59" description="La Grande Arche de la Fraternité connue sous le nom d'usage de l'Arche de la Défense ou Grande Arche, est un monument situé dans le quartier de la Défense dans la banlieue ouest de Paris (France)." id="2621130312" latitude="48.892134" license="5" longitude="2.236377" nbComments="0" rank="119" tags="défense grandearche grandearchedelafraternité archedeladéfense paris parvis france europe flickr" title="Place de l'arche de la Défense" url_b="http://static.flickr.com/3265/2621130312_73753237a8_b.jpg" username="Guillaume Cattiaux" views="372" />
<photo  date_taken="2008-06-26 11:54:48" description="La Grande Arche de la Fraternité connue sous le nom d'usage de l'Arche de la Défense ou Grande Arche, est un monument situé dans le quartier de la Défense dans la banlieue ouest de Paris." id="2621141206" latitude="48.892134" license="5" longitude="2.236377" nbComments="0" rank="120" tags="défense defense arche flickr" title="L'Arche de la défense" url_b="http://static.flickr.com/3198/2621141206_660e0dbd82_b.jpg" username="Guillaume Cattiaux" views="566" />
<photo  date_taken="2010-09-12 11:32:04" description="" id="5002277793" latitude="48.892841" license="3" longitude="2.236678" nbComments="0" rank="121" tags="" title="La Grande Arche" url_b="http://static.flickr.com/4126/5002277793_47b11c800e_b.jpg" username="jmbaud74" views="8" />
<photo  date_taken="2012-07-04 15:32:45" description="" id="7528894794" latitude="48.892881" license="1" longitude="2.234988" nbComments="0" rank="122" tags="grandearche ladefense glass colorkey green" title="View from Grande Arche" url_b="http://static.flickr.com/8027/7528894794_2a6ddbf23e_b.jpg" username="stkl93" views="13" />
<photo  date_taken="2008-06-01 09:47:53" description="Not mine of course ! Though quite a good choice of a Fitou and a couple of Cote du Rhône's." id="2549099986" latitude="48.892504" license="4" longitude="2.236645" nbComments="0" rank="123" tags="grande arche la défense defence paris bottles wine fitou cote du rhone steps litter green" title="Last nights bottles left on the steps of La Grande Arche at La Défense" url_b="http://static.flickr.com/3005/2549099986_929d323e3a_b.jpg" username="Andy Hay" views="75" />
<photo  date_taken="2008-08-27 16:23:34" description="Détails de la Grande Arche et de l'un des Arbres Lumineux (bleu) sur fond de ciel (bleu). -- &lt;a href=&quot;http://bighugelabs.com/flickr/onblack.php?id=2826030376&amp;amp;size=large&quot; rel=&quot;nofollow&quot;&gt;View On Black&lt;/a&gt; -- Bits and pieces of the Grande Arche over the Luminous Trees of Takis in La Défense, Paris. More from &lt;a href=&quot;http://www.flickr.com/search/?q=&amp;quot;La+D%c3%a9fense&amp;quot;&amp;amp;m=tags&amp;amp;w=7761867@N06&amp;amp;s=int&quot;&gt;La Défense&lt;/a&gt;." id="2826030376" latitude="48.892818" license="1" longitude="2.234966" nbComments="8" rank="124" tags="france îledefrance paris ladéfense grandearche arbreslumineux takis architecture sculpture modern bleu blue sky ciel été summer lowangle sigma 1020mm raw acr johannottovonspreckelsen 75 bw nb bn 450d europe" title="Feeling blue" url_b="http://static.flickr.com/3194/2826030376_3d64744d01_b.jpg" username="Jean Lemoine" views="208" />
<photo  date_taken="2011-04-19 13:49:08" description="From an ethnographic perspective, observing the movements of people at La Défense is interesting. You can hear people speaking many languages - some businesspeople making decisions or checking logistics and some tourists catching up and deciding what to do next. People on the move, tracing invisible paths over the wide expanse of concrete slabs moving towards shops, cafés and offices. The CNIT roof will soon be white again, as you can see they are covering it with black insulation and tar and then adding a white cover on top of that." id="5739474354" latitude="48.891989" license="5" longitude="2.236195" nbComments="0" rank="125" tags="cnit ladéfense paris esplanade people cameraphone" title="CNIT from the Grande Arche Steps" url_b="http://static.flickr.com/2322/5739474354_491011a44d_b.jpg" username="simon_music" views="69" />
<photo  date_taken="2011-09-05 10:26:40" description="" id="6235338368" latitude="48.892273" license="4" longitude="2.236587" nbComments="1" rank="126" tags="canonef100mmf2 ladéfense lagrandearchedelafraternité man paris stairs stairway" title="Lookin' for reason." url_b="http://static.flickr.com/6221/6235338368_f343bfed65_b.jpg" username="florianplag" views="95" />
<photo  date_taken="2011-09-05 10:28:27" description="" id="6272108578" latitude="48.892273" license="4" longitude="2.236587" nbComments="0" rank="127" tags="canonef100mmf2 ladéfense lagrandearchedelafraternité paris stairs stairway" title="Alone together." url_b="http://static.flickr.com/6041/6272108578_24cea36602_b.jpg" username="florianplag" views="93" />
<photo  date_taken="2010-10-26 17:20:44" description="La Défense. Estação de metrô." id="5130411860" latitude="48.892451" license="1" longitude="2.236694" nbComments="0" rank="128" tags="ladéfenselagrandearchejohanottovonspreckelsenparis françaograndearco" title="La Défense." url_b="http://static.flickr.com/1205/5130411860_9e6ae368ed_b.jpg" username="Elias Rovielo" views="4" />
<photo  date_taken="2011-12-23 16:40:42" description="" id="6577416697" latitude="48.892296" license="2" longitude="2.236629" nbComments="0" rank="129" tags="" title="Esplanade towards Grande Arche" url_b="http://static.flickr.com/7167/6577416697_7e378d2ccd_b.jpg" username="Ard vd Leeuw" views="18" />
<photo  date_taken="2011-12-23 22:45:41" description="" id="6578180693" latitude="48.892296" license="2" longitude="2.236629" nbComments="0" rank="130" tags="" title="Grande Arche by night" url_b="http://static.flickr.com/7020/6578180693_07c58f2331_b.jpg" username="Ard vd Leeuw" views="6" />
<photo  date_taken="2011-12-23 16:46:34" description="" id="6577537621" latitude="48.892296" license="2" longitude="2.236629" nbComments="0" rank="131" tags="" title="La Grande Arche de la Défense" url_b="http://static.flickr.com/7019/6577537621_d56d18b374_b.jpg" username="Ard vd Leeuw" views="13" />
<photo  date_taken="2011-12-23 16:48:20" description="" id="6577629087" latitude="48.892296" license="2" longitude="2.236629" nbComments="0" rank="132" tags="" title="Grande Arche &amp; Xmas tree" url_b="http://static.flickr.com/7001/6577629087_ee0f13bda5_b.jpg" username="Ard vd Leeuw" views="9" />
<photo  date_taken="2011-12-23 22:45:30" description="" id="6578148379" latitude="48.892296" license="2" longitude="2.236629" nbComments="0" rank="133" tags="" title="Xmas tree at la Grande Arche" url_b="http://static.flickr.com/7012/6578148379_25b6121926_b.jpg" username="Ard vd Leeuw" views="5" />
<photo  date_taken="2011-05-19 13:28:40" description="" id="5747668265" latitude="48.892091" license="3" longitude="2.236629" nbComments="0" rank="134" tags="ladéfense france bibiweb hautsdeseine" title="Grande Arche Plage" url_b="http://static.flickr.com/3270/5747668265_82717e0d0f_b.jpg" username="Bibi Web" views="20" />
<photo  date_taken="2010-10-26 16:50:27" description="La Grande Arche." id="5129734755" latitude="48.892261" license="1" longitude="2.23679" nbComments="0" rank="135" tags="ladéfenselagrandearchejohanottovonspreckelsenparis françaograndearco" title="La Défense." url_b="http://static.flickr.com/4152/5129734755_bf5c5e7273_b.jpg" username="Elias Rovielo" views="0" />
<photo  date_taken="2010-10-26 16:48:33" description="La Grande Arche." id="5129732131" latitude="48.892261" license="1" longitude="2.23679" nbComments="0" rank="136" tags="ladéfenselagrandearchejohanottovonspreckelsenparis françaograndearco" title="La Défense." url_b="http://static.flickr.com/4068/5129732131_824c81ebcf_b.jpg" username="Elias Rovielo" views="0" />
<photo  date_taken="2010-10-26 16:50:49" description="La Grande Arche." id="5129737629" latitude="48.892261" license="1" longitude="2.23679" nbComments="0" rank="137" tags="ladéfenselagrandearchejohanottovonspreckelsenparis françaograndearco" title="La Défense." url_b="http://static.flickr.com/1264/5129737629_1230ab29c0_b.jpg" username="Elias Rovielo" views="0" />
<photo  date_taken="2010-10-26 16:48:27" description="La Grande Arche." id="5130332286" latitude="48.892261" license="1" longitude="2.23679" nbComments="0" rank="138" tags="ladéfenselagrandearchejohanottovonspreckelsenparis françaograndearco" title="La Défense." url_b="http://static.flickr.com/1263/5130332286_8cc16376da_b.jpg" username="Elias Rovielo" views="0" />
<photo  date_taken="2010-10-26 16:46:19" description="La Grande Arche. Projetado em 1982 pelo dinamarquês Johan Otto von Spreckelsen e inaugurada em julho de 1989, a &amp;quot;Grande Arche&amp;quot; pé composta por duas estruturas vertticais de 105 metros de altura que sustentam uma horizontal colocada em cima. O seu revestimento é em mármore de Carrara e vidro, e ao centro está pendurada a chamada &amp;quot;Nuvem&amp;quot;, uma espécie de velário. Há quatro elevadores para aceder ao &amp;quot;miradouro&amp;quot;. Obs. Estava em reformas. Nunca subi. Nublado." id="5129723691" latitude="48.892261" license="1" longitude="2.23679" nbComments="0" rank="139" tags="ladéfenselagrandearchejohanottovonspreckelsenparis françaograndearco" title="La Défense." url_b="http://static.flickr.com/4060/5129723691_1e483e979c_b.jpg" username="Elias Rovielo" views="0" />
<photo  date_taken="2010-10-26 17:21:41" description="La Grande Arche." id="5130414632" latitude="48.892261" license="1" longitude="2.23679" nbComments="0" rank="140" tags="ladéfenselagrandearchejohanottovonspreckelsenparis françaograndearco" title="La Défense." url_b="http://static.flickr.com/1202/5130414632_88eca59ec3_b.jpg" username="Elias Rovielo" views="0" />
<photo  date_taken="2010-10-26 16:46:36" description="La Grande Arche." id="5130329290" latitude="48.892261" license="1" longitude="2.23679" nbComments="0" rank="141" tags="ladéfenselagrandearchejohanottovonspreckelsenparis françaograndearco" title="La Défense." url_b="http://static.flickr.com/1262/5130329290_57fabe07b3_b.jpg" username="Elias Rovielo" views="0" />
<photo  date_taken="2011-12-24 19:45:46" description="Cette année encore, le Parvis et ses alentours brilleront de mille feux. Au programme : des illuminations en harmonie avec la richesse architecturale du site…" id="6576918437" latitude="48.891936" license="4" longitude="2.236543" nbComments="0" rank="142" tags="noel illuminations decorations iledefrance fetes 92 lagrandearche sapindenoel parvis nuit ladefense france frankreich hautsdeseine" title="LE SAPIN GEANT" url_b="http://static.flickr.com/7141/6576918437_b28b9ff71d_b.jpg" username="marsupilami92" views="39" />
<photo  date_taken="2004-11-01 00:00:00" description="" id="941365992" latitude="48.892028" license="4" longitude="2.23664" nbComments="0" rank="143" tags="olympusviewzoom filmcamera scanned" title="My beloved Grande Arche" url_b="http://static.flickr.com/1064/941365992_02deecbaee_b.jpg" username="allesok" views="6" />
<photo  date_taken="2009-12-18 19:28:06" description="" id="4196327325" latitude="48.892288" license="3" longitude="2.236828" nbComments="0" rank="144" tags="canon450d grandearche ladéfense nocturne photodenuit sigma1020mmf456dcex ultragrandangle public iledefrance france" title="_MG_5160" url_b="http://static.flickr.com/2773/4196327325_0999799af4_b.jpg" username="gyzpunk" views="13" />
<photo  date_taken="2009-12-18 19:33:34" description="" id="4197082676" latitude="48.892288" license="3" longitude="2.236828" nbComments="0" rank="145" tags="canon450d grandearche ladéfense nocturne photodenuit sigma1020mmf456dcex ultragrandangle public iledefrance france" title="_MG_5165" url_b="http://static.flickr.com/2606/4197082676_269dc9799d_b.jpg" username="gyzpunk" views="20" />
<photo  date_taken="2009-12-18 19:30:03" description="" id="4196327561" latitude="48.892288" license="3" longitude="2.236828" nbComments="0" rank="146" tags="canon450d grandearche ladéfense nocturne photodenuit sigma1020mmf456dcex ultragrandangle public iledefrance france" title="_MG_5162" url_b="http://static.flickr.com/2684/4196327561_1155e357c9_b.jpg" username="gyzpunk" views="16" />
<photo  date_taken="2010-11-16 18:06:04" description="Paris - La Défense" id="5215617339" latitude="48.892377" license="3" longitude="2.236919" nbComments="2" rank="147" tags="coucherdusoleil ladéfense escalier france frankrijk lagrandearche parijs paris skyline stairs sunset tamronaf1118mm14556 trap trappen zonsondergang" title="Sky" url_b="http://static.flickr.com/5041/5215617339_59b5f92cce_b.jpg" username="Amaury Henderick" views="158" />
<photo  date_taken="2010-10-26 17:01:48" description="Formas geométricas puras formam um labirinto de vidro transparente para passar da parte da frente ao fundo do Arco Grande." id="5129778805" latitude="48.892909" license="1" longitude="2.234655" nbComments="0" rank="148" tags="ladéfenselagrandearchejohanottovonspreckelsenparis françaograndearco" title="La Défense." url_b="http://static.flickr.com/4065/5129778805_65a43720ea_b.jpg" username="Elias Rovielo" views="1" />
<photo  date_taken="2012-07-24 16:23:15" description="" id="8087831716" latitude="48.892191" license="4" longitude="2.236863" nbComments="0" rank="149" tags="europe france iledefrance ladéfense lagrandearchedeladéfense neuillysurseine paris puteaux îledefrance" title="La Grande Arche de la Défense" url_b="http://static.flickr.com/8045/8087831716_c48a76b157_b.jpg" username="frozenchipmunk" views="47" />
</photos>
