<?xml version="1.0" encoding="UTF-8" standalone="no"?>
<photos monument="Guggenheim Museum Bilbao">

<photo  date_taken="2010-04-03 10:01:13" description="" id="4502599415" latitude="43.268686" license="2" longitude="-2.934208" nbComments="0" rank="1" tags="running jogging spider guggenheim museum bilbao basquecountry spain" title="" url_b="http://static.flickr.com/2609/4502599415_ac5be91e01_b.jpg" username="Aris Gionis" views="155" />
<photo  date_taken="2006-10-17 11:41:23" description="Bilbao." id="3639728486" latitude="43.268729" license="3" longitude="-2.934272" nbComments="0" rank="2" tags="spanje baskenland biskaje bilbao museum oktober 2000s 2006 architectuur stad stedebouw" title="Plein bij het Guggenheim museum - Bilbao" url_b="http://static.flickr.com/3331/3639728486_84c0795147_b.jpg" username="westher" views="18" />
<photo  date_taken="2006-10-17 11:40:51" description="Bilbao." id="3639726972" latitude="43.268729" license="3" longitude="-2.934272" nbComments="0" rank="3" tags="spanje baskenland biskaje bilbao museum oktober 2000s 2006 architectuur stad stedebouw" title="Plein bij het Guggenheim museum - Bilbao" url_b="http://static.flickr.com/3375/3639726972_8a25a32c58_b.jpg" username="westher" views="17" />
<photo  date_taken="2009-08-08 13:39:21" description="" id="3992504725" latitude="43.268846" license="1" longitude="-2.934347" nbComments="8" rank="4" tags="bilbao guggenheim metal metalizado brillo edificio museo gris metallized ishine building museum grey azul blue" title="Guggenheim" url_b="http://static.flickr.com/2431/3992504725_eb55dc73a0_b.jpg" username="RaidersLight" views="77" />
<photo  date_taken="2009-08-08 11:34:32" description="" id="3993262596" latitude="43.268846" license="1" longitude="-2.934347" nbComments="2" rank="5" tags="bilbao guggenheim metal metalizado brillo edificio museo gris metallized ishine building museum grey" title="Guggenheim" url_b="http://static.flickr.com/2565/3993262596_ec8a67f751_b.jpg" username="RaidersLight" views="59" />
<photo  date_taken="2009-08-12 13:38:39" description="" id="4074519037" latitude="43.268401" license="4" longitude="-2.934454" nbComments="0" rank="6" tags="guggenheim museum museo spain spagna bilbao bilbo euskadi" title="Guggenheim Museum detail 1" url_b="http://static.flickr.com/2600/4074519037_dfca2634c2_b.jpg" username="Yellow.Cat" views="25" />
<photo  date_taken="2008-11-14 23:35:44" description="Fue curioso comprobar cómo se convierte el atrio del museo en un espacio de música y copas. Más información en &lt;a href=&quot;http://www.coolpable.com/2/index.php?option=com_content&amp;amp;task=view&amp;amp;id=177&amp;amp;Itemid=92&quot;&gt;Coolpable&lt;/a&gt;." id="3503929618" latitude="43.268581" license="6" longitude="-2.933982" nbComments="5" rank="7" tags="art after dark guggenheim bilbao coolpable fever" title="Art After Dark (Guggenheim Museum)" url_b="http://static.flickr.com/3617/3503929618_c5e52766a9_b.jpg" username="Iker Merodio" views="215" />
<photo  date_taken="2010-04-24 09:22:14" description="Dominic Bryan Bilboko Guggenheim Museoan." id="4642928794" latitude="43.268581" license="6" longitude="-2.933982" nbComments="2" rank="8" tags="dominic bryan bilbao bizkaia euskadi guggenheim" title="Dominic Bryan in Guggenheim Museum of Bilbao" url_b="http://static.flickr.com/3384/4642928794_c81139effd_b.jpg" username="Iker Merodio" views="207" />
<photo  date_taken="2008-11-14 16:56:00" description="Tenía muchísimas ganas a esta fotografía. Así que, como durante el Art After Dark estaba permitido tomar imágenes, fui a por ella" id="3506161167" latitude="43.268581" license="6" longitude="-2.933982" nbComments="1" rank="9" tags="art after dark museo guggenheim museum bilbao fever coolpable" title="Guggenheim Museum" url_b="http://static.flickr.com/3640/3506161167_4397ffefd2_b.jpg" username="Iker Merodio" views="75" />
<photo  date_taken="2012-07-20 13:20:13" description="Sony NEX-5N + Leica Summicron-M 35" id="7886187940" latitude="43.268932" license="1" longitude="-2.934347" nbComments="0" rank="10" tags="sony nex nex5n leica summicron 35 museum museo guggenheim bilbao spain 8elements leicasummicron35mmf20i" title="Museo Guggenheim Bilbao" url_b="http://static.flickr.com/8441/7886187940_141e991884_b.jpg" username="Dominik Morbitzer" views="132" />
<photo  date_taken="2012-06-14 06:33:40" description="Photos taken in Bilbao at the Guggenheim museum." id="7397711968" latitude="43.268786" license="4" longitude="-2.933991" nbComments="0" rank="11" tags="guggenheim bilbao" title="Bilbao 2012" url_b="http://static.flickr.com/7232/7397711968_0e414d8646_b.jpg" username="jimcintosh" views="22" />
<photo  date_taken="1998-08-01 11:00:08" description="(built 1997, &lt;i&gt;see&lt;/i&gt; &lt;b&gt;tags&lt;/b&gt; &lt;i&gt;for further known data&lt;/i&gt;). &lt;a href=&quot;http://creativecommons.org/licenses/by-nc-nd/3.0/nl/&quot; rel=&quot;nofollow&quot;&gt;&lt;/a&gt;Op dit werk is een &lt;a href=&quot;http://creativecommons.org/licenses/by-nc-nd/3.0/nl/&quot; rel=&quot;nofollow&quot;&gt;Creative Commons Licentie&lt;/a&gt; van toepassing." id="352979643" latitude="43.268807" license="3" longitude="-2.934004" nbComments="0" rank="12" tags="1998 museum bilbao guggenheim iberia spanje exdia frankowengehry architecture" title="Guggenheim Museum (Bilbao)" url_b="http://static.flickr.com/161/352979643_51ed0eae7d_b.jpg" username="jpmm" views="121" />
<photo  date_taken="1998-08-02 11:00:00" description="Op dit werk is een Creative Commons Licentie van toepassing." id="352979647" latitude="43.268214" license="3" longitude="-2.934429" nbComments="0" rank="13" tags="1998 museum bilbao guggenheim iberia spanje exdia escaleras stairs frankowengehry architecture" title="Guggenheim museum, Bilbao" url_b="http://static.flickr.com/131/352979647_66a9ede80e_b.jpg" username="jpmm" views="102" />
<photo  date_taken="1998-08-01 11:00:16" description="(built 1997, &lt;i&gt;see&lt;/i&gt; &lt;b&gt;tags&lt;/b&gt; &lt;i&gt;for further known data&lt;/i&gt;). &lt;a href=&quot;http://creativecommons.org/licenses/by-nc-nd/3.0/nl/&quot; rel=&quot;nofollow&quot;&gt;&lt;/a&gt;Op dit werk is een &lt;a href=&quot;http://creativecommons.org/licenses/by-nc-nd/3.0/nl/&quot; rel=&quot;nofollow&quot;&gt;Creative Commons Licentie&lt;/a&gt; van toepassing." id="352979649" latitude="43.268311" license="3" longitude="-2.933946" nbComments="0" rank="14" tags="1998 museum bilbao guggenheim iberia spanje exdia frankowengehry architecture" title="Guggenheim Museum (Bilbao)" url_b="http://static.flickr.com/133/352979649_b69df8cb44_b.jpg" username="jpmm" views="162" />
<photo  date_taken="2009-04-13 14:17:35" description="L'entrée du musée Guggenheim. Inauguré en 1997, le musée Guggenheim de Bilbao a été conçu par l'architecte américain Frank O. Gehry. Situé au bord de la ria de Bilbao, il a transformé, en dix ans, l'image de cette ville du pays basque, frappée par la crise industrielle. Il présente des collections d'art contemporain et des expositions temporaires de niveau international. Une grande partie de l'édifice est recouverte de plaques de titane qui réfléchissent la lumière et font évoluer l'aspect du bâtiment avec la couleur du ciel. &lt;a href=&quot;http://www.guggenheim-bilbao.es/?idioma=fr&quot;&gt;www.guggenheim-bilbao.es/?idioma=fr&lt;/a&gt;" id="3451263234" latitude="43.268971" license="4" longitude="-2.93395" nbComments="0" rank="15" tags="dalbera bilbao espagne frankgehry muséeguggenheim guggenheimmuseum titane" title="Le musée Guggenheim (Bilbao)" url_b="http://static.flickr.com/3625/3451263234_4196524081_b.jpg" username="dalbera" views="955" />
<photo  date_taken="2010-08-17 15:23:54" description="Anish Kapoorrek Egin Zuen &amp;quot;Tal Tree &amp;amp; the Eye&amp;quot;, Bilboko Guggenheim Museoan (2/4)." id="5405837402" latitude="43.269132" license="3" longitude="-2.934165" nbComments="6" rank="16" tags="anish kapoor tall tree eye guggenheim bilbao bizkaia euskadi tamron" title="Tal Tree &amp; the Eye by Anish Kapoor, Guggenheim Museum of Bilbao (2/4)" url_b="http://static.flickr.com/5214/5405837402_939630d422_b.jpg" username="Iker Merodio" views="121" />
<photo  date_taken="2010-08-17 15:24:17" description="Anish Kapoorrek Egin Zuen &amp;quot;Tal Tree &amp;amp; the Eye&amp;quot;, Bilboko Guggenheim Museoan (3/4)." id="5408705924" latitude="43.269132" license="3" longitude="-2.934165" nbComments="0" rank="17" tags="tall tree eye anish kapoor guggenheim bilbao bizkaia euskadi" title="Tal Tree &amp; the Eye by Anish Kapoor, Guggenheim Museum of Bilbao (3/4)" url_b="http://static.flickr.com/5139/5408705924_1e8952f787_b.jpg" username="Iker Merodio" views="65" />
<photo  date_taken="2011-06-19 11:47:29" description="Guggenheim Bilbao Muesoa Tamron batetik ikusita (1/2)." id="6452811929" latitude="43.269132" license="3" longitude="-2.934165" nbComments="1" rank="18" tags="bilbo bilbamo guggenheim museum museoa bizkaia biscay basque country euskadi tamron" title="Guggenheim Bilbao Muesum Tamronized (1/2)" url_b="http://static.flickr.com/7035/6452811929_f16a845f7a_b.jpg" username="Iker Merodio" views="44" />
<photo  date_taken="2010-04-01 11:14:25" description="the artwork behind is an actual hole in the wall. sorry for poor quality - done with iphone... blogged: &lt;a href=&quot;http://musicspot.cnetfrance.fr/artiste/a-10099495/photos/two-retired-americans-in-front-of-anish-kapoors-work-4501844679/?sort=2&quot; rel=&quot;nofollow&quot;&gt;musicspot.cnetfrance.fr/artiste/a-10099495/photos/two-ret...&lt;/a&gt;" id="4501844679" latitude="43.269166" license="4" longitude="-2.934501" nbComments="8" rank="19" tags="mdanys danys bilbao guggenheim museum art modern anish kapoor american retired spain osama" title="Two retired Americans in front of Anish Kapoor's work" url_b="http://static.flickr.com/4029/4501844679_029311f6f6_b.jpg" username="mdanys" views="259" />
<photo  date_taken="2011-07-11 02:02:11" description="" id="6604988941" latitude="43.269141" license="5" longitude="-2.933978" nbComments="0" rank="20" tags="bilbao architecture guggenheimmuseumbilbao guggenheim museum frankgehry spain 2011" title="Guggenheim Museum Bilbao" url_b="http://static.flickr.com/7022/6604988941_be32d6793c_b.jpg" username="Kent Wang" views="31" />
<photo  date_taken="2011-06-09 16:13:06" description="Reflection on the sculpture of Anish Kapoor in front of the Guggenheim Bilbao museum" id="8172800801" latitude="43.269237" license="1" longitude="-2.934411" nbComments="1" rank="21" tags="nikond5100 nikkor18105mm hdr handheld artistic sculpture anishkapoor guggenheim bilbao reflection clouds cloudy summer art museum architecture cityscape distortion sky skyscape spain basquecountry euskadi paísvasco geometry fractal" title="Bilbao 005" url_b="http://static.flickr.com/8483/8172800801_1f4cf0f5a5_b.jpg" username="GonzaloSolas" views="146" />
<photo  date_taken="2011-10-15 15:47:30" description="Una de las esculturas que están en las afueras del Guggenheim Bilbao." id="6592725487" latitude="43.269167" license="6" longitude="-2.93395" nbComments="4" rank="22" tags="guggenheim museum bilbao bizkaia euskal herria euskadi país vasco verde azul turquesa exposición escultura abandoibarra campa de los ingleses usa río nervión nerbioi ibaia ibaizabal abando santutxu txurdinaga mahatserri begoña bolueta ciudad jardín matiko" title="Tulipanes" url_b="http://static.flickr.com/7023/6592725487_d694a46549_b.jpg" username="mahatsorri" views="186" />
<photo  date_taken="2011-08-02 02:32:48" description="Olympus Trip 35 Kodak Gold 200 Scanned negative Colour-coated chrome stainless steel sculptures of Jeff Koons at Guggenheim Museum in Bilbao. &lt;a href=&quot;http://www.guggenheim-bilbao.es&quot; rel=&quot;nofollow&quot;&gt;www.guggenheim-bilbao.es&lt;/a&gt;" id="6151387734" latitude="43.268675" license="1" longitude="-2.934251" nbComments="2" rank="23" tags="jeffkoons guggenheimbilbao bilbo paísvasco basquecountry olympustrip35" title="Jeff Koons' tulips" url_b="http://static.flickr.com/6167/6151387734_377d012e6b_b.jpg" username="SuperTogores" views="189" />
<photo  date_taken="2010-04-03 12:59:46" description="" id="4502589855" latitude="43.268686" license="2" longitude="-2.934208" nbComments="0" rank="24" tags="guggenheim museum bilbao basquecountry spain" title="atrium" url_b="http://static.flickr.com/2775/4502589855_8b7de16e17_b.jpg" username="Aris Gionis" views="50" />
<photo  date_taken="2010-04-03 11:53:28" description="" id="4502589507" latitude="43.268686" license="2" longitude="-2.934208" nbComments="1" rank="25" tags="thematteroftime guggenheim museum bilbao basquecountry spain" title="which way?" url_b="http://static.flickr.com/4010/4502589507_e519ab6a89_b.jpg" username="Aris Gionis" views="70" />
<photo  date_taken="2010-04-03 12:00:51" description="" id="4503221952" latitude="43.268686" license="2" longitude="-2.934208" nbComments="0" rank="26" tags="guggenheim museum bilbao basquecountry spain" title="" url_b="http://static.flickr.com/2764/4503221952_93de2e1f55_b.jpg" username="Aris Gionis" views="68" />
<photo  date_taken="2010-04-03 11:49:41" description="" id="4502589317" latitude="43.268686" license="2" longitude="-2.934208" nbComments="0" rank="27" tags="guggenheim museum bilbao basquecountry spain" title="atrium" url_b="http://static.flickr.com/4014/4502589317_feaa1da61c_b.jpg" username="Aris Gionis" views="100" />
<photo  date_taken="2010-04-03 11:59:30" description="" id="4502589095" latitude="43.268686" license="2" longitude="-2.934208" nbComments="0" rank="28" tags="guggenheim museum bilbao basquecountry spain" title="" url_b="http://static.flickr.com/4042/4502589095_c2095def65_b.jpg" username="Aris Gionis" views="64" />
<photo  date_taken="2010-04-03 12:18:31" description="" id="4502590277" latitude="43.268686" license="2" longitude="-2.934208" nbComments="0" rank="29" tags="guggenheim museum bilbao basquecountry spain" title="still art" url_b="http://static.flickr.com/2775/4502590277_bf871562dd_b.jpg" username="Aris Gionis" views="59" />
<photo  date_taken="2010-04-03 10:21:11" description="" id="4502588559" latitude="43.268686" license="2" longitude="-2.934208" nbComments="0" rank="30" tags="guggenheim museum bilbao basquecountry spain" title="puppy" url_b="http://static.flickr.com/2739/4502588559_4d25c09ba7_b.jpg" username="Aris Gionis" views="62" />
<photo  date_taken="2010-04-03 09:54:41" description="" id="4503221010" latitude="43.268686" license="2" longitude="-2.934208" nbComments="0" rank="31" tags="guggenheim museum bilbao basquecountry spain" title="lots of titanium" url_b="http://static.flickr.com/4063/4503221010_3a5d50e60b_b.jpg" username="Aris Gionis" views="63" />
<photo  date_taken="2010-04-03 09:47:44" description="" id="4503220722" latitude="43.268686" license="2" longitude="-2.934208" nbComments="0" rank="32" tags="guggenheim museum bilbao basquecountry spain" title="guggenheim" url_b="http://static.flickr.com/2750/4503220722_1d507e9f9d_b.jpg" username="Aris Gionis" views="84" />
<photo  date_taken="2010-04-03 12:12:12" description="" id="4502590499" latitude="43.268686" license="2" longitude="-2.934208" nbComments="0" rank="33" tags="thematteroftime guggenheim museum bilbao basquecountry spain" title="conic sections" url_b="http://static.flickr.com/2793/4502590499_29f8e4fede_b.jpg" username="Aris Gionis" views="90" />
<photo  date_taken="2010-04-03 11:55:55" description="" id="4503223942" latitude="43.268686" license="2" longitude="-2.934208" nbComments="0" rank="34" tags="thematteroftime guggenheim museum bilbao basquecountry spain" title="space" url_b="http://static.flickr.com/4016/4503223942_c73acfffb4_b.jpg" username="Aris Gionis" views="64" />
<photo  date_taken="2006-10-17 11:24:58" description="" id="3638899463" latitude="43.268729" license="3" longitude="-2.934272" nbComments="0" rank="35" tags="spanje kunst architectuur baskenland biskaje bilbao museum oktober 2000s 2006" title="Guggenheim museum - Bilbao" url_b="http://static.flickr.com/3577/3638899463_eb076959ed_b.jpg" username="westher" views="13" />
<photo  date_taken="2006-10-17 11:37:44" description="" id="3639724788" latitude="43.268729" license="3" longitude="-2.934272" nbComments="0" rank="36" tags="spanje kunst architectuur baskenland biskaje bilbao museum oktober 2000s 2006" title="Guggenheim museum - Bilbao" url_b="http://static.flickr.com/3338/3639724788_b949e4b62b_b.jpg" username="westher" views="21" />
<photo  date_taken="2006-10-17 11:34:59" description="Omgeving Guggenheim museum in Bilbao." id="3639720712" latitude="43.268729" license="3" longitude="-2.934272" nbComments="0" rank="37" tags="spanje kunst architectuur baskenland biskaje bilbao museum oktober 2000s 2006" title="Noord-Spanje 0462" url_b="http://static.flickr.com/2431/3639720712_0654e2dc29_b.jpg" username="westher" views="10" />
<photo  date_taken="2006-10-17 11:36:29" description="Guggenheim museum Bilbao." id="3639722798" latitude="43.268729" license="3" longitude="-2.934272" nbComments="0" rank="38" tags="spanje kunst architectuur baskenland biskaje bilbao museum oktober 2000s 2006" title="Guggenheim museum - Bilbao {oktober 2006}" url_b="http://static.flickr.com/3367/3639722798_e4cbf4c78d_b.jpg" username="westher" views="61" />
<photo  date_taken="2006-10-17 11:37:34" description="Guggenheim museum in Bilbao." id="3639723752" latitude="43.268729" license="3" longitude="-2.934272" nbComments="0" rank="39" tags="spanje kunst architectuur baskenland biskaje bilbao museum oktober 2000s 2006" title="Guggenheim museum - Bilbao {oktober 2006}" url_b="http://static.flickr.com/3398/3639723752_8db7bbf5aa_b.jpg" username="westher" views="30" />
<photo  date_taken="2006-10-17 11:25:43" description="" id="3638900225" latitude="43.268729" license="3" longitude="-2.934272" nbComments="0" rank="40" tags="spanje kunst architectuur baskenland biskaje bilbao museum oktober 2000s 2006" title="Guggenheim museum - Bilbao" url_b="http://static.flickr.com/2431/3638900225_d920fbe256_b.jpg" username="westher" views="11" />
<photo  date_taken="2006-06-25 13:25:03" description="Bilbao's Guggenheim Museum" id="4666440177" latitude="43.268784" license="4" longitude="-2.934218" nbComments="0" rank="41" tags="" title="Marta" url_b="http://static.flickr.com/4024/4666440177_6717b102bf_b.jpg" username="paspalleteir@" views="13" />
<photo  date_taken="2010-05-26 15:43:16" description="" id="4659415663" latitude="43.268432" license="2" longitude="-2.934368" nbComments="0" rank="42" tags="bilbao bilbo spain guggenheim" title="Guggenheim Museum, Bilbao" url_b="http://static.flickr.com/4012/4659415663_3284252d47_b.jpg" username="das21" views="5" />
<photo  date_taken="2010-05-26 15:44:27" description="" id="4659417593" latitude="43.268432" license="2" longitude="-2.934368" nbComments="0" rank="43" tags="bilbao bilbo spain guggenheim" title="Guggenheim Museum, Bilbao" url_b="http://static.flickr.com/4045/4659417593_df5c0812ba_b.jpg" username="das21" views="3" />
<photo  date_taken="2010-05-26 17:33:20" description="" id="4660044450" latitude="43.268432" license="2" longitude="-2.934368" nbComments="0" rank="44" tags="bilbao bilbo spain guggenheim" title="Maman the spider outside Guggenheim Museum, Bilbao" url_b="http://static.flickr.com/4049/4660044450_ebc7eceb8c_b.jpg" username="das21" views="33" />
<photo  date_taken="2010-05-26 15:28:00" description="" id="4659410565" latitude="43.268432" license="2" longitude="-2.934368" nbComments="0" rank="45" tags="video bilbao bilbo spain guggenheim" title="Puppy outside Guggenheim Museum, Bilbao" url_b="http://static.flickr.com/1291/4659410565_57cf4f04cd_b.jpg" username="das21" views="41" />
<photo  date_taken="2010-05-26 17:15:19" description="" id="4660042466" latitude="43.268432" license="2" longitude="-2.934368" nbComments="0" rank="46" tags="bilbao bilbo spain guggenheim" title="Guggenheim Museum, Bilbao" url_b="http://static.flickr.com/4046/4660042466_76c229ff47_b.jpg" username="das21" views="10" />
<photo  date_taken="2010-05-26 15:29:44" description="" id="4660037508" latitude="43.268432" license="2" longitude="-2.934368" nbComments="0" rank="47" tags="bilbao bilbo spain guggenheim" title="Guggenheim Museum, Bilbao" url_b="http://static.flickr.com/1267/4660037508_a625098267_b.jpg" username="das21" views="7" />
<photo  date_taken="2010-05-26 17:28:00" description="" id="4659419449" latitude="43.268432" license="2" longitude="-2.934368" nbComments="0" rank="48" tags="bilbao bilbo spain guggenheim" title="Guggenheim Museum, Bilbao" url_b="http://static.flickr.com/4060/4659419449_3b45ceb4f0_b.jpg" username="das21" views="18" />
<photo  date_taken="2010-05-26 15:28:39" description="" id="4659411831" latitude="43.268432" license="2" longitude="-2.934368" nbComments="0" rank="49" tags="bilbao bilbo spain guggenheim" title="Puppy outside Guggenheim Museum, Bilbao" url_b="http://static.flickr.com/4008/4659411831_bd16c4c9c8_b.jpg" username="das21" views="14" />
<photo  date_taken="2010-05-26 15:29:15" description="" id="4659412759" latitude="43.268432" license="2" longitude="-2.934368" nbComments="0" rank="50" tags="bilbao bilbo spain guggenheim" title="Puppy outside Guggenheim Museum, Bilbao" url_b="http://static.flickr.com/4043/4659412759_0153cbdc73_b.jpg" username="das21" views="13" />
<photo  date_taken="2010-05-26 15:43:22" description="" id="4659416699" latitude="43.268432" license="2" longitude="-2.934368" nbComments="0" rank="51" tags="bilbao bilbo spain guggenheim" title="Guggenheim Museum, Bilbao" url_b="http://static.flickr.com/4047/4659416699_763ced7391_b.jpg" username="das21" views="10" />
<photo  date_taken="2010-05-26 15:36:42" description="" id="4660038634" latitude="43.268432" license="2" longitude="-2.934368" nbComments="0" rank="52" tags="bilbao bilbo spain guggenheim" title="Guggenheim Museum, Bilbao" url_b="http://static.flickr.com/4042/4660038634_d51258145e_b.jpg" username="das21" views="11" />
<photo  date_taken="2010-07-31 19:06:24" description="" id="4903481651" latitude="43.268438" license="2" longitude="-2.934384" nbComments="0" rank="53" tags="bilbao basquecountry spain guggenheim museum frankgehry architecture" title="Wave" url_b="http://static.flickr.com/4077/4903481651_c68f25d1a2_b.jpg" username="rolleh" views="107" />
<photo  date_taken="2010-07-30 18:53:11" description="What's there to say. This building is full of interesting surprises." id="4896643405" latitude="43.268438" license="2" longitude="-2.934384" nbComments="0" rank="54" tags="bilbao basquecountry spain frankgehry guggenheim museum architecture" title="Corner case" url_b="http://static.flickr.com/4123/4896643405_2cb59149ff_b.jpg" username="rolleh" views="84" />
<photo  date_taken="2008-07-25 20:03:13" description="Bilbao, 25/7/2008. Museo Guggenheim. Guggenheim Museum." id="2776409620" latitude="43.268464" license="3" longitude="-2.934422" nbComments="6" rank="55" tags="bilbao españa spain museo museum guggenheim metal titanio titanium brillo glow cielo sky canon powershot a710 gettyimagesiberiaq3" title="Curvas / Curves" url_b="http://static.flickr.com/3287/2776409620_39f6fcbb39_b.jpg" username="ajgelado" views="196" />
<photo  date_taken="2007-06-17 18:24:02" description="- by Jenny Holzer More from/of the &lt;a href=&quot;http://flickr.com/photos/ianturk/tags/guggenheim/&quot;&gt;Guggenheim Museum&lt;/a&gt;." id="731263413" latitude="43.268776" license="3" longitude="-2.934165" nbComments="0" rank="56" tags="guggenheim museum frankgehry bilbao blue led ticker freeassociation jennyholzer installationforbilbao euskadi paisvasco basquecountry" title="Installation for Bilbao" url_b="http://static.flickr.com/1043/731263413_47eee7ac50_b.jpg" username="Turkinator" views="561" />
<photo  date_taken="2007-06-17 18:25:06" description="- by Jenny Holzer More from/of the &lt;a href=&quot;http://flickr.com/photos/ianturk/tags/guggenheim/&quot;&gt;Guggenheim Museum&lt;/a&gt;." id="731272493" latitude="43.268776" license="3" longitude="-2.934165" nbComments="3" rank="57" tags="guggenheim museum frankgehry bilbao blue red led ticker freeassociation jennyholzer installationforbilbao euskadi paisvasco basquecountry" title="Installation for Bilbao" url_b="http://static.flickr.com/1270/731272493_8699a9021e_b.jpg" username="Turkinator" views="477" />
<photo  date_taken="2006-07-26 14:21:45" description="Lateral del Guggenheim." id="1366845439" latitude="43.268706" license="5" longitude="-2.9341" nbComments="0" rank="58" tags="bilbao españa spain guggenheim museum museo bizkaia euskadi vizcaya yvoictra geoetiquetada" title="Guggenheim Museum (Bilbao)" url_b="http://static.flickr.com/1413/1366845439_3c7934bbd7_b.jpg" username="[ Quique ]" views="120" />
<photo  date_taken="2005-07-24 18:39:29" description="Bilbao (Bilbo) Richard cera's art works. in Guggenheim museum. (Architectural works of Frank O. Gehry)" id="3565561843" latitude="43.268768" license="2" longitude="-2.934132" nbComments="0" rank="59" tags="spain sony" title="Bilbao Guggenheim museum" url_b="http://static.flickr.com/3395/3565561843_92a005623c_b.jpg" username="monannom" views="46" />
<photo  date_taken="2009-08-08 11:49:48" description="" id="3994389089" latitude="43.268846" license="1" longitude="-2.934347" nbComments="8" rank="60" tags="guggenheim bilbao plateado metal brillos óxido españa edificio museo reflejo silvering sheens oxide spain building museum reflection" title="Guggenheim" url_b="http://static.flickr.com/2619/3994389089_b4df3f81c4_b.jpg" username="RaidersLight" views="126" />
<photo  date_taken="2006-07-01 11:26:34" description="" id="179042569" latitude="43.268407" license="1" longitude="-2.934132" nbComments="0" rank="61" tags="bilbao avioneta guggenheim basque aerial aerea geottagged geo:lat=43268894 geo:lon=2934294" title="Guggenheim Bilbao Museum" url_b="http://static.flickr.com/66/179042569_74a76585e3_b.jpg" username="esti-" views="946" />
<photo  date_taken="2011-08-05 21:05:09" description="Bilbao's Guggenheim museum (Frank Gehry)" id="6063940003" latitude="43.268354" license="5" longitude="-2.93435" nbComments="0" rank="62" tags="bilbao euskadi" title="IMG_3992''" url_b="http://static.flickr.com/6066/6063940003_b048d32ff2_b.jpg" username="Jordi Payà" views="27" />
<photo  date_taken="2009-08-12 15:15:04" description="" id="4075324326" latitude="43.268401" license="4" longitude="-2.934454" nbComments="0" rank="63" tags="spain spagna bilbao bilbo euskadi guggenheim museum museo" title="Guggenheim Museum detail 6" url_b="http://static.flickr.com/2701/4075324326_8bb066b031_b.jpg" username="Yellow.Cat" views="30" />
<photo  date_taken="2009-08-12 15:16:42" description="" id="4074569765" latitude="43.268401" license="4" longitude="-2.934454" nbComments="0" rank="64" tags="spain spagna bilbao bilbo euskadi guggenheim museum museo" title="Guggenheim Museum detail 4" url_b="http://static.flickr.com/2515/4074569765_6955078786_b.jpg" username="Yellow.Cat" views="39" />
<photo  date_taken="2009-08-12 13:30:59" description="" id="4075273496" latitude="43.268401" license="4" longitude="-2.934454" nbComments="0" rank="65" tags="guggenheim museum museo spain spagna bilbao bilbo euskadi" title="Guggenheim Museum detail 2" url_b="http://static.flickr.com/2552/4075273496_ec21b84006_b.jpg" username="Yellow.Cat" views="6" />
<photo  date_taken="2009-08-12 15:11:54" description="" id="4074570041" latitude="43.268401" license="4" longitude="-2.934454" nbComments="0" rank="66" tags="spain spagna bilbao bilbo euskadi guggenheim museum museo" title="Guggenheim Museum detail 5" url_b="http://static.flickr.com/2682/4074570041_8eaa92626b_b.jpg" username="Yellow.Cat" views="42" />
<photo  date_taken="2009-08-12 13:36:52" description="" id="4075273548" latitude="43.268401" license="4" longitude="-2.934454" nbComments="0" rank="67" tags="guggenheim museum museo spain spagna bilbao bilbo euskadi" title="Guggenheim Museum detail 3" url_b="http://static.flickr.com/2618/4075273548_3784433fcc_b.jpg" username="Yellow.Cat" views="18" />
<photo  date_taken="2011-11-30 12:46:14" description="" id="6430277221" latitude="43.268792" license="1" longitude="-2.934046" nbComments="0" rank="68" tags="instagramapp square squareformat iphoneography uploaded:by=instagram amaro foursquare:venue=4b4428ecf964a5202ef225e3" title="Guggenheim Museum in Bilbao is protected by a giant spider!" url_b="http://static.flickr.com/6036/6430277221_4bf843ed49_b.jpg" username="Aleyda Solis" views="2" />
<photo  date_taken="2010-08-17 15:12:26" description="Bilboko Guggenheim Museoa, Euskadi." id="5395477689" latitude="43.268581" license="3" longitude="-2.933982" nbComments="3" rank="69" tags="guggenheim museum bilbao bizkaia euskadi" title="Guggenheim Museum of Bilbao, Basque Country" url_b="http://static.flickr.com/4078/5395477689_f652a9a630_b.jpg" username="Iker Merodio" views="73" />
<photo  date_taken="2010-07-30 18:14:46" description="Anish Kapoor likes to play with the 3D effect. The painting is actually flat." id="4893557750" latitude="43.268595" license="2" longitude="-2.933971" nbComments="4" rank="70" tags="bilbao basquecountry spain guggenheim museum art" title="Round" url_b="http://static.flickr.com/4101/4893557750_5aef8d449b_b.jpg" username="rolleh" views="155" />
<photo  date_taken="2008-10-10 10:18:23" description="The Guggenheim in Bilbao, Spain." id="3466982913" latitude="43.268331" license="3" longitude="-2.934476" nbComments="0" rank="71" tags="bilbao spain guggenheim museum" title="Bilbao" url_b="http://static.flickr.com/3516/3466982913_134325ea59_b.jpg" username="mattwan" views="13" />
<photo  date_taken="2012-06-14 06:06:11" description="Photos taken in Bilbao at the Guggenheim museum." id="7397828080" latitude="43.268786" license="4" longitude="-2.933991" nbComments="0" rank="72" tags="guggenheim bilbao" title="Bilbao 2012" url_b="http://static.flickr.com/8156/7397828080_261d12fe03_b.jpg" username="jimcintosh" views="26" />
<photo  date_taken="1998-08-01 17:30:10" description="1998 museumsite &amp;amp; context. (built 1997, &lt;i&gt;see&lt;/i&gt; &lt;b&gt;tags&lt;/b&gt; &lt;i&gt;for further known data&lt;/i&gt;). &lt;a href=&quot;http://creativecommons.org/licenses/by-nc-nd/3.0/nl/&quot; rel=&quot;nofollow&quot;&gt;&lt;/a&gt;Op dit werk is een &lt;a href=&quot;http://creativecommons.org/licenses/by-nc-nd/3.0/nl/&quot; rel=&quot;nofollow&quot;&gt;Creative Commons Licentie&lt;/a&gt; van toepassing." id="355082999" latitude="43.268807" license="3" longitude="-2.934004" nbComments="1" rank="73" tags="1998 2bright context bilbao guggenheim iberia spanje exdia frankowengehry clouds sky" title="Guggenheim Museum (Bilbao)" url_b="http://static.flickr.com/150/355082999_f7f3ae366b_b.jpg" username="jpmm" views="45" />
<photo  date_taken="1998-08-01 11:00:14" description="(built 1997, &lt;i&gt;see&lt;/i&gt; &lt;b&gt;tags&lt;/b&gt; &lt;i&gt;for further known data&lt;/i&gt;). &lt;a href=&quot;http://creativecommons.org/licenses/by-nc-nd/3.0/nl/&quot; rel=&quot;nofollow&quot;&gt;&lt;/a&gt;Op dit werk is een &lt;a href=&quot;http://creativecommons.org/licenses/by-nc-nd/3.0/nl/&quot; rel=&quot;nofollow&quot;&gt;Creative Commons Licentie&lt;/a&gt; van toepassing." id="355082225" latitude="43.268807" license="3" longitude="-2.934004" nbComments="0" rank="74" tags="1998 museum iberia spanje bilbao spain exdia frankowengehry architecture" title="Guggenheim Museum (Bilbao)" url_b="http://static.flickr.com/146/355082225_9c28357b8e_b.jpg" username="jpmm" views="51" />
<photo  date_taken="2010-11-21 09:58:50" description="" id="5263193986" latitude="43.268333" license="3" longitude="-2.934501" nbComments="0" rank="75" tags="guggenheim museum bilbao" title="IMG_9169" url_b="http://static.flickr.com/5084/5263193986_966ab439bf_b.jpg" username="PowPow vs Marc" views="1" />
<photo  date_taken="2009-07-05 13:09:54" description="" id="3836754747" latitude="43.268862" license="1" longitude="-2.934046" nbComments="2" rank="76" tags="guggenheim museum museo bilbo bilbao españa spain window ventana" title="Reflected sky / Cielo reflejado" url_b="http://static.flickr.com/2666/3836754747_139fb36e4b_b.jpg" username="SamwiseGamgee69" views="30" />
<photo  date_taken="2009-07-04 14:17:06" description="Details of the building. Detalles del museo." id="3836726137" latitude="43.268862" license="1" longitude="-2.934046" nbComments="0" rank="77" tags="guggenheim museum museo bilbo bilbao españa spain" title="Guggenheim, Bilbao" url_b="http://static.flickr.com/2438/3836726137_84d97cc047_b.jpg" username="SamwiseGamgee69" views="24" />
<photo  date_taken="2009-07-06 14:13:33" description="Details of the building. Detalles del museo." id="3837536600" latitude="43.268862" license="1" longitude="-2.934046" nbComments="6" rank="78" tags="guggenheim museum museo bilbo bilbao españa spain" title="Guggenheim, Bilbao" url_b="http://static.flickr.com/2575/3837536600_3d9fe645b1_b.jpg" username="SamwiseGamgee69" views="47" />
<photo  date_taken="2009-07-05 13:10:16" description="" id="3836763009" latitude="43.268862" license="1" longitude="-2.934046" nbComments="2" rank="79" tags="guggenheim museum museo bilbo bilbao españa spain window ventana" title="Window to the sky / Ventana al cielo" url_b="http://static.flickr.com/2612/3836763009_01fbc4b930_b.jpg" username="SamwiseGamgee69" views="34" />
<photo  date_taken="2009-07-04 14:42:17" description="Details of the building. Detalles del museo." id="3836733555" latitude="43.268862" license="1" longitude="-2.934046" nbComments="0" rank="80" tags="guggenheim museum museo bilbo bilbao españa spain" title="Guggenheim, Bilbao" url_b="http://static.flickr.com/3426/3836733555_e365e1b50d_b.jpg" username="SamwiseGamgee69" views="46" />
<photo  date_taken="2009-07-04 14:43:26" description="Details of the building. Detalles del museo." id="3836739673" latitude="43.268862" license="1" longitude="-2.934046" nbComments="2" rank="81" tags="guggenheim museum museo bilbo bilbao españa spain" title="Guggenheim, Bilbao" url_b="http://static.flickr.com/2639/3836739673_99a43a581f_b.jpg" username="SamwiseGamgee69" views="101" />
<photo  date_taken="2007-12-28 12:10:54" description="bilbao's guggenheim museum entrance, nice work frank o. gehry!!! (architect)" id="2518295603" latitude="43.268577" license="2" longitude="-2.933918" nbComments="0" rank="82" tags="blackwhite architecture bilbao" title="sartu" url_b="http://static.flickr.com/2015/2518295603_35c5488571_b.jpg" username="wale69" views="96" />
<photo  date_taken="2009-07-31 18:38:33" description="" id="4949059742" latitude="43.268784" license="6" longitude="-2.933918" nbComments="13" rank="83" tags="guggenheim bilbao glass cristal olympus e330 color sombra itzala shadow marrak líneas lines titanium titanio" title="31. Glass museum" url_b="http://static.flickr.com/4134/4949059742_07eeb2e879_b.jpg" username="Josean Prado" views="65" />
<photo  date_taken="2009-12-26 14:47:28" description="Julien Villa" id="4218588450" latitude="43.26901" license="2" longitude="-2.934148" nbComments="0" rank="84" tags="twitter iphone iphone3gs 3gs julienvilla" title="Jenny Holzer at the Guggenheim museum in Bilbao #photo #museum" url_b="http://static.flickr.com/4030/4218588450_3aa81f1ffe_b.jpg" username="zoolien" views="84" />
<photo  date_taken="2010-10-11 12:31:50" description="" id="5258195921" latitude="43.268214" license="1" longitude="-2.934486" nbComments="0" rank="85" tags="españa spain euskadi paisvasco museo museum guggenheim bilbao" title="Guggenheim Bilbao" url_b="http://static.flickr.com/5045/5258195921_7c843f00c6_b.jpg" username=". raulggm ." views="19" />
<photo  date_taken="2010-07-31 19:25:23" description="" id="4903481653" latitude="43.268173" license="2" longitude="-2.934384" nbComments="0" rank="86" tags="bilbao basquecountry spain guggenheim museum frankgehry architecture" title="Bits and pieces" url_b="http://static.flickr.com/4134/4903481653_cd9e2a7ed7_b.jpg" username="rolleh" views="132" />
<photo  date_taken="2010-07-30 18:56:57" description="Might be some new tiles up on left since they give a bit of a different light." id="4896643411" latitude="43.268173" license="2" longitude="-2.934384" nbComments="0" rank="87" tags="bilbao basquecountry spain frankgehry guggenheim museum architecture" title="Backlash" url_b="http://static.flickr.com/4123/4896643411_aff4652612_b.jpg" username="rolleh" views="92" />
<photo  date_taken="2010-07-31 19:03:39" description="" id="4903481643" latitude="43.268173" license="2" longitude="-2.934384" nbComments="0" rank="88" tags="bilbao basquecountry spain guggenheim museum frankgehry architecture" title="Bronze" url_b="http://static.flickr.com/4142/4903481643_e231e80b7c_b.jpg" username="rolleh" views="109" />
<photo  date_taken="2010-07-31 19:04:33" description="" id="4903481649" latitude="43.268173" license="2" longitude="-2.934384" nbComments="0" rank="89" tags="bilbao basquecountry spain guggenheim museum frankgehry architecture" title="Evening colors" url_b="http://static.flickr.com/4097/4903481649_b622e0a33b_b.jpg" username="rolleh" views="125" />
<photo  date_taken="2006-07-28 10:21:37" description="" id="222901061" latitude="43.268236" license="4" longitude="-2.934475" nbComments="0" rank="90" tags="2006 art bilbao frank frankgehry gehry guggenheim holidays museum spain summer" title="DSCF4308" url_b="http://static.flickr.com/58/222901061_1afdce9cc7_b.jpg" username="Andy Hay" views="96" />
<photo  date_taken="2011-08-22 14:08:01" description="" id="6084956107" latitude="43.268225" license="4" longitude="-2.934529" nbComments="0" rank="91" tags="bilbao spain summer holiday 2011 guggenheim art museum lightzone" title="Guggenheim, Bilbao" url_b="http://static.flickr.com/6086/6084956107_e26ff01783_b.jpg" username="Andy Hay" views="15" />
<photo  date_taken="2011-08-22 14:08:23" description="" id="6084966665" latitude="43.268225" license="4" longitude="-2.934529" nbComments="0" rank="92" tags="bilbao spain summer holiday 2011 guggenheim art museum lightzone" title="Guggenheim, Bilbao" url_b="http://static.flickr.com/6073/6084966665_91892201c5_b.jpg" username="Andy Hay" views="17" />
<photo  date_taken="2010-07-30 18:39:15" description="Roof above the terrace." id="4896643401" latitude="43.269048" license="2" longitude="-2.934191" nbComments="0" rank="93" tags="bilbao basquecountry spain frankgehry guggenheim museum architecture" title="Look up" url_b="http://static.flickr.com/4143/4896643401_3922b23b3c_b.jpg" username="rolleh" views="85" />
<photo  date_taken="2007-08-07 16:35:56" description="in Bilbao &lt;a href=&quot;http://loc.alize.us/#/flickr:1181035938&quot;&gt;See where this picture was taken.&lt;/a&gt; &lt;a href=&quot;http://www.flickr.com/groups/geotagging/discuss/72157594165549916/&quot;&gt;[?]&lt;/a&gt;" id="1181035938" latitude="43.268269" license="3" longitude="-2.934594" nbComments="0" rank="94" tags="französischeatlantikküste frankreich france guggenheim bilbao geo:lat=43268269 geo:lon=2934594 geotagged" title="Guggenheim Museum" url_b="http://static.flickr.com/1203/1181035938_0c5e9c91ae_b.jpg" username="lessi2306" views="16" />
<photo  date_taken="2009-04-11 10:02:05" description="Fog Sculpture n°08025 (F.O.G.) 1998 de Fujiko Nakaya Générateur de brouillard par 1000 buzes haute pression L'oeuvre composée de brouillard est présentée deux fois par heure dans le bassin devant la terrasse du musée. Inauguré en 1997, le musée Guggenheim de Bilbao a été conçu par l'architecte américain Frank O. Gehry. Situé au bord de la ria de Bilbao, il a transformé, en dix ans, l'image de cette ville du pays basque, frappée par la crise industrielle. Il présente des collections d'art contemporain et des expositions temporaires de niveau international. &lt;a href=&quot;http://www.guggenheim-bilbao.es/?idioma=fr&quot;&gt;www.guggenheim-bilbao.es/?idioma=fr&lt;/a&gt;" id="3450447453" latitude="43.268971" license="4" longitude="-2.93395" nbComments="0" rank="95" tags="dalbera bilbao espagne fogsculpture muséeguggenheim guggenheim museum fujikonakaya" title="Fog Sculpture de Fujiko Nakaya (musée Guggenheim, Bilbao)" url_b="http://static.flickr.com/3569/3450447453_4d5b97c76c_b.jpg" username="dalbera" views="1569" />
<photo  date_taken="2007-06-17 17:24:05" description="More from/of the &lt;a href=&quot;http://flickr.com/photos/ianturk/tags/guggenheim/&quot;&gt;Guggenheim Museum&lt;/a&gt;, Bilbao." id="730879389" latitude="43.268237" license="3" longitude="-2.934626" nbComments="0" rank="96" tags="museum window reflection puppy koons frankgehry bilbao modern city freeassociation koonspuppy guggenheim euskadi paisvasco basquecountry" title="Guggenheim" url_b="http://static.flickr.com/1298/730879389_8d83bdc973_b.jpg" username="Turkinator" views="89" />
<photo  date_taken="2009-12-26 15:31:30" description="Julien Villa" id="4218591440" latitude="43.268815" license="2" longitude="-2.933827" nbComments="1" rank="97" tags="twitter iphone iphone3gs 3gs julienvilla" title="Richard Serra at the Guggenheim Museum in Bilbao #photo #museum" url_b="http://static.flickr.com/2513/4218591440_479a5f8758_b.jpg" username="zoolien" views="77" />
<photo  date_taken="2008-01-05 12:43:36" description="" id="2185060341" latitude="43.269085" license="2" longitude="-2.934449" nbComments="0" rank="98" tags="cctv bilbao guggenheim" title="CCTV Guggenheim Museum" url_b="http://static.flickr.com/2263/2185060341_4fa3f79d7c_b.jpg" username="ttrinoid" views="29" />
<photo  date_taken="2011-07-01 00:00:34" description="El Perro Puppy e o Guggenheim Bilbao Museum." id="8051397230" latitude="43.268214" license="3" longitude="-2.934615" nbComments="0" rank="99" tags="looiz" title="Bilbao, Vizcaya - País Vasco/ES" url_b="http://static.flickr.com/8176/8051397230_57bd12ff2e_b.jpg" username="Looiz" views="2" />
<photo  date_taken="2011-07-01 00:00:19" description="El Perro Puppy (Guggenheim Bilbao Museum)." id="8051438740" latitude="43.268214" license="3" longitude="-2.934615" nbComments="0" rank="100" tags="looiz" title="Bilbao, Vizcaya - País Vasco/ES" url_b="http://static.flickr.com/8317/8051438740_14c3cc0be8_b.jpg" username="Looiz" views="4" />
<photo  date_taken="2011-07-01 00:00:18" description="El Perro Puppy (Guggenheim Bilbao Museum)." id="8051436299" latitude="43.268214" license="3" longitude="-2.934615" nbComments="0" rank="101" tags="looiz" title="Bilbao, Vizcaya - País Vasco/ES" url_b="http://static.flickr.com/8451/8051436299_c59d6b58dc_b.jpg" username="Looiz" views="1" />
<photo  date_taken="2011-07-01 00:00:33" description="El Perro Puppy e o Guggenheim Bilbao Museum." id="8051393371" latitude="43.268214" license="3" longitude="-2.934615" nbComments="0" rank="102" tags="looiz" title="Bilbao, Vizcaya - País Vasco/ES" url_b="http://static.flickr.com/8173/8051393371_d4f7a15531_b.jpg" username="Looiz" views="2" />
<photo  date_taken="2010-07-30 18:01:40" description="Richard Serra's The Matter of Time." id="4893557746" latitude="43.268892" license="2" longitude="-2.933853" nbComments="0" rank="103" tags="bilbao basquecountry spain guggenheim museum art" title="Heavy metal" url_b="http://static.flickr.com/4078/4893557746_bcc3daf74f_b.jpg" username="rolleh" views="55" />
<photo  date_taken="2010-08-17 15:21:14" description="Anish Kapoorrek Egin Zuen &amp;quot;Tal Tree &amp;amp; the Eye&amp;quot;, Bilboko Guggenheim Museoan (1/4)." id="5401671360" latitude="43.269132" license="3" longitude="-2.934165" nbComments="1" rank="104" tags="salve bridge anish kapoor tal tree eye guggenheim bilbao bizkaia euskadi" title="Tal Tree &amp; the Eye by Anish Kapoor, Guggenheim Museum of Bilbao (1/4)" url_b="http://static.flickr.com/5054/5401671360_795020bf8b_b.jpg" username="Iker Merodio" views="81" />
<photo  date_taken="2010-08-17 15:27:57" description="Anish Kapoorrek Egin Zuen &amp;quot;Tal Tree &amp;amp; the Eye&amp;quot;, Bilboko Guggenheim Museoan (4/4)." id="5411684516" latitude="43.269132" license="3" longitude="-2.934165" nbComments="0" rank="105" tags="tall tree eye anish kapoor bilbao guggenheim bizkaia euskadi" title="Tal Tree &amp; the Eye by Anish Kapoor, Guggenheim Museum of Bilbao (4/4)" url_b="http://static.flickr.com/5255/5411684516_ce7eb1b86c_b.jpg" username="Iker Merodio" views="93" />
<photo  date_taken="2011-06-19 11:49:26" description="Guggenheim Bilbao Muesoa Tamron Batetik Ikusita (2/2)." id="6465137431" latitude="43.269132" license="3" longitude="-2.934165" nbComments="3" rank="106" tags="guggenheim bilbao tamron museum museoa bizkaia biscay euskadi basque country" title="Guggenheim Bilbao Muesum Tamronized (2/2)" url_b="http://static.flickr.com/7008/6465137431_614d58d063_b.jpg" username="Iker Merodio" views="64" />
<photo  date_taken="2009-09-26 00:00:04" description="Guggenheim Bilbao, 2009an" id="4682365621" latitude="43.268922" license="1" longitude="-2.933843" nbComments="0" rank="107" tags="guggenheim bilbo bilbao museo museum museoa" title="Bilbo09_5" url_b="http://static.flickr.com/4002/4682365621_e582d07fcb_b.jpg" username="Aspartza" views="8" />
<photo  date_taken="2009-09-26 00:00:00" description="Guggenheim Bilbao, 2009an" id="4682994264" latitude="43.268922" license="1" longitude="-2.933843" nbComments="0" rank="108" tags="guggenheim bilbo bilbao museo museum museoa" title="Bilbo09_1" url_b="http://static.flickr.com/1286/4682994264_deec4767f0_b.jpg" username="Aspartza" views="3" />
<photo  date_taken="2009-09-26 00:00:03" description="Guggenheim Bilbao, 2009an" id="4682365355" latitude="43.268922" license="1" longitude="-2.933843" nbComments="0" rank="109" tags="guggenheim bilbo bilbao museo museum museoa" title="Bilbo09_4" url_b="http://static.flickr.com/4035/4682365355_2526c3d8b9_b.jpg" username="Aspartza" views="3" />
<photo  date_taken="2009-09-26 00:00:01" description="Guggenheim Bilbao, 2009an" id="4682364705" latitude="43.268922" license="1" longitude="-2.933843" nbComments="0" rank="110" tags="guggenheim bilbo bilbao museo museum museoa" title="Bilbo09_2" url_b="http://static.flickr.com/1276/4682364705_84bf246228_b.jpg" username="Aspartza" views="1" />
<photo  date_taken="2009-09-26 00:00:02" description="Guggenheim Bilbao, 2009an" id="4682365067" latitude="43.268922" license="1" longitude="-2.933843" nbComments="0" rank="111" tags="guggenheim bilbo bilbao museo museum museoa" title="Bilbo09_3" url_b="http://static.flickr.com/4012/4682365067_42b9b24da0_b.jpg" username="Aspartza" views="4" />
<photo  date_taken="2010-07-30 18:57:57" description="With so many details I almost forgot to take some kind of an overall picture from the Guggenheim museum." id="4896643415" latitude="43.268454" license="2" longitude="-2.934824" nbComments="2" rank="112" tags="bilbao basquecountry spain frankgehry guggenheim museum architecture" title="Entrance" url_b="http://static.flickr.com/4098/4896643415_df18652a42_b.jpg" username="rolleh" views="115" />
<photo  date_taken="2012-10-03 16:48:21" description="" id="8105445787" latitude="43.2683" license="3" longitude="-2.934755" nbComments="0" rank="113" tags="2012 bilbao spain guggenheimmuseum tourists photographers" title="IMG_0604" url_b="http://static.flickr.com/8184/8105445787_42c00407df_b.jpg" username="laurencehorton" views="0" />
<photo  date_taken="2009-05-30 00:10:45" description="Foto tomada en el Guggenhein de Bilbao durante las vacaciones de Semana Santa. Por cierto, la exposición de Murakami valía mucho la pena, muy recomendable el artista." id="3574533176" latitude="43.268764" license="5" longitude="-2.933746" nbComments="85" rank="114" tags="museoguggenheim guggenheim museo bilbao araña frankogehry bilbo spain gviciano museum abando hdr cielo sky hdrcreativeshots flickrsbest" title="Museo Guggenheim (Bilbao) - Guggenheim Museum (Bilbao - Spain)" url_b="http://static.flickr.com/2464/3574533176_f8236f5c77_b.jpg" username="GViciano" views="5632" />
<photo  date_taken="2011-12-11 11:18:04" description="" id="6494712859" latitude="43.26819" license="5" longitude="-2.934669" nbComments="0" rank="115" tags="guggenheim bilbao museum" title="Guggenheim Bilbao" url_b="http://static.flickr.com/7170/6494712859_0d6b6461db_b.jpg" username="zoonabar" views="119" />
<photo  date_taken="2012-11-12 05:46:39" description="" id="8224850981" latitude="43.268206" license="1" longitude="-2.93469" nbComments="0" rank="116" tags="bilbao museum guggenheimmuseum" title="Bilbao - Guggenheim Museum" url_b="http://static.flickr.com/8067/8224850981_95cf5041df_b.jpg" username="Talie" views="7" />
<photo  date_taken="2007-01-03 14:48:02" description="detail of the guggenheim museum in bilbao. the guggenheim museum is a museum of modern and contemporary art designed by canadian-american architect frank owen gehry. he said &amp;quot;the randomness of the curves are designed to catch the light&amp;quot;. jorge oteiza, a basque artist, called the museum &amp;quot;cheese factory&amp;quot;." id="4084091630" latitude="43.268229" license="1" longitude="-2.933832" nbComments="0" rank="117" tags="spain bilbao guggenheim blackwhite bw" title="bilbao/bilbo" url_b="http://static.flickr.com/2691/4084091630_20cd1df9c7_b.jpg" username="lazarillo de tormes" views="25" />
<photo  date_taken="2009-07-18 19:49:39" description="The curve of the tungsten skin of the Guggenheim museum in Bilbao." id="3811352471" latitude="43.268948" license="3" longitude="-2.9338" nbComments="1" rank="118" tags="" title="Guggenheim Curve.jpeg" url_b="http://static.flickr.com/2569/3811352471_cf17a2775b_b.jpg" username="fredshome" views="39" />
<photo  date_taken="2009-07-18 14:07:33" description="The strange blending of styles above the entrance of the Guggenheim museum in Bilbao. Which is well worth the visit btw, even if like me, you aren't all that impressed by so called &amp;quot;modern art&amp;quot;." id="3812167664" latitude="43.268948" license="3" longitude="-2.9338" nbComments="1" rank="119" tags="" title="Guggenheim Entrance.jpeg" url_b="http://static.flickr.com/2468/3812167664_bc203b9368_b.jpg" username="fredshome" views="19" />
<photo  date_taken="2009-05-09 17:08:00" description="Museo Guggenheim, Bilbao, España (Spain)" id="3657793378" latitude="43.268069" license="1" longitude="-2.93455" nbComments="0" rank="120" tags="bilbao bilbo bizkaia frankgehry vizcaya abandoibarra españa europa europe euskadi guggenheimbilbao museo museum paisvasco spain" title="Detail" url_b="http://static.flickr.com/3412/3657793378_5eb04cc723_b.jpg" username="¡Carlitos" views="37" />
<photo  date_taken="2009-05-09 17:07:35" description="Museo Guggenheim, Bilbao, España (Spain)" id="3656995641" latitude="43.268069" license="1" longitude="-2.93455" nbComments="0" rank="121" tags="bilbao bilbo bizkaia frankgehry vizcaya abandoibarra abi españa europa europe euskadi girl guggenheimbilbao irene madre martha mom mujer museo museum niña paisvasco sarah spain woman" title="Stairs" url_b="http://static.flickr.com/3310/3656995641_17c8abaf2b_b.jpg" username="¡Carlitos" views="33" />
<photo  date_taken="2012-03-23 15:40:17" description="Guggenheim Through the Looking-Glass" id="7025066821" latitude="43.26805" license="3" longitude="-2.934046" nbComments="0" rank="122" tags="guggenheim museum bilbao art building architecture steel mirror lines reflection glass metal modern basque zb" title="Guggenheim Through the Looking-Glass" url_b="http://static.flickr.com/6045/7025066821_c54decfd66_b.jpg" username="fotosterona" views="51" />
<photo  date_taken="2008-07-25 20:59:39" description="Bilbao, 25/7/2008. Museo Guggenheim. Guggenheim Museum." id="2778896169" latitude="43.26912" license="3" longitude="-2.934626" nbComments="3" rank="123" tags="bilbao españa spain museo museum guggenheim metal titanio titanium tonos hues azul blue dorado gold puestadesol sunset canon powershot a710 blueribbonwinner gettyimagesiberiaq3" title="Mitad y mitad / Half and Half" url_b="http://static.flickr.com/3192/2778896169_c5ca814a25_b.jpg" username="ajgelado" views="75" />
<photo  date_taken="2011-12-29 15:17:41" description="Almost no editing (just a little global rebalancing to correct white)! We found this surprising view on exiting the Guggenheim Museum&amp;nbsp;&amp;mdash;&amp;nbsp;the sky in front of us was menacingly grey and dark, while behind us there was a bright patch of beautiful blue. The buildings surrounding the tower (part of Deusto University) showed no colour, either. Because of that, it looked as if the FSM had desaturated the whole world, stripping it of any colours&amp;hellip; but for the tower and the grass of the little park. On the spot, it was confusing for the eye and the mind." id="6631380069" latitude="43.268057" license="1" longitude="-2.934572" nbComments="2" rank="124" tags="spain basquecountry paísvasco euskadi biscay vizcaya bizkaia bilbao bilbo 2011 december christmas trip holiday city iberdrolatower iberdrola tower deusto building view cloudy blue green grey university effect" title="Iberdrola Tower reflecting the sky behind me" url_b="http://static.flickr.com/7161/6631380069_474acc21cf_b.jpg" username="tripu" views="42" />
<photo  date_taken="2009-07-18 19:49:33" description="The Bilbao Guggenheim museum is skinned in tungsten tiles. While they catch the light in interesting ways, their main point is that they're insanely expensive." id="3811353287" latitude="43.268792" license="3" longitude="-2.933692" nbComments="2" rank="125" tags="pentaxsmcpda1645mmf40edal pentax pentaxk10d k10d europe aficionados bilbao guggenheim spain basque architecture bibble bibblepro" title="Guggenheim Skin.jpeg" url_b="http://static.flickr.com/2565/3811353287_f3043f8182_b.jpg" username="fredshome" views="81" />
<photo  date_taken="2010-08-07 12:59:12" description="" id="5086712827" latitude="43.269214" license="4" longitude="-2.934454" nbComments="0" rank="126" tags="palle bolle metallo lucido riflessi frankgehry museo guggenheim bilbao euskadi paesibaschi spagna ball bubbles metal stained reflection museum basquecountry spain bal bellen metaal bevlekt bezinning baskisch land spanje boule bulles métal souillé réflexion musée pays basque espagne kugel luftblasen metall befleckt reflexion baskisches spanien bola burbujas manchado reflexión país españa esfera bolhas reflexão museu" title="Bubbles" url_b="http://static.flickr.com/4087/5086712827_891b624987_b.jpg" username="Conanil" views="137" />
<photo  date_taken="2010-08-07 13:00:23" description="" id="5087310370" latitude="43.269214" license="4" longitude="-2.934454" nbComments="3" rank="127" tags="palla bolla acciaio lucido riflesso frankgehry museo guggenheim bilbao euskadi paesibaschi spagna ball bubble steel stained reflection museum basquecountry spain bal bel staal bevlekt bezinning baskisch land spanje boule bulle acier souillé réflexion musée pays basque espagne kugel luftblase stahl befleckt reflexion baskisches spanien bola burbuja acero manchado reflexión país vasco españa esfera bolha aço reflexão museu" title="Mini-world" url_b="http://static.flickr.com/4145/5087310370_d9daf011d3_b.jpg" username="Conanil" views="150" />
<photo  date_taken="2007-08-06 17:59:27" description="" id="1249448710" latitude="43.269229" license="3" longitude="-2.934454" nbComments="1" rank="128" tags="guggenheim museum bilbao titanium" title="Nice Curves!" url_b="http://static.flickr.com/1109/1249448710_6f94663641_b.jpg" username="gordieryan" views="176" />
<photo  date_taken="1999-04-29 03:33:11" description="" id="6886747288" latitude="43.268323" license="2" longitude="-2.933703" nbComments="0" rank="129" tags="architecture bilbao guggenheimmuseum spain spring" title="Flower Puppy Guggenheim-1" url_b="http://static.flickr.com/7192/6886747288_78da8c41e7_b.jpg" username="Terry Babij" views="21" />
<photo  date_taken="2006-07-28 18:55:17" description="" id="222903082" latitude="43.26908" license="4" longitude="-2.934736" nbComments="0" rank="130" tags="2006 art bilbao frank frankgehry gehry guggenheim holidays museum spain summer" title="Guggenheim Museum, Bilbao" url_b="http://static.flickr.com/91/222903082_7c86697a06_b.jpg" username="Andy Hay" views="223" />
<photo  date_taken="2005-07-19 16:10:41" description="Bilbao, Spain" id="3777304749" latitude="43.269092" license="4" longitude="-2.933832" nbComments="1" rank="131" tags="spain bilbao guggenheim bridges" title="Guggenheim museum" url_b="http://static.flickr.com/2486/3777304749_7923920e72_b.jpg" username="frestivo" views="62" />
<photo  date_taken="2011-07-01 00:01:22" description="Guggenheim Bilbao Museum e la Ría de Nervión vistos da Puente de La Salve (Salbeko zubia)." id="8051514139" latitude="43.268721" license="3" longitude="-2.933628" nbComments="0" rank="132" tags="looiz" title="Bilbao, Vizcaya - País Vasco/ES" url_b="http://static.flickr.com/8032/8051514139_6b00270a23_b.jpg" username="Looiz" views="2" />
<photo  date_taken="2011-07-01 00:01:15" description="Guggenheim Bilbao Museum visto da Puente de La Salve (Salbeko zubia)." id="8051531865" latitude="43.268721" license="3" longitude="-2.933628" nbComments="0" rank="133" tags="looiz" title="Bilbao, Vizcaya - País Vasco/ES" url_b="http://static.flickr.com/8320/8051531865_6b5bfc383b_b.jpg" username="Looiz" views="1" />
<photo  date_taken="2011-07-01 00:01:19" description="Guggenheim Bilbao Museum visto da Puente de La Salve (Salbeko zubia)." id="8051524216" latitude="43.268721" license="3" longitude="-2.933628" nbComments="0" rank="134" tags="looiz" title="Bilbao, Vizcaya - País Vasco/ES" url_b="http://static.flickr.com/8313/8051524216_728b14f63a_b.jpg" username="Looiz" views="0" />
<photo  date_taken="2011-07-01 00:01:14" description="Guggenheim Bilbao Museum e la Ría de Nervión vistos da Puente de La Salve (Salbeko zubia)." id="8051540008" latitude="43.268721" license="3" longitude="-2.933628" nbComments="0" rank="135" tags="looiz" title="Bilbao, Vizcaya - País Vasco/ES" url_b="http://static.flickr.com/8170/8051540008_475847769a_b.jpg" username="Looiz" views="1" />
<photo  date_taken="2011-07-01 00:01:20" description="Guggenheim Bilbao Museum, la Araña e la Ría de Nervión vistos da Puente de La Salve (Salbeko zubia)." id="8051516619" latitude="43.268721" license="3" longitude="-2.933628" nbComments="0" rank="136" tags="looiz" title="Bilbao, Vizcaya - País Vasco/ES" url_b="http://static.flickr.com/8041/8051516619_4d30282aa2_b.jpg" username="Looiz" views="0" />
<photo  date_taken="2011-07-01 00:01:27" description="Guggenheim Bilbao Museum visto da Puente de La Salve (Salbeko zubia)." id="8051505105" latitude="43.268721" license="3" longitude="-2.933628" nbComments="0" rank="137" tags="looiz" title="Bilbao, Vizcaya - País Vasco/ES" url_b="http://static.flickr.com/8180/8051505105_818c982b93_b.jpg" username="Looiz" views="2" />
<photo  date_taken="2011-07-01 00:01:16" description="Guggenheim Bilbao Museum visto da Puente de La Salve (Salbeko zubia)." id="8051525395" latitude="43.268721" license="3" longitude="-2.933628" nbComments="0" rank="138" tags="looiz" title="Bilbao, Vizcaya - País Vasco/ES" url_b="http://static.flickr.com/8034/8051525395_b0ee32a261_b.jpg" username="Looiz" views="0" />
<photo  date_taken="2011-07-01 00:01:11" description="Guggenheim Bilbao Museum visto da Puente de La Salve (Salbeko zubia)." id="8051546044" latitude="43.268721" license="3" longitude="-2.933628" nbComments="0" rank="139" tags="looiz" title="Bilbao, Vizcaya - País Vasco/ES" url_b="http://static.flickr.com/8318/8051546044_9decc9a83e_b.jpg" username="Looiz" views="3" />
<photo  date_taken="2011-07-01 00:01:18" description="Guggenheim Bilbao Museum, la Araña e la Ría de Nervión vistos da Puente de La Salve (Salbeko zubia)." id="8051520537" latitude="43.268721" license="3" longitude="-2.933628" nbComments="0" rank="140" tags="looiz" title="Bilbao, Vizcaya - País Vasco/ES" url_b="http://static.flickr.com/8452/8051520537_d56d953158_b.jpg" username="Looiz" views="1" />
<photo  date_taken="2011-07-01 00:01:10" description="Guggenheim Bilbao Museum visto da Puente de La Salve (Salbeko zubia)." id="8051547714" latitude="43.268721" license="3" longitude="-2.933628" nbComments="0" rank="141" tags="looiz" title="Bilbao, Vizcaya - País Vasco/ES" url_b="http://static.flickr.com/8321/8051547714_c95b32ed75_b.jpg" username="Looiz" views="1" />
<photo  date_taken="2011-07-01 00:01:24" description="Guggenheim Bilbao Museum e o Arco de la Puente de La Salve vistos da Puente de La Salve (Salbeko zubia)." id="8051515790" latitude="43.268721" license="3" longitude="-2.933628" nbComments="0" rank="142" tags="looiz" title="Bilbao, Vizcaya - País Vasco/ES" url_b="http://static.flickr.com/8455/8051515790_610088175f_b.jpg" username="Looiz" views="0" />
<photo  date_taken="2011-07-01 00:01:17" description="Guggenheim Bilbao Museum visto da Puente de La Salve (Salbeko zubia)." id="8051528626" latitude="43.268721" license="3" longitude="-2.933628" nbComments="0" rank="143" tags="looiz" title="Bilbao, Vizcaya - País Vasco/ES" url_b="http://static.flickr.com/8461/8051528626_226bd40a07_b.jpg" username="Looiz" views="1" />
<photo  date_taken="2011-07-01 00:01:13" description="Guggenheim Bilbao Museum visto da Puente de La Salve (Salbeko zubia)." id="8051536213" latitude="43.268721" license="3" longitude="-2.933628" nbComments="0" rank="144" tags="looiz" title="Bilbao, Vizcaya - País Vasco/ES" url_b="http://static.flickr.com/8313/8051536213_1f3cf9d2f4_b.jpg" username="Looiz" views="3" />
<photo  date_taken="2011-07-01 00:01:12" description="Guggenheim Bilbao Museum visto da Puente de La Salve (Salbeko zubia)." id="8051538489" latitude="43.268721" license="3" longitude="-2.933628" nbComments="0" rank="145" tags="looiz" title="Bilbao, Vizcaya - País Vasco/ES" url_b="http://static.flickr.com/8036/8051538489_4fba7bd885_b.jpg" username="Looiz" views="3" />
<photo  date_taken="2011-07-01 00:01:26" description="Guggenheim Bilbao Museum e La Araña vistos da Puente de La Salve (Salbeko zubia)." id="8051506669" latitude="43.268721" license="3" longitude="-2.933628" nbComments="0" rank="146" tags="looiz" title="Bilbao, Vizcaya - País Vasco/ES" url_b="http://static.flickr.com/8314/8051506669_e0b08bce46_b.jpg" username="Looiz" views="1" />
<photo  date_taken="2011-07-01 00:01:25" description="Guggenheim Bilbao Museum visto da Puente de La Salve (Salbeko zubia)." id="8051508875" latitude="43.268721" license="3" longitude="-2.933628" nbComments="0" rank="147" tags="looiz" title="Bilbao, Vizcaya - País Vasco/ES" url_b="http://static.flickr.com/8461/8051508875_fe5c002723_b.jpg" username="Looiz" views="1" />
<photo  date_taken="2011-07-01 00:01:23" description="Guggenheim Bilbao Museum visto da Puente de La Salve (Salbeko zubia)." id="8051518286" latitude="43.268721" license="3" longitude="-2.933628" nbComments="0" rank="148" tags="looiz" title="Bilbao, Vizcaya - País Vasco/ES" url_b="http://static.flickr.com/8457/8051518286_1cde68fd91_b.jpg" username="Looiz" views="1" />
<photo  date_taken="2012-10-03 10:13:51" description="" id="8105439524" latitude="43.269245" license="3" longitude="-2.934486" nbComments="0" rank="149" tags="2012 bilbao spain guggenheimmuseum talltreetheeye anishkapoor sculpture reflection" title="IMG_0330" url_b="http://static.flickr.com/8475/8105439524_eff883850d_b.jpg" username="laurencehorton" views="2" />
<photo  date_taken="2012-10-03 10:03:11" description="" id="8105437218" latitude="43.269245" license="3" longitude="-2.934486" nbComments="0" rank="150" tags="2012 bilbao spain guggenheimmuseum fogsculpture08025fog arcosrojosarkugorriak sunrise danielburen lasalvebridge fujikonakaya frankgehry" title="IMG_0294" url_b="http://static.flickr.com/8045/8105437218_26729079e4_b.jpg" username="laurencehorton" views="4" />
</photos>
