<?xml version="1.0" encoding="UTF-8" standalone="no"?>
<photos monument="Karlstor">

<photo  date_taken="2011-11-22 19:08:06" description="" id="8501975265" latitude="48.1391" license="5" longitude="11.566329" nbComments="0" rank="1" tags="munich münchen stachus karlstor karlsplatz landmark christmas illumination" title="Karlstor Illuminated" url_b="http://static.flickr.com/8094/8501975265_84dab003bb_b.jpg" username="Casey Hugelfink" views="8" />
<photo  date_taken="2007-11-16 18:44:35" description="Giorno 4" id="2078106990" latitude="48.139132" license="3" longitude="11.566312" nbComments="0" rank="2" tags="monacodibaviera münchen germania deutschland karlstor" title="Karlstor" url_b="http://static.flickr.com/2189/2078106990_7fd040627e_b.jpg" username="Air Force One" views="21" />
<photo  date_taken="2007-11-14 12:42:10" description="Giorno 2" id="2060686136" latitude="48.139132" license="3" longitude="11.566312" nbComments="0" rank="3" tags="monacodibaviera münchen germania deutschland karlstor" title="Karlstor" url_b="http://static.flickr.com/2362/2060686136_2c5a16a0ec_b.jpg" username="Air Force One" views="26" />
<photo  date_taken="2007-11-14 12:41:58" description="Giorno 2" id="2060685370" latitude="48.139132" license="3" longitude="11.566312" nbComments="0" rank="4" tags="monacodibaviera münchen germania deutschland karlstor" title="Karlstor" url_b="http://static.flickr.com/2078/2060685370_32ce4821dd_b.jpg" username="Air Force One" views="17" />
<photo  date_taken="2007-07-04 07:06:53" description="Looking out of Karlstor toward the new city" id="712807890" latitude="48.139132" license="3" longitude="11.566307" nbComments="0" rank="5" tags="bavaria europe famousbuildings germany history landmarks munich sightseeing" title="Karlstor" url_b="http://static.flickr.com/1438/712807890_31b61df514_b.jpg" username="1way2rock" views="39" />
<photo  date_taken="2012-10-22 13:59:16" description="Karlstor in München" id="8125988248" latitude="48.139044" license="4" longitude="11.566629" nbComments="0" rank="6" tags="münchen germany deutschland munich karlstor building gebäude architecture architektur historisch historic stadttor" title="121022_München_A_ 06" url_b="http://static.flickr.com/8470/8125988248_42ee39c511_b.jpg" username="weisserstier" views="33" />
<photo  date_taken="2011-10-15 12:19:19" description="Demo vom 15. Oktober 2011 am Karlsplatz/Stachus" id="6245799031" latitude="48.139167" license="1" longitude="11.566333" nbComments="0" rank="7" tags="münchen munich demo demonstration karlstor fusgängerzone occupy" title="Occupy Munich" url_b="http://static.flickr.com/6172/6245799031_0b4ee56886_b.jpg" username="NiceBastard" views="45" />
<photo  date_taken="2009-08-29 09:59:12" description="Karl's Gate (Karlstor) between Karlsplatz (Stachus) and Neuhauserstrasse. This city gate was built between 1285 and 1347." id="7406892372" latitude="48.139004" license="3" longitude="11.566661" nbComments="0" rank="8" tags="karlstor karlsgate citygate stadspoort neuhausertor stadttor duitsland deutschland germany beieren bayern bavaria münchen munich minga oberbayern upperbavaria opperbeieren" title="Germany - Munich, Karlstor" url_b="http://static.flickr.com/7269/7406892372_794d6b4d14_b.jpg" username="vtveen" views="178" />
<photo  date_taken="2009-10-02 01:26:22" description="" id="3977469856" latitude="48.139179" license="1" longitude="11.566436" nbComments="0" rank="9" tags="munich münchen germany germanybelgiumtrip gate karlstor karlsplatz shufflesaver" title="Karlstor" url_b="http://static.flickr.com/3422/3977469856_ca5571a2f1_b.jpg" username="Accidental Hedonist" views="10" />
<photo  date_taken="2007-02-10 23:03:34" description="噴水廣場旁的 Karlstor， 今天是星期六，整條 Neuhauserstraße都是人" id="403512903" latitude="48.139029" license="1" longitude="11.566693" nbComments="0" rank="10" tags="karlstor neuhauserstrase munich münchen muenchen deutsch deutschland germany" title="Karlstor" url_b="http://static.flickr.com/181/403512903_afb992873a_b.jpg" username="yvon.liu" views="46" />
<photo  date_taken="2009-05-17 13:25:14" description="Stachus is a large square in central Munich and named officially Karlsplatz in 1797 after the unpopular Karl Theodor, Elector of Bavaria. Most important buildings dominating the square are the Karlstor, a gate of the demolished medieval fortification, the rondell before the gate and the neo-baroque Justizpalast (Palace of Justice) &lt;a href=&quot;http://en.wikipedia.org/wiki/Stachus&quot; rel=&quot;nofollow&quot;&gt;en.wikipedia.org/wiki/Stachus&lt;/a&gt;" id="3537949921" latitude="48.139175" license="1" longitude="11.566092" nbComments="2" rank="11" tags="stachus münchen munich panorama karlsplatz nacht blauestunde canon30d 2009 oldtown altstadt dslr germany bayern bavaria deutschland" title="Stachus, Munich - Panorama -- Stachus Panorama München" url_b="http://static.flickr.com/3311/3537949921_d5ea5bdf66_b.jpg" username="Johannes Meyer zum Alten Borgloh" views="1054" />
<photo  date_taken="2010-03-19 13:10:03" description="" id="4450857827" latitude="48.139311" license="5" longitude="11.566237" nbComments="0" rank="12" tags="munich osm:way=52103816 karlstor" title="Karlstor" url_b="http://static.flickr.com/4011/4450857827_217682ac5b_b.jpg" username="Matthew Black" views="13" />
<photo  date_taken="2011-05-07 20:56:27" description="[&lt;a href=&quot;http://blog.subnetmask.de/2011/05/08/rundgang-durch-munchen/&quot; rel=&quot;nofollow&quot;&gt;Bericht&lt;/a&gt;]" id="5696492781" latitude="48.138925" license="3" longitude="11.567037" nbComments="0" rank="13" tags="karlstor münchen bavaria munich bayern deutschland germany" title="Karlstor - von Neuhauser Straße" url_b="http://static.flickr.com/5109/5696492781_6a32c40f72_b.jpg" username="JaBB" views="42" />
<photo  date_taken="2007-05-25 17:38:38" description="Brunnenbuberl vorm Neuhauser Tor (Karlstor)" id="2522273282" latitude="48.139064" license="1" longitude="11.567042" nbComments="0" rank="14" tags="brunnen munich münchen fountain" title="P1000050" url_b="http://static.flickr.com/2271/2522273282_4933a320f2_b.jpg" username="blariog" views="16" />
<photo  date_taken="2008-07-10 10:37:42" description="[Adam]" id="2933769734" latitude="48.14007" license="3" longitude="11.56686" nbComments="0" rank="15" tags="travel germany munich europe karlstor" title="Karlstor in the day" url_b="http://static.flickr.com/3158/2933769734_facdc93a43_b.jpg" username="Wugging Gavagai" views="13" />
<photo  date_taken="2008-07-08 21:57:40" description="One of the medieval gates of Munich. [Adam]" id="2917986129" latitude="48.14007" license="3" longitude="11.56686" nbComments="0" rank="16" tags="travel europe germany munich bavaria karlstor gate" title="Karlstor at night" url_b="http://static.flickr.com/3185/2917986129_a823abb1f3_b.jpg" username="Wugging Gavagai" views="6" />
<photo  date_taken="2009-01-24 14:54:12" description="" id="3629258925" latitude="48.139115" license="3" longitude="11.56635" nbComments="0" rank="17" tags="deutschland germany münchen munich bayern bavaria karlstor tor citygate" title="Karlstor" url_b="http://static.flickr.com/3358/3629258925_7bd52fef7e_b.jpg" username="Alexander Gorlin" views="4" />
<photo  date_taken="2007-10-13 17:08:10" description="" id="2153282374" latitude="48.139119" license="1" longitude="11.566447" nbComments="0" rank="18" tags="munich kwong citycenter germany bavaria" title="Karlstor" url_b="http://static.flickr.com/2168/2153282374_783b7fe6e7_b.jpg" username="Kwong Yee Cheng" views="11" />
<photo  date_taken="2007-07-04 07:23:26" description="." id="712048003" latitude="48.139132" license="3" longitude="11.566307" nbComments="0" rank="19" tags="bavaria europe germany munich" title="Karlstor and Fountain" url_b="http://static.flickr.com/1337/712048003_2991fb92de_b.jpg" username="1way2rock" views="13" />
<photo  date_taken="2007-07-04 07:06:33" description="Karls Gate - One of the three old city gates of Munich. Built in 1302." id="711931019" latitude="48.139132" license="3" longitude="11.566307" nbComments="0" rank="20" tags="bavaria europe famousbuildings germany history landmarks munich sightseeing" title="Karlstor" url_b="http://static.flickr.com/1267/711931019_5e66712367_b.jpg" username="1way2rock" views="126" />
<photo  date_taken="2007-07-04 07:06:37" description="One of 3 historical entrances to central Munich. More photos in the Munich album." id="711931427" latitude="48.139132" license="3" longitude="11.566307" nbComments="0" rank="21" tags="bavaria europe famousbuildings germany history landmarks munich sightseeing" title="Karlstor" url_b="http://static.flickr.com/1378/711931427_e0ee21cb13_b.jpg" username="1way2rock" views="138" />
<photo  date_taken="2010-08-26 14:40:46" description="&lt;a href=&quot;http://www.flickr.com/photos/aka_bersi/3629258925&quot;&gt;www.flickr.com/photos/aka_bersi/3629258925&lt;/a&gt;" id="6133177472" latitude="48.13914" license="3" longitude="11.566312" nbComments="0" rank="22" tags="deutschland germany münchen munich bayern bavaria karlstor tor citygate" title="Karlstor" url_b="http://static.flickr.com/6208/6133177472_3730f57db1_b.jpg" username="Alexander Gorlin" views="35" />
<photo  date_taken="2007-01-03 09:52:18" description="View trough the Karlstor into the Neuhauser strasse with the Frauenkiche  Map it: &lt;a href=&quot;http://www.robogeo.com/Flickr2Map/&quot;&gt;Google Earth&lt;/a&gt; | &lt;a href=&quot;http://www.robogeo.com/Flickr2Map/?type=map&quot; target=&quot;_blank&quot;&gt;Street&lt;/a&gt; | &lt;a href=&quot;http://www.robogeo.com/Flickr2Map/?type=map&amp;amp;view=satellite&quot; target=&quot;_blank&quot;&gt;Satellite&lt;/a&gt; | &lt;a href=&quot;http://www.robogeo.com/Flickr2Map/?type=map&amp;amp;view=hybrid&quot; target=&quot;_blank&quot;&gt;Hybrid&lt;/a&gt; | &lt;a href=&quot;http://www.robogeo.com/Flickr2Map/?type=nautical&quot; target=&quot;_blank&quot;&gt;Nautical&lt;/a&gt;" id="349071664" latitude="48.139166" license="2" longitude="11.5665" nbComments="0" rank="23" tags="munich munchen karlstor munchenstadswandeling frauenkriche geotagged geo:lat=481391666666667 geo:lon=115665 map20070103" title="IMG_5270.JPG" url_b="http://static.flickr.com/161/349071664_bbcb9f98f6_b.jpg" username="duimdog" views="107" />
<photo  date_taken="2008-11-07 15:27:58" description="Die 20 Meter hohe, 12 Meter breite Holzinstallation von Arne Quinze in der Münchner Fußgängerzone. „Traveller“ wurde von Louis Vuitton in Auftrag gegegeb anläßlich deren Eröffnung eines Shop-in-shops bei Oberpollinger." id="3012619522" latitude="48.139186" license="1" longitude="11.566339" nbComments="0" rank="24" tags="karlstor louisvuitton arnequinze oberpollinger münchen munich art kunst holz installation bois wood fusgängerzone" title="Traveller" url_b="http://static.flickr.com/3053/3012619522_e26eca84eb_b.jpg" username="NiceBastard" views="77" />
<photo  date_taken="2007-02-10 23:03:55" description="到此一遊.... 請注意，某人手上已經拿了雙人牌菜刀了..." id="403513166" latitude="48.139029" license="1" longitude="11.566693" nbComments="0" rank="25" tags="karlstor tarcy denise munich münchen muenchen deutsch deutschland germany" title="Denise &amp; Tarcy @ Munich" url_b="http://static.flickr.com/181/403513166_1b4584ca8f_b.jpg" username="yvon.liu" views="94" />
<photo  date_taken="2009-08-14 20:09:20" description="" id="3827672126" latitude="48.138888" license="3" longitude="11.566725" nbComments="0" rank="26" tags="altstadt architektur bayern deu deutschland karlsplatz karlstor münchen skulptur stachus geo:lat=4813889045 geo:lon=1156672518 geotagged donstag" title="Mann mit Hut" url_b="http://static.flickr.com/3496/3827672126_c9f9bb775d_b.jpg" username="donvanone" views="23" />
<photo  date_taken="2004-05-06 06:52:33" description="Karlstor city gate - Munich" id="17265402" latitude="48.139143" license="5" longitude="11.566629" nbComments="0" rank="27" tags="germany munich" title="IMG_2083" url_b="http://static.flickr.com/11/17265402_27e3961375_b.jpg" username="bjbrake" views="16" />
<photo  date_taken="2004-05-06 06:49:40" description="Karlstor city gate - Munich" id="17265388" latitude="48.139143" license="5" longitude="11.566629" nbComments="0" rank="28" tags="germany munich" title="IMG_2081" url_b="http://static.flickr.com/11/17265388_67e6a5e9f7_b.jpg" username="bjbrake" views="22" />
<photo  date_taken="2008-10-30 09:36:16" description="Sculpture at the Karlstor, München." id="2998748610" latitude="48.139186" license="1" longitude="11.566221" nbComments="0" rank="29" tags="münchen karlstor sculpture" title="Karlstor Details" url_b="http://static.flickr.com/3145/2998748610_d11abde393_b.jpg" username="Snurb" views="16" />
<photo  date_taken="2011-08-12 15:14:31" description="" id="6109823791" latitude="48.139194" license="1" longitude="11.56658" nbComments="0" rank="30" tags="münchen munich pentaxk5 pentaxsmcda40mm28flimited" title="München - Karlstor" url_b="http://static.flickr.com/6079/6109823791_16d079ef37_b.jpg" username="marohhoram" views="7" />
<photo  date_taken="2010-09-26 05:43:28" description="Entrada medieval a la ciudad de München" id="5070157868" latitude="48.139201" license="1" longitude="11.566221" nbComments="0" rank="31" tags="alemania bavaria viaje münchen" title="Karlstor" url_b="http://static.flickr.com/4105/5070157868_d72401888f_b.jpg" username="xun reborn" views="37" />
<photo  date_taken="2011-10-01 09:49:06" description="Karlstor" id="6203434207" latitude="48.139061" license="3" longitude="11.56679" nbComments="0" rank="32" tags="oktoberfest munich" title="PA018602" url_b="http://static.flickr.com/6129/6203434207_13d6d46512_b.jpg" username="deux-chi" views="4" />
<photo  date_taken="2010-05-31 22:34:13" description="" id="4657550794" latitude="48.139" license="1" longitude="11.566811" nbComments="0" rank="33" tags="kowa six 6 6x6 120 kodak 160nc film analógica medium format medio formato münchen munich tor músicos escultura 85mm karlstor altstadt analog portra" title="Kowa6_160nc_312_f" url_b="http://static.flickr.com/4010/4657550794_083029361a_b.jpg" username="Ronsel" views="20" />
<photo  date_taken="2008-07-10 00:59:24" description="Stachus, Munich, Germany" id="4791806879" latitude="48.138965" license="1" longitude="11.565868" nbComments="0" rank="34" tags="" title="Karlstor" url_b="http://static.flickr.com/4114/4791806879_2b3bcffc00_b.jpg" username="California Pete" views="13" />
<photo  date_taken="2011-05-07 20:56:31" description="[&lt;a href=&quot;http://blog.subnetmask.de/2011/05/08/rundgang-durch-munchen/&quot; rel=&quot;nofollow&quot;&gt;Bericht&lt;/a&gt;]" id="5696492989" latitude="48.139269" license="3" longitude="11.565932" nbComments="0" rank="35" tags="münchen bavaria munich bayern deutschland germany" title="Karlstor - vom Karlsplatz Stacchus" url_b="http://static.flickr.com/2336/5696492989_dbfeb0b735_b.jpg" username="JaBB" views="68" />
<photo  date_taken="2010-07-02 17:46:00" description="" id="4777142900" latitude="48.139294" license="1" longitude="11.565878" nbComments="0" rank="36" tags="" title="Karlstor" url_b="http://static.flickr.com/4094/4777142900_4eb7357dba_b.jpg" username="valix" views="45" />
<photo  date_taken="2010-10-12 17:04:09" description="" id="5086362785" latitude="48.139333" license="1" longitude="11.565833" nbComments="0" rank="37" tags="iphone" title="Karlstor; München, Deutschland" url_b="http://static.flickr.com/4103/5086362785_06a7aeb171_b.jpg" username="thatguyeric" views="35" />
<photo  date_taken="2007-10-13 17:13:29" description="" id="2153282470" latitude="48.138977" license="1" longitude="11.567158" nbComments="0" rank="38" tags="munich kwong citycenter germany bavaria" title="Karlstor" url_b="http://static.flickr.com/2358/2153282470_4f11fb95f5_b.jpg" username="Kwong Yee Cheng" views="8" />
<photo  date_taken="2011-10-15 12:07:18" description="Demo vom 15. Oktober 2011 am Karlsplatz/Stachus" id="6245785511" latitude="48.139167" license="1" longitude="11.565667" nbComments="1" rank="39" tags="occupymunichmünchendemo usk unterstützungskommando spezialkräfte polizei police karlstor stachus karlsplatz fusgängerzone demonstartion" title="Occupy Munich" url_b="http://static.flickr.com/6055/6245785511_01086c37da_b.jpg" username="NiceBastard" views="83" />
<photo  date_taken="2009-08-14 20:04:14" description="" id="3826870849" latitude="48.138766" license="3" longitude="11.567213" nbComments="0" rank="40" tags="altstadt bayern deu deutschland karlsplatz karlstor münchen skulptur stachus geo:lat=4813876618 geo:lon=1156721261 geotagged donstag" title="Dreigestirn (I)" url_b="http://static.flickr.com/3473/3826870849_78bc334950_b.jpg" username="donvanone" views="19" />
<photo  date_taken="2010-08-13 14:24:23" description="" id="4938308273" latitude="48.139328" license="1" longitude="11.565677" nbComments="0" rank="41" tags="afnikkor35mmf2d" title="Karlstor" url_b="http://static.flickr.com/4135/4938308273_4765563a0d_b.jpg" username="Félix Ortega" views="32" />
<photo  date_taken="2011-10-15 12:37:04" description="Demo vom 15. Oktober 2011 am Karlsplatz/Stachus" id="6246336762" latitude="48.139" license="1" longitude="11.5655" nbComments="0" rank="42" tags="münchen munich demo demonstration occupy polizei police wanne streifenwagen karlsplatz stachus karlstor" title="Occupy Munich" url_b="http://static.flickr.com/6229/6246336762_0f7949084f_b.jpg" username="NiceBastard" views="53" />
<photo  date_taken="2007-02-11 00:00:56" description="從 Karlstor 到 Marienplatz 間的這段步行區， 真的很好逛... 路上有很多賣水果和抄栗子的小販， 我們也有買水果來吃喲..." id="403513830" latitude="48.138925" license="1" longitude="11.567348" nbComments="0" rank="43" tags="neuhauserstrase munich münchen muenchen deutsch deutschland germany" title="Neuhauserstraße" url_b="http://static.flickr.com/159/403513830_4e7443b3f6_b.jpg" username="yvon.liu" views="46" />
<photo  date_taken="2010-07-15 13:43:13" description="Karlstor am Stachus - München - Abkühlung Abkühlung durch die Spring-Brunnenanlage - Original size" id="4802762690" latitude="48.13943" license="4" longitude="11.56554" nbComments="1" rank="44" tags="bayern bavaria münchen munich tor stadt stadttor fahne flagge schwarz gelb wasser fontäne fountain brunnen" title="Karlstor am Stachus - München - Abkühlung" url_b="http://static.flickr.com/4120/4802762690_2ecc24c6b6_b.jpg" username="digital cat " views="60" />
<photo  date_taken="2010-07-06 10:41:05" description="" id="4777157970" latitude="48.13885" license="1" longitude="11.567616" nbComments="0" rank="45" tags="" title="Karlstor" url_b="http://static.flickr.com/4099/4777157970_44fb55f1f1_b.jpg" username="valix" views="22" />
<photo  date_taken="2010-03-19 12:59:42" description="" id="4451628534" latitude="48.13885" license="5" longitude="11.567712" nbComments="0" rank="46" tags="munich osm:way=52103816 karlstor" title="Karlstor" url_b="http://static.flickr.com/4039/4451628534_7c6affef26_b.jpg" username="Matthew Black" views="9" />
<photo  date_taken="2011-08-15 15:34:24" description="" id="6859002599" latitude="48.138666" license="1" longitude="11.5685" nbComments="0" rank="47" tags="architecture historic night streetscene" title="Neuhauser Straße and Karlstor" url_b="http://static.flickr.com/7198/6859002599_491ee2895f_b.jpg" username="Ian YVR" views="43" />
<photo  date_taken="2008-04-16 09:41:29" description="" id="2421923873" latitude="48.136636" license="1" longitude="11.576886" nbComments="0" rank="48" tags="deutschland bayern münchen canoneos400d" title="Windspiel am Karlstor" url_b="http://static.flickr.com/3003/2421923873_db71337fbb_b.jpg" username="baba_1967" views="12" />
</photos>
