<?xml version="1.0" encoding="UTF-8" standalone="no"?>
<photos monument="La Rambla">

<photo  date_taken="2007-04-23 18:00:01" description="La Puki currando como una campeona, en medio de las ramblas, el Día de Sant Jordi" id="507594231" latitude="41.381485" license="3" longitude="2.173072" nbComments="0" rank="1" tags="nokia6103" title="Sant Jordi '07 001" url_b="http://static.flickr.com/227/507594231_be07ea664b_b.jpg" username="kpitalK" views="30" />
<photo  date_taken="2007-10-06 10:53:08" description="" id="1536469785" latitude="41.381485" license="4" longitude="2.173082" nbComments="0" rank="2" tags="spain barcelona catalunya catalan" title="Near La Rambla" url_b="http://static.flickr.com/2244/1536469785_efce79c343_b.jpg" username="robertpaulyoung" views="38" />
<photo  date_taken="2007-10-06 11:02:33" description="There's a parrot in there somewhere..." id="1536490617" latitude="41.381485" license="4" longitude="2.173082" nbComments="0" rank="3" tags="spain parrot barcelona catalunya catalan" title="La Rambla" url_b="http://static.flickr.com/2232/1536490617_a32212c8eb_b.jpg" username="robertpaulyoung" views="31" />
<photo  date_taken="2007-10-06 10:53:39" description="" id="1538154806" latitude="41.381485" license="4" longitude="2.173082" nbComments="0" rank="4" tags="spain barcelona catalunya catalan" title="Near La Rambla" url_b="http://static.flickr.com/2161/1538154806_6fd5565f83_b.jpg" username="robertpaulyoung" views="83" />
<photo  date_taken="2009-06-06 09:10:13" description="Dragon and umbrella, at La Rambla." id="3621973546" latitude="41.3813" license="1" longitude="2.173125" nbComments="0" rank="5" tags="2009 art balcony barcelona barrigotic europe larambla lantern spain geotagged" title="BCN_June 6_101" url_b="http://static.flickr.com/3656/3621973546_132087115b_b.jpg" username="mgrenner57" views="3" />
<photo  date_taken="2009-06-04 11:14:22" description="Dragon and umbrella at La Rambla, near Liceu metro station." id="3620748548" latitude="41.3813" license="1" longitude="2.173125" nbComments="0" rank="6" tags="2009 art balcony barcelona europe larambla sculpture spain geotagged" title="BCN_June 3-4_021" url_b="http://static.flickr.com/3372/3620748548_0107dbfb15_b.jpg" username="mgrenner57" views="10" />
<photo  date_taken="2009-06-04 11:14:09" description="Dragon and umbrella, again." id="3620748334" latitude="41.3813" license="1" longitude="2.173125" nbComments="0" rank="7" tags="2009 art balcony barcelona europe larambla spain geotagged" title="BCN_June 3-4_020" url_b="http://static.flickr.com/2454/3620748334_7d9a5c50cf_b.jpg" username="mgrenner57" views="4" />
<photo  date_taken="2009-06-06 08:10:59" description="A sidestreet leading from La Rambla into Barri Gotic." id="3621937322" latitude="41.3813" license="1" longitude="2.173125" nbComments="0" rank="8" tags="2009 balcony barcelona europe larambla lantern spain geotagged" title="BCN_June 6_065" url_b="http://static.flickr.com/2483/3621937322_deac997534_b.jpg" username="mgrenner57" views="2" />
<photo  date_taken="2009-06-06 08:12:00" description="Liceu -- Theater at La Rambla." id="3621119825" latitude="41.3813" license="1" longitude="2.173125" nbComments="0" rank="9" tags="2009 balcony barcelona clock europe facade flag housedecoration larambla spain geotagged" title="BCN_June 6_066" url_b="http://static.flickr.com/3320/3621119825_080d8b993b_b.jpg" username="mgrenner57" views="28" />
<photo  date_taken="2009-06-04 11:29:02" description="One of many mimes along La Rambla." id="3619930129" latitude="41.3813" license="1" longitude="2.173125" nbComments="0" rank="10" tags="2009 barcelona costume europe larambla mime spain geotagged" title="BCN_June 3-4_025" url_b="http://static.flickr.com/3365/3619930129_bb570d80fc_b.jpg" username="mgrenner57" views="4" />
<photo  date_taken="2009-06-04 11:13:31" description="La Rambla, about mid-way between Placa de Catalunya and the harbor." id="3619929009" latitude="41.3813" license="1" longitude="2.173125" nbComments="0" rank="11" tags="2009 balcony barcelona europe larambla spain geotagged" title="BCN_June 3-4_019" url_b="http://static.flickr.com/2277/3619929009_cf1ac6eb79_b.jpg" username="mgrenner57" views="11" />
<photo  date_taken="2009-06-06 08:10:42" description="Same picture as 065, but with a wider angle." id="3621937194" latitude="41.3813" license="1" longitude="2.173125" nbComments="0" rank="12" tags="2009 balcony barcelona europe larambla lantern spain geotagged" title="BCN_June 6_064" url_b="http://static.flickr.com/2438/3621937194_e29ce7f668_b.jpg" username="mgrenner57" views="1" />
<photo  date_taken="2009-06-04 11:12:37" description="Same spot as in picture 019, but a bit more context." id="3620747920" latitude="41.3813" license="1" longitude="2.173125" nbComments="0" rank="13" tags="2009 balcony barcelona europe facade larambla spain geotagged" title="BCN_June 3-4_018" url_b="http://static.flickr.com/3378/3620747920_843cf5eaa9_b.jpg" username="mgrenner57" views="8" />
<photo  date_taken="2010-08-09 16:56:05" description="" id="5007263323" latitude="41.381353" license="6" longitude="2.172943" nbComments="33" rank="14" tags="" title="Nudismo en La Rambla - Barcelona" url_b="http://static.flickr.com/4084/5007263323_76fc8d051e_b.jpg" username="Luis Irisarri" views="1075" />
<photo  date_taken="2011-11-28 11:25:05" description="Kiosko de la Rambla" id="6418237975" latitude="41.381333" license="3" longitude="2.173166" nbComments="0" rank="15" tags="barcelona spain 2011 catalonia catalunya cataluña" title="2011 Barcelona" url_b="http://static.flickr.com/7016/6418237975_204519cbc6_b.jpg" username="jose_gonzalvo" views="16" />
<photo  date_taken="2009-12-25 08:03:53" description="" id="4216529165" latitude="41.381293" license="1" longitude="2.173175" nbComments="0" rank="16" tags="barcelona eu2010" title="A Corner on La Rambla" url_b="http://static.flickr.com/4065/4216529165_e1d90c064a_b.jpg" username="cdine" views="5" />
<photo  date_taken="2011-09-18 21:11:35" description="You can buy FC Barcelona souvenirs at La Rambla." id="6781989764" latitude="41.381501" license="6" longitude="2.172943" nbComments="0" rank="17" tags="barcelona yougo zwiedzanie turystyka spain catalonia" title="FC Barcelona souvenirs at La Rambla" url_b="http://static.flickr.com/7177/6781989764_c3196bcfb8_b.jpg" username="praktyczny.przewodnik" views="123" />
<photo  date_taken="2010-07-27 17:32:47" description="Processed with LR." id="5011553049" latitude="41.381526" license="4" longitude="2.172964" nbComments="0" rank="18" tags="barcelona cataluña españa" title="La Rambla" url_b="http://static.flickr.com/4149/5011553049_c96520df8e_b.jpg" username="mi)" views="16" />
<photo  date_taken="2007-08-11 10:33:51" description="" id="1214130848" latitude="41.381373" license="1" longitude="2.173222" nbComments="0" rank="19" tags="barcelona bcn dragon rambla paraguas farola larambla dragón" title="Dragón" url_b="http://static.flickr.com/1245/1214130848_508cac88c6_b.jpg" username="daniel villar onrubia" views="40" />
<photo  date_taken="2012-03-12 11:12:38" description="La Rambla" id="6976597647" latitude="41.3813" license="3" longitude="2.1732" nbComments="14" rank="20" tags="barcelona spain 2012 farol catalonia catalunya cataluña" title="2012 Barcelona" url_b="http://static.flickr.com/7194/6976597647_d501f8022b_b.jpg" username="jose_gonzalvo" views="71" />
<photo  date_taken="2010-07-05 04:13:39" description="" id="4786968208" latitude="41.381405" license="5" longitude="2.172873" nbComments="0" rank="21" tags="barcelona 巴塞罗那 night larambla" title="IMG_5168" url_b="http://static.flickr.com/4096/4786968208_e74dc02a48_b.jpg" username="Jing Qui" views="16" />
<photo  date_taken="2010-06-02 13:16:30" description="Al final de La Rambla de les Flors, en la parte izquierda, aparece uno de los edificios más singulares de esta avenida: la Casa Bruno Quadros. Se conoce también como la Casa de los Paraguas, ya que vendiendo este objeto se hizo millonario el propietario del edificio y varios paraguas decoran la fachada. Es un edificio entre excéntrico y original donde también destaca la figura de un dragón chino en la esquina que vigila amenazante a todo el que pasea." id="4663469121" latitude="41.381505" license="1" longitude="2.1732" nbComments="17" rank="22" tags="casabrunoquadros casadelosparaguas ramblas barcelona catalunya nikond60 ventanas balcones galerias paraguas abanicos paipai hierroforjado برشلونة барселоне バルセロナ" title="Casa de los Paraguas Barcelona" url_b="http://static.flickr.com/4017/4663469121_b636dc7464_b.jpg" username="tetegil" views="348" />
<photo  date_taken="2009-09-24 12:06:39" description="&lt;b&gt;La Rambla ~ Barcelona (Catalonia)&lt;/b&gt; Located in the middle section of La Rambla, the Bruno Quadras Building, usually known as &amp;quot;Casa dels paraigües&amp;quot; (Catalan for &amp;quot;House of the umbrellas&amp;quot;), was once an umbrella factory. It is decorated with umbrellas and several elements inspired by chinese art. Among these, the most remarkable element in the façade is this Chinese dragon, which is quite unique in Barcelona and one of the many interesting sigths one should not miss when walking down La Rambla." id="3953196054" latitude="41.381389" license="3" longitude="2.173254" nbComments="8" rank="23" tags="brunoquadras casadelsparaigües building house dragon chinese umbrella lamp lantern sky larambla lesrambles balcony drac ventall barcelona barcelone catalonia catalunya art decoration marcelgermain nikon d80 geotagged edifici ciutatvella" title="Chinese Dragon" url_b="http://static.flickr.com/2465/3953196054_57a2d0349d_b.jpg" username="MarcelGermain" views="1163" />
<photo  date_taken="2009-03-05 13:42:45" description="the Bruno Quadras Building once an umbrella factory, the building is adorned with umbrellas and also the figure of a Chinese dragon mounted on the corner that keeps watch over the Rambla" id="3395719854" latitude="41.381429" license="4" longitude="2.17325" nbComments="0" rank="24" tags="spain barcelona serge melki nikon d300 larambla barca espana laramblaway sooc brunoquadra 18200mmf3556gvr" title="Umbrella building La Rambla" url_b="http://static.flickr.com/3447/3395719854_030bac0ce7_b.jpg" username="Serge Melki" views="272" />
<photo  date_taken="2010-02-20 07:23:37" description="Seguint els consell de Juan Calderon, he posat la paret recta. Ara el problema és que el fanal que aguanta el drac no queda recta... conclusió: Foto mal tirada! Nota mental: M'he de currar molt més els enquadraments... by &lt;a href=&quot;http://nye.cat&quot; rel=&quot;nofollow&quot;&gt;nye.cat&lt;/a&gt;" id="4422439395" latitude="41.381403" license="3" longitude="2.173254" nbComments="14" rank="25" tags="hdr drac rambles dragon rambla barcelona nye" title="El Drac de les Rambles II" url_b="http://static.flickr.com/4051/4422439395_20590ffaf7_b.jpg" username="nyë" views="226" />
<photo  date_taken="2011-08-05 17:16:58" description="Casa Doctor Genové" id="6158018371" latitude="41.381348" license="3" longitude="2.172857" nbComments="1" rank="26" tags="barcelona espanha spain españa espanya catalunha catalonia cataluña catalunya august2011 sony sonyalphadslra700 2011 architecture arquitectura architektur architettura architektura arquitetura építészet modernismo modernisme modernism moderne" title="Barcelona - La Rambla" url_b="http://static.flickr.com/6173/6158018371_f055d1e95b_b.jpg" username="jaime.silva" views="502" />
<photo  date_taken="2011-08-05 17:16:36" description="Casa Doctor Genové" id="6158559822" latitude="41.381348" license="3" longitude="2.172857" nbComments="0" rank="27" tags="barcelona espanha spain españa espanya catalunha catalonia cataluña catalunya august2011 sony sonyalphadslra700 2011 architecture arquitectura architektur architettura architektura arquitetura építészet modernismo modernisme modernism moderne" title="Barcelona - La Rambla" url_b="http://static.flickr.com/6078/6158559822_5979f061a9_b.jpg" username="jaime.silva" views="418" />
<photo  date_taken="2009-07-23 10:07:45" description="la rambla - barcelona" id="3779616354" latitude="41.381438" license="1" longitude="2.173261" nbComments="0" rank="28" tags="barcelona cataluna spain esp 2009" title="IMGP8540" url_b="http://static.flickr.com/2538/3779616354_4670e2e070_b.jpg" username="mikesm" views="5" />
<photo  date_taken="2013-02-25 08:38:54" description="One of the great streets of Europe was a few blocks from our apartment." id="8522848266" latitude="41.38118" license="1" longitude="2.173113" nbComments="0" rank="29" tags="photostream barcelona" title="La Rambla" url_b="http://static.flickr.com/8226/8522848266_007ea46722_b.jpg" username="robpegoraro" views="2" />
<photo  date_taken="2010-09-09 15:33:18" description="" id="5012601439" latitude="41.381477" license="6" longitude="2.172857" nbComments="20" rank="30" tags="" title="La Rambla - Barcelona" url_b="http://static.flickr.com/4087/5012601439_3826edb612_b.jpg" username="Luis Irisarri" views="290" />
<photo  date_taken="2011-06-05 22:52:26" description="" id="5822192841" latitude="41.381473" license="4" longitude="2.173259" nbComments="0" rank="31" tags="barcelona" title="Umbrella House La Rambla Decoration" url_b="http://static.flickr.com/2774/5822192841_fbd99e9e28_b.jpg" username="ahisgett" views="24" />
<photo  date_taken="2011-06-06 16:22:51" description="" id="5836348960" latitude="41.381473" license="4" longitude="2.173259" nbComments="0" rank="32" tags="barcelona" title="Dragon Umbrella House La Rambla" url_b="http://static.flickr.com/3353/5836348960_92048309ec_b.jpg" username="ahisgett" views="33" />
<photo  date_taken="2011-06-05 19:55:20" description="" id="5822736612" latitude="41.381473" license="4" longitude="2.173259" nbComments="0" rank="33" tags="barcelona" title="Umbrella House La Rambla Decoration 2" url_b="http://static.flickr.com/5147/5822736612_4b9cc0b09d_b.jpg" username="ahisgett" views="18" />
<photo  date_taken="2011-06-05 17:30:16" description="" id="5822148863" latitude="41.381473" license="4" longitude="2.173259" nbComments="0" rank="34" tags="barcelona" title="Umbrella House La Rambla" url_b="http://static.flickr.com/2051/5822148863_d57bdb5163_b.jpg" username="ahisgett" views="16" />
<photo  date_taken="2011-06-05 19:55:36" description="" id="5822748428" latitude="41.381473" license="4" longitude="2.173259" nbComments="0" rank="35" tags="barcelona" title="Dragon La Rambla" url_b="http://static.flickr.com/3241/5822748428_e3639594fe_b.jpg" username="ahisgett" views="44" />
<photo  date_taken="2012-03-31 16:50:48" description="" id="7104272495" latitude="41.381162" license="4" longitude="2.173007" nbComments="0" rank="36" tags="barcelona spain europe spring canon larambla" title="La Rambla" url_b="http://static.flickr.com/7051/7104272495_9a9f6bc859_b.jpg" username="designsbykari" views="60" />
<photo  date_taken="2012-03-31 18:00:45" description="" id="7104273359" latitude="41.381162" license="4" longitude="2.173007" nbComments="0" rank="37" tags="barcelona spain europe spring canon laboqueria market larambla" title="La Boqueria" url_b="http://static.flickr.com/8021/7104273359_10a98a8387_b.jpg" username="designsbykari" views="19" />
<photo  date_taken="2008-09-27 11:01:51" description="La Rambla es el nombre de un emblemático paseo de la ciudad de Barcelona, que discurre entre la Plaza de Cataluña (en catalán Plaça de Catalunya), centro neurálgico de la ciudad, y el puerto antiguo. El paseo está lleno de gente de día y hasta altas horas de la noche. Está jalonado de kioscos de prensa, flores y aves, actores callejeros, cafeterías, restaurantes y comercios. Cerca del puerto acostumbran a instalarse mercadillos, así como pintores y dibujantes. Paseando por La Rambla pueden admirarse varios edificios de interés, como el Palacio de la Virreina, así como el mercado de La Boquería y el famoso teatro de El Liceo (cat. El Liceu), en el que se representan óperas y ballets. Las calles laterales también tienen un encanto especial. Una de ellas, de pocos metros de longitud, conduce a la Plaza Real(cat.Plaça Reial), una plaza con palmeras y edificios con soportales que acogen multitud de cervecerías y restaurantes, y en la que se reúnen los fines de semana los coleccionistas de sellos y de monedas. Mimos e imitadores amenizan el paseo por La Rambla." id="2895509237" latitude="41.381236" license="3" longitude="2.173233" nbComments="0" rank="38" tags="rambla rambles ramblas barcelona barcelone barrigòtic barriogótico gothicquarter" title="les Rambles de Barcelona" url_b="http://static.flickr.com/3161/2895509237_f98b16db91_b.jpg" username="Ramiro Sánchez-Crespo" views="115" />
<photo  date_taken="2008-09-27 11:12:07" description="La Rambla es el nombre de un emblemático paseo de la ciudad de Barcelona, que discurre entre la Plaza de Cataluña (en catalán Plaça de Catalunya), centro neurálgico de la ciudad, y el puerto antiguo. El paseo está lleno de gente de día y hasta altas horas de la noche. Está jalonado de kioscos de prensa, flores y aves, actores callejeros, cafeterías, restaurantes y comercios. Cerca del puerto acostumbran a instalarse mercadillos, así como pintores y dibujantes. Paseando por La Rambla pueden admirarse varios edificios de interés, como el Palacio de la Virreina, así como el mercado de La Boquería y el famoso teatro de El Liceo (cat. El Liceu), en el que se representan óperas y ballets. Las calles laterales también tienen un encanto especial. Una de ellas, de pocos metros de longitud, conduce a la Plaza Real(cat.Plaça Reial), una plaza con palmeras y edificios con soportales que acogen multitud de cervecerías y restaurantes, y en la que se reúnen los fines de semana los coleccionistas de sellos y de monedas. Mimos e imitadores amenizan el paseo por La Rambla." id="2895531997" latitude="41.381236" license="3" longitude="2.173233" nbComments="0" rank="39" tags="rambla rambles ramblas barcelona barcelone barrigòtic barriogótico gothicquarter" title="les Rambles de Barcelona" url_b="http://static.flickr.com/3226/2895531997_c7c4662c98_b.jpg" username="Ramiro Sánchez-Crespo" views="104" />
<photo  date_taken="2008-09-27 11:07:51" description="La Rambla es el nombre de un emblemático paseo de la ciudad de Barcelona, que discurre entre la Plaza de Cataluña (en catalán Plaça de Catalunya), centro neurálgico de la ciudad, y el puerto antiguo. El paseo está lleno de gente de día y hasta altas horas de la noche. Está jalonado de kioscos de prensa, flores y aves, actores callejeros, cafeterías, restaurantes y comercios. Cerca del puerto acostumbran a instalarse mercadillos, así como pintores y dibujantes. Paseando por La Rambla pueden admirarse varios edificios de interés, como el Palacio de la Virreina, así como el mercado de La Boquería y el famoso teatro de El Liceo (cat. El Liceu), en el que se representan óperas y ballets. Las calles laterales también tienen un encanto especial. Una de ellas, de pocos metros de longitud, conduce a la Plaza Real(cat.Plaça Reial), una plaza con palmeras y edificios con soportales que acogen multitud de cervecerías y restaurantes, y en la que se reúnen los fines de semana los coleccionistas de sellos y de monedas. Mimos e imitadores amenizan el paseo por La Rambla." id="2896356064" latitude="41.381236" license="3" longitude="2.173233" nbComments="0" rank="40" tags="rambla rambles ramblas barcelona barcelone barrigòtic barriogótico gothicquarter" title="les Rambles de Barcelona" url_b="http://static.flickr.com/3035/2896356064_62febb3472_b.jpg" username="Ramiro Sánchez-Crespo" views="94" />
<photo  date_taken="2008-09-27 11:01:26" description="La Rambla es el nombre de un emblemático paseo de la ciudad de Barcelona, que discurre entre la Plaza de Cataluña (en catalán Plaça de Catalunya), centro neurálgico de la ciudad, y el puerto antiguo. El paseo está lleno de gente de día y hasta altas horas de la noche. Está jalonado de kioscos de prensa, flores y aves, actores callejeros, cafeterías, restaurantes y comercios. Cerca del puerto acostumbran a instalarse mercadillos, así como pintores y dibujantes. Paseando por La Rambla pueden admirarse varios edificios de interés, como el Palacio de la Virreina, así como el mercado de La Boquería y el famoso teatro de El Liceo (cat. El Liceu), en el que se representan óperas y ballets. Las calles laterales también tienen un encanto especial. Una de ellas, de pocos metros de longitud, conduce a la Plaza Real(cat.Plaça Reial), una plaza con palmeras y edificios con soportales que acogen multitud de cervecerías y restaurantes, y en la que se reúnen los fines de semana los coleccionistas de sellos y de monedas. Mimos e imitadores amenizan el paseo por La Rambla." id="2896345558" latitude="41.381236" license="3" longitude="2.173233" nbComments="0" rank="41" tags="rambla rambles ramblas barcelona barcelone barrigòtic barriogótico gothicquarter" title="les Rambles de Barcelona" url_b="http://static.flickr.com/3148/2896345558_23c507b85a_b.jpg" username="Ramiro Sánchez-Crespo" views="161" />
<photo  date_taken="2009-07-23 10:04:39" description="la rambla - barcelona" id="3779609666" latitude="41.381613" license="1" longitude="2.172988" nbComments="0" rank="42" tags="barcelona cataluna spain esp 2009" title="IMGP8538" url_b="http://static.flickr.com/3439/3779609666_bf2d40cc04_b.jpg" username="mikesm" views="5" />
<photo  date_taken="2012-03-16 12:33:28" description="" id="7017288273" latitude="41.381159" license="4" longitude="2.173129" nbComments="20" rank="43" tags="" title="La Rambla" url_b="http://static.flickr.com/7101/7017288273_8962d6d89c_b.jpg" username="ale'streets" views="124" />
<photo  date_taken="2009-07-23 10:07:35" description="la rambla - barcelona" id="3779613718" latitude="41.381397" license="1" longitude="2.173313" nbComments="0" rank="44" tags="barcelona cataluna spain esp 2009" title="IMGP8539" url_b="http://static.flickr.com/2512/3779613718_baf253cc3c_b.jpg" username="mikesm" views="5" />
<photo  date_taken="2010-06-08 12:58:02" description="Detall del mosaic de Joan Miró. Pla de l'Os. La Rambla. Barcelona" id="4688539368" latitude="41.381232" license="1" longitude="2.173286" nbComments="1" rank="45" tags="barcelona larambla mosaic mosaico mosaïque joanmiró" title="signatura" url_b="http://static.flickr.com/4025/4688539368_a7fc650cc6_b.jpg" username="matilde.m.s" views="32" />
<photo  date_taken="2011-01-31 11:13:32" description="La Rambla" id="5407988508" latitude="41.381388" license="3" longitude="2.172777" nbComments="1" rank="46" tags="2011 barcelona" title="2011 Barcelona" url_b="http://static.flickr.com/5058/5407988508_7b224cb700_b.jpg" username="jose_gonzalvo" views="17" />
<photo  date_taken="2011-06-30 22:36:54" description="La Ramblas, and our que home" id="5935499669" latitude="41.381257" license="1" longitude="2.173323" nbComments="0" rank="47" tags="spain" title="Licieu" url_b="http://static.flickr.com/6030/5935499669_02cdc4b48f_b.jpg" username="SimplySchmoopie" views="2" />
<photo  date_taken="2009-03-05 13:45:09" description="sooc" id="3394912363" latitude="41.381646" license="4" longitude="2.172874" nbComments="1" rank="48" tags="spain barcelona serge melki nikon d300 larambla barca espana laramblaway sooc orchids 18200mmf3556gvr" title="Orchids on La Rambla" url_b="http://static.flickr.com/3538/3394912363_36f01c6762_b.jpg" username="Serge Melki" views="221" />
<photo  date_taken="2009-03-05 13:44:26" description="on La Rambla" id="3395722628" latitude="41.381646" license="4" longitude="2.172874" nbComments="0" rank="49" tags="spain barcelona serge melki nikon d300 larambla barca espana laramblaway sooc 18200mmf3556gvr" title="Plants and Flowers" url_b="http://static.flickr.com/3599/3395722628_3b00c65915_b.jpg" username="Serge Melki" views="125" />
<photo  date_taken="2011-08-05 16:09:19" description="" id="6158013091" latitude="41.381389" license="3" longitude="2.173383" nbComments="0" rank="50" tags="barcelona espanha spain españa espanya catalunha catalonia cataluña catalunya august2011 sony sonyalphadslra700 2011 architecture arquitectura architektur architettura architektura arquitetura építészet modernismo modernisme modernism moderne" title="Barcelona - La Rambla" url_b="http://static.flickr.com/6077/6158013091_82d69a9a93_b.jpg" username="jaime.silva" views="401" />
<photo  date_taken="2011-08-05 16:06:23" description="" id="6158011679" latitude="41.381389" license="3" longitude="2.173383" nbComments="0" rank="51" tags="barcelona espanha spain españa espanya catalunha catalonia cataluña catalunya august2011 sony sonyalphadslra700 2011 architecture arquitectura architektur architettura architektura arquitetura építészet modernismo modernisme modernism moderne" title="Barcelona - La Rambla" url_b="http://static.flickr.com/6189/6158011679_25f6f6a171_b.jpg" username="jaime.silva" views="335" />
<photo  date_taken="2011-08-05 16:14:39" description="" id="6158555948" latitude="41.381389" license="3" longitude="2.173383" nbComments="1" rank="52" tags="barcelona espanha spain españa espanya catalunha catalonia cataluña catalunya august2011 sony sonyalphadslra700 2011 architecture arquitectura architektur architettura architektura arquitetura építészet modernismo modernisme modernism moderne" title="Barcelona - La Rambla" url_b="http://static.flickr.com/6164/6158555948_786ff98528_b.jpg" username="jaime.silva" views="891" />
<photo  date_taken="2011-09-03 19:09:23" description="Newsstand. La Rambla, Barcelona, Spain" id="6109677610" latitude="41.381059" license="1" longitude="2.173061" nbComments="1" rank="53" tags="instagramapp square squareformat iphoneography uploaded:by=instagram normal foursquare:venue=4bfbce6dab180f475b44b4ce" title="System Error" url_b="http://static.flickr.com/6087/6109677610_c5a262a4a0_b.jpg" username="enric archivell" views="20" />
<photo  date_taken="2012-10-14 15:21:44" description="" id="8305465252" latitude="41.381666" license="1" longitude="2.172833" nbComments="0" rank="54" tags="spain barcelona la rambla" title="Spain - Barcelona - La Rambla" url_b="http://static.flickr.com/8355/8305465252_a8fe0bb7b5_b.jpg" username="Fabio - Miami" views="10" />
<photo  date_taken="2011-08-05 16:08:59" description="" id="6158012313" latitude="41.381695" license="3" longitude="2.173243" nbComments="1" rank="55" tags="barcelona espanha spain españa espanya catalunha catalonia cataluña catalunya august2011 sony sonyalphadslra700 2011 architecture arquitectura architektur architettura architektura arquitetura építészet modernismo modernisme modernism moderne" title="Barcelona - La Rambla" url_b="http://static.flickr.com/6174/6158012313_95c4fa96c5_b.jpg" username="jaime.silva" views="417" />
<photo  date_taken="2011-08-05 17:19:53" description="" id="6158561768" latitude="41.381526" license="3" longitude="2.172718" nbComments="2" rank="56" tags="barcelona espanha spain españa espanya catalunha catalonia cataluña catalunya august2011 sony sonyalphadslra700 2011 architecture arquitectura architektur architettura architektura arquitetura építészet modernismo modernisme modernism moderne" title="Barcelona - La Rambla" url_b="http://static.flickr.com/6197/6158561768_584c568681_b.jpg" username="jaime.silva" views="384" />
<photo  date_taken="2010-11-13 14:49:01" description="" id="5194928741" latitude="41.381095" license="3" longitude="2.173275" nbComments="0" rank="57" tags="barcelona la rambla p parking parquing man hombre delivery bike bicylce bici bicicleta street callejero larambla" title="Space" url_b="http://static.flickr.com/4107/5194928741_f6f85c30d0_b.jpg" username="Miles Cave" views="72" />
<photo  date_taken="2013-02-14 14:30:45" description="Une la Plaça de Catalunya con el Monumento a Colón, junto al puerto de Barcelona." id="8533811344" latitude="41.381107" license="6" longitude="2.173297" nbComments="2" rank="58" tags="la rambla larambla barcelona plaçadecatalunya monumentoacolón catalunya catalonia" title="La Rambla" url_b="http://static.flickr.com/8375/8533811344_fabc5d2d2c_b.jpg" username="mahatsorri" views="29" />
<photo  date_taken="2007-08-04 01:37:45" description="A &amp;quot;Chinese&amp;quot; house in the Rambla, Barcelona." id="1108411233" latitude="41.381357" license="1" longitude="2.173436" nbComments="0" rank="59" tags="barcelona rambla" title="La casa dels paraigües, Pla de la Boqueria/la Rambla, Barcelona" url_b="http://static.flickr.com/1344/1108411233_0140448f9a_b.jpg" username="Sebastià Giralt" views="257" />
<photo  date_taken="2011-03-26 13:21:45" description="" id="5590320872" latitude="41.381671" license="1" longitude="2.172798" nbComments="0" rank="60" tags="barcelona catalonia catalunya spain españa europe" title="La Rambla" url_b="http://static.flickr.com/5310/5590320872_c297c20b3c_b.jpg" username="Mark Turner" views="12" />
<photo  date_taken="2012-03-31 16:48:12" description="" id="6958190564" latitude="41.381637" license="4" longitude="2.173351" nbComments="0" rank="61" tags="barcelona spain europe spring canon larambla casabrunocadros dragon chinese" title="Casa Bruno Cadros" url_b="http://static.flickr.com/7075/6958190564_ede0296c73_b.jpg" username="designsbykari" views="73" />
<photo  date_taken="2011-06-05 19:56:53" description="" id="5827948115" latitude="41.381405" license="4" longitude="2.172669" nbComments="0" rank="62" tags="barcelona" title="La Rambla Building 3a" url_b="http://static.flickr.com/2106/5827948115_b020847625_b.jpg" username="ahisgett" views="12" />
<photo  date_taken="2011-06-05 19:56:42" description="" id="5828488252" latitude="41.381405" license="4" longitude="2.172669" nbComments="0" rank="63" tags="barcelona" title="La Rambla Building 3" url_b="http://static.flickr.com/5077/5828488252_ee568ccf11_b.jpg" username="ahisgett" views="11" />
<photo  date_taken="2008-11-30 12:22:50" description="&lt;a href=&quot;http://vicisanti.myfotojournal.com/&quot; rel=&quot;nofollow&quot;&gt;vicisanti.myfotojournal.com/&lt;/a&gt;" id="3082148661" latitude="41.381187" license="3" longitude="2.173393" nbComments="0" rank="64" tags="barcelona rambla ella calle panasonic lumix fz28 fz 28" title="Calle en la Rambla" url_b="http://static.flickr.com/3140/3082148661_1556c22a35_b.jpg" username="sparconada" views="35" />
<photo  date_taken="2008-11-30 12:23:23" description="&lt;a href=&quot;http://vicisanti.myfotojournal.com/&quot; rel=&quot;nofollow&quot;&gt;vicisanti.myfotojournal.com/&lt;/a&gt;" id="3082151011" latitude="41.381187" license="3" longitude="2.173393" nbComments="3" rank="65" tags="barcelona dragón rambla panasonic lumix fz28 fz 28" title="Dragón en la Rambla" url_b="http://static.flickr.com/3099/3082151011_a1de267422_b.jpg" username="sparconada" views="30" />
<photo  date_taken="2010-11-28 20:55:09" description="Rather expensive ..." id="5242086561" latitude="41.381417" license="5" longitude="2.172664" nbComments="0" rank="66" tags="spain catalonia barcelona dayfour larambla" title="Euskal Restaurant" url_b="http://static.flickr.com/5168/5242086561_72f2ba6fdd_b.jpg" username="wallygrom" views="24" />
<photo  date_taken="2010-11-28 19:26:38" description="Sukaldari Restaurant ... (Euskal)" id="5242679158" latitude="41.381417" license="5" longitude="2.172664" nbComments="2" rank="67" tags="spain catalonia barcelona dayfour larambla restaurant euskalrestaurant" title="Enjoy it ..." url_b="http://static.flickr.com/5201/5242679158_7872e5be3a_b.jpg" username="wallygrom" views="18" />
<photo  date_taken="2010-11-28 19:30:13" description="" id="5242086257" latitude="41.381417" license="5" longitude="2.172664" nbComments="0" rank="68" tags="spain catalonia barcelona dayfour larambla euskalrestaurant mural" title="The fisherman at work" url_b="http://static.flickr.com/5169/5242086257_c095edca27_b.jpg" username="wallygrom" views="12" />
<photo  date_taken="2010-11-28 19:27:22" description="" id="5242086091" latitude="41.381417" license="5" longitude="2.172664" nbComments="0" rank="69" tags="spain catalonia barcelona dayfour larambla" title="A very expensive restaurant" url_b="http://static.flickr.com/5168/5242086091_50fb27abc0_b.jpg" username="wallygrom" views="16" />
<photo  date_taken="2010-11-28 19:27:58" description="" id="5242086185" latitude="41.381417" license="5" longitude="2.172664" nbComments="0" rank="70" tags="spain catalonia barcelona dayfour larambla euskalrestaurant mural" title="Fisherman mural" url_b="http://static.flickr.com/5088/5242086185_05068d62ba_b.jpg" username="wallygrom" views="16" />
<photo  date_taken="2009-05-12 08:33:34" description="" id="3524820794" latitude="41.381107" license="5" longitude="2.17334" nbComments="0" rank="71" tags="barcelona βαρκελώνη larambla rambla" title="La Rambla - Barcelona" url_b="http://static.flickr.com/3384/3524820794_6ced8ac529_b.jpg" username="ale3andro" views="62" />
<photo  date_taken="2011-07-25 13:03:09" description="Cerca de la Rambla" id="5974505783" latitude="41.381554" license="1" longitude="2.173426" nbComments="0" rank="72" tags="alley narrow street barcelona" title="Ciutat Vella, Barcelona." url_b="http://static.flickr.com/6015/5974505783_c1fe67d217_b.jpg" username="Jorge_DM" views="494" />
<photo  date_taken="2010-06-02 13:15:50" description="Figura de Dragón chino y paraguas en Casa Bruno Cuadros, edificio premodernista de Josep Vilaseca, conocida como &amp;quot;la casa dels paraigües&amp;quot;, casa de los paraguas. Ramblas Barcelona." id="4663137883" latitude="41.38132" license="1" longitude="2.173501" nbComments="32" rank="73" tags="casadelsparaigües casadelosparaguas dragonchinoyparaguas permodernista josepvilaseca casabrunocuadros ramblas barcelona catalunya nikond60 برشلونة барселоне バルセロナ" title="Casa de los Paraguas La Casa dels Paraigües" url_b="http://static.flickr.com/4038/4663137883_9552e03ebb_b.jpg" username="tetegil" views="302" />
<photo  date_taken="2006-11-12 12:23:24" description="I think this was meant to be the result of a bike accident. It took the poor bloke about an hour to set up and then he has to spend all afternoon upside down. I hope he got a lot of cash." id="298875181" latitude="41.381147" license="3" longitude="2.173442" nbComments="0" rank="74" tags="larambla humanstatue barcelona spain holiday d50" title="La Rambla human statue" url_b="http://static.flickr.com/103/298875181_d60a80a953_b.jpg" username="d_m_b" views="156" />
<photo  date_taken="2011-01-05 12:49:15" description="Mercat Boqueria" id="5379303384" latitude="41.381461" license="3" longitude="2.1726" nbComments="0" rank="75" tags="mercat boqueria flower market la rambla larambla vendors goodies food flowers nut nuts cheese cheeses fruit juices fruits meat jamon jambon ham serrano heads fish pepper capsicum peppers dried crab crabs lobster lobsters shrimp barcelona barça spain españa catalunya catalonia catalan español spanish south east southeast winter" title="Barcelona055" url_b="http://static.flickr.com/5167/5379303384_d142c5d4c0_b.jpg" username="Royal Olive" views="107" />
<photo  date_taken="2011-01-05 12:37:34" description="Mercat Boqueria" id="5379303220" latitude="41.381461" license="3" longitude="2.1726" nbComments="0" rank="76" tags="mercat boqueria flower market la rambla larambla vendors goodies food flowers nut nuts cheese cheeses fruit juices fruits meat jamon jambon ham serrano heads fish pepper capsicum peppers dried crab crabs lobster lobsters shrimp barcelona barça spain españa catalunya catalonia catalan español spanish south east southeast winter" title="Barcelona053" url_b="http://static.flickr.com/5086/5379303220_a5ff3bf762_b.jpg" username="Royal Olive" views="92" />
<photo  date_taken="2011-01-05 12:55:08" description="Mercat Boqueria" id="5379303640" latitude="41.381461" license="3" longitude="2.1726" nbComments="0" rank="77" tags="mercat boqueria flower market la rambla larambla vendors goodies food flowers nut nuts cheese cheeses fruit juices fruits meat jamon jambon ham serrano heads fish pepper capsicum peppers dried crab crabs lobster lobsters shrimp barcelona barça spain españa catalunya catalonia catalan español spanish south east southeast winter" title="Barcelona057" url_b="http://static.flickr.com/5250/5379303640_6b2fb46610_b.jpg" username="Royal Olive" views="101" />
<photo  date_taken="2011-01-05 12:34:36" description="Mercat Boqueria" id="5379302684" latitude="41.381461" license="3" longitude="2.1726" nbComments="0" rank="78" tags="mercat boqueria flower market la rambla larambla vendors goodies food flowers nut nuts cheese cheeses fruit juices fruits meat jamon jambon ham serrano heads fish pepper capsicum peppers dried crab crabs lobster lobsters shrimp barcelona barça spain españa catalunya catalonia catalan español spanish south east southeast winter" title="Barcelona048" url_b="http://static.flickr.com/5007/5379302684_e38625a95b_b.jpg" username="Royal Olive" views="89" />
<photo  date_taken="2011-01-05 12:55:53" description="Flower shop on La Rambla" id="5378703355" latitude="41.381461" license="3" longitude="2.1726" nbComments="0" rank="79" tags="mercat boqueria flower market la rambla larambla vendors goodies food flowers nut nuts cheese cheeses fruit juices fruits meat jamon jambon ham serrano heads fish pepper capsicum peppers dried crab crabs lobster lobsters shrimp barcelona barça spain españa catalunya catalonia catalan español spanish south east southeast winter" title="Barcelona058" url_b="http://static.flickr.com/5049/5378703355_f7cc85dfc8_b.jpg" username="Royal Olive" views="92" />
<photo  date_taken="2011-01-05 12:32:30" description="Mercat Boqueria" id="5378701803" latitude="41.381461" license="3" longitude="2.1726" nbComments="0" rank="80" tags="mercat boqueria flower market la rambla larambla vendors goodies food flowers nut nuts cheese cheeses fruit juices fruits meat jamon jambon ham serrano heads fish pepper capsicum peppers dried crab crabs lobster lobsters shrimp barcelona barça spain españa catalunya catalonia catalan español spanish south east southeast winter" title="Barcelona043" url_b="http://static.flickr.com/5087/5378701803_776a16edb2_b.jpg" username="Royal Olive" views="83" />
<photo  date_taken="2011-01-05 12:35:02" description="Mercat Boqueria" id="5379302776" latitude="41.381461" license="3" longitude="2.1726" nbComments="0" rank="81" tags="mercat boqueria flower market la rambla larambla vendors goodies food flowers nut nuts cheese cheeses fruit juices fruits meat jamon jambon ham serrano heads fish pepper capsicum peppers dried crab crabs lobster lobsters shrimp barcelona barça spain españa catalunya catalonia catalan español spanish south east southeast winter" title="Barcelona049" url_b="http://static.flickr.com/5004/5379302776_50a4711bee_b.jpg" username="Royal Olive" views="74" />
<photo  date_taken="2011-01-05 12:34:10" description="Mercat Boqueria" id="5379302578" latitude="41.381461" license="3" longitude="2.1726" nbComments="0" rank="82" tags="mercat boqueria flower market la rambla larambla vendors goodies food flowers nut nuts cheese cheeses fruit juices fruits meat jamon jambon ham serrano heads fish pepper capsicum peppers dried crab crabs lobster lobsters shrimp barcelona barça spain españa catalunya catalonia catalan español spanish south east southeast winter" title="Barcelona047" url_b="http://static.flickr.com/5090/5379302578_33ee1882ea_b.jpg" username="Royal Olive" views="82" />
<photo  date_taken="2011-01-05 12:35:23" description="Mercat Boqueria" id="5379302866" latitude="41.381461" license="3" longitude="2.1726" nbComments="0" rank="83" tags="mercat boqueria flower market la rambla larambla vendors goodies food flowers nut nuts cheese cheeses fruit juices fruits meat jamon jambon ham serrano heads fish pepper capsicum peppers dried crab crabs lobster lobsters shrimp barcelona barça spain españa catalunya catalonia catalan español spanish south east southeast winter" title="Barcelona050" url_b="http://static.flickr.com/5161/5379302866_7dc9602b98_b.jpg" username="Royal Olive" views="73" />
<photo  date_taken="2011-01-05 12:38:31" description="Mercat Boqueria" id="5378702881" latitude="41.381461" license="3" longitude="2.1726" nbComments="0" rank="84" tags="mercat boqueria flower market la rambla larambla vendors goodies food flowers nut nuts cheese cheeses fruit juices fruits meat jamon jambon ham serrano heads fish pepper capsicum peppers dried crab crabs lobster lobsters shrimp barcelona barça spain españa catalunya catalonia catalan español spanish south east southeast winter calf testicle testicles goat head skinned" title="Barcelona054" url_b="http://static.flickr.com/5082/5378702881_b2996eb0d7_b.jpg" username="Royal Olive" views="164" />
<photo  date_taken="2011-01-05 12:35:42" description="Mercat Boqueria" id="5379302954" latitude="41.381461" license="3" longitude="2.1726" nbComments="0" rank="85" tags="mercat boqueria flower market la rambla larambla vendors goodies food flowers nut nuts cheese cheeses fruit juices fruits meat jamon jambon ham serrano heads fish pepper capsicum peppers dried crab crabs lobster lobsters shrimp barcelona barça spain españa catalunya catalonia catalan español spanish south east southeast winter" title="Barcelona051" url_b="http://static.flickr.com/5284/5379302954_f0b9351eae_b.jpg" username="Royal Olive" views="81" />
<photo  date_taken="2011-01-05 12:54:10" description="Mercat Boqueria" id="5378703141" latitude="41.381461" license="3" longitude="2.1726" nbComments="0" rank="86" tags="mercat boqueria flower market la rambla larambla vendors goodies food flowers nut nuts cheese cheeses fruit juices fruits meat jamon jambon ham serrano heads fish pepper capsicum peppers dried crab crabs lobster lobsters shrimp barcelona barça spain españa catalunya catalonia catalan español spanish south east southeast winter" title="Barcelona056" url_b="http://static.flickr.com/5044/5378703141_91844af90a_b.jpg" username="Royal Olive" views="78" />
<photo  date_taken="2011-01-05 12:37:13" description="Mercat Boqueria" id="5378702729" latitude="41.381461" license="3" longitude="2.1726" nbComments="0" rank="87" tags="mercat boqueria flower market la rambla larambla vendors goodies food flowers nut nuts cheese cheeses fruit juices fruits meat jamon jambon ham serrano heads fish pepper capsicum peppers dried crab crabs lobster lobsters shrimp barcelona barça spain españa catalunya catalonia catalan español spanish south east southeast winter" title="Barcelona052" url_b="http://static.flickr.com/5164/5378702729_b0307d0b2d_b.jpg" username="Royal Olive" views="52" />
<photo  date_taken="2011-01-05 12:33:39" description="Mercat Boqueria" id="5379302486" latitude="41.381461" license="3" longitude="2.1726" nbComments="0" rank="88" tags="mercat boqueria flower market la rambla larambla vendors goodies food flowers nut nuts cheese cheeses fruit juices fruits meat jamon jambon ham serrano heads fish pepper capsicum peppers dried crab crabs lobster lobsters shrimp barcelona barça spain españa catalunya catalonia catalan español spanish south east southeast winter" title="Barcelona046" url_b="http://static.flickr.com/5283/5379302486_8bc8c6563e_b.jpg" username="Royal Olive" views="65" />
<photo  date_taken="2011-01-05 12:33:03" description="Mercat Boqueria" id="5379302204" latitude="41.381461" license="3" longitude="2.1726" nbComments="0" rank="89" tags="mercat boqueria flower market la rambla larambla vendors goodies food flowers nut nuts cheese cheeses fruit juices fruits meat jamon jambon ham serrano heads fish pepper capsicum peppers dried crab crabs lobster lobsters shrimp barcelona barça spain españa catalunya catalonia catalan español spanish south east southeast winter" title="Barcelona044" url_b="http://static.flickr.com/5290/5379302204_213da98298_b.jpg" username="Royal Olive" views="55" />
<photo  date_taken="2011-06-05 17:30:12" description="" id="5822141775" latitude="41.381469" license="4" longitude="2.173517" nbComments="0" rank="90" tags="barcelona" title="La Rambla 1" url_b="http://static.flickr.com/3008/5822141775_4a5959db42_b.jpg" username="ahisgett" views="16" />
<photo  date_taken="2012-06-24 15:26:59" description="" id="7432028136" latitude="41.381" license="1" longitude="2.173333" nbComments="0" rank="91" tags="" title="La Rambla is burning" url_b="http://static.flickr.com/7114/7432028136_91af4a72ec_b.jpg" username="Michal Sänger" views="19" />
<photo  date_taken="2011-06-05 19:59:16" description="" id="5831559731" latitude="41.38153" license="4" longitude="2.172594" nbComments="0" rank="92" tags="barcelona" title="La Rambla 4" url_b="http://static.flickr.com/2746/5831559731_8eb7bde9ac_b.jpg" username="ahisgett" views="13" />
<photo  date_taken="2011-06-05 19:58:34" description="" id="5822761564" latitude="41.38153" license="4" longitude="2.172594" nbComments="0" rank="93" tags="barcelona" title="Shop Sign La Rambla" url_b="http://static.flickr.com/2187/5822761564_d041e4a1de_b.jpg" username="ahisgett" views="20" />
<photo  date_taken="2009-03-05 13:51:56" description="You can DRINK chocolate there. really!!!" id="3395326391" latitude="41.381574" license="4" longitude="2.172595" nbComments="0" rank="94" tags="spain barcelona serge melki nikon d300 larambla barca espana 18200mmf3556gvr laramblaway sooc escriba chocolate" title="Escriba - Chocolate Factory" url_b="http://static.flickr.com/3451/3395326391_b7fd9e0475_b.jpg" username="Serge Melki" views="259" />
<photo  date_taken="2008-04-23 14:05:27" description="Vista de la fachada del teatro del Liceu situado en la Rambla de Barcelona" id="2506638082" latitude="41.380938" license="3" longitude="2.173318" nbComments="1" rank="95" tags="teatro liceu rambla barcelona" title="Teatre del Liceu" url_b="http://static.flickr.com/3166/2506638082_8f28397e14_b.jpg" username="elmaky74" views="107" />
<photo  date_taken="2011-09-19 20:16:04" description="" id="6263026667" latitude="41.380894" license="3" longitude="2.173259" nbComments="0" rank="96" tags="barcelona street night time de noche callejero robado candid corner esquina telephone mobil man hombre larambla la rambla" title="Phone call" url_b="http://static.flickr.com/6175/6263026667_4aa39ce6a7_b.jpg" username="Miles Cave" views="89" />
<photo  date_taken="2011-08-05 17:09:55" description="Cafè de L'Òpera" id="6158558508" latitude="41.381187" license="3" longitude="2.173576" nbComments="0" rank="97" tags="barcelona espanha spain españa espanya catalunha catalonia cataluña catalunya august2011 sony sonyalphadslra700 2011 architecture arquitectura architektur architettura architektura arquitetura építészet modernismo modernisme modernism moderne" title="Barcelona - La Rambla" url_b="http://static.flickr.com/6154/6158558508_8456af1537_b.jpg" username="jaime.silva" views="479" />
<photo  date_taken="2010-05-30 10:05:32" description="" id="4679505571" latitude="41.381848" license="1" longitude="2.173393" nbComments="0" rank="98" tags="nearlarambla barcelona spain" title="" url_b="http://static.flickr.com/4034/4679505571_66b8c1244e_b.jpg" username="John_B" views="10" />
<photo  date_taken="2012-07-30 14:32:55" description="Barcelona in Spanien / Spain / España La Rambla" id="7843625592" latitude="41.380938" license="1" longitude="2.173411" nbComments="0" rank="99" tags="deutschland deu gebäudebuildings kunstart canonef24105mmf4lisusm skulptur barcelona spanien canoneos7d flickr 2012" title="2012-07-30T15_32_56" url_b="http://static.flickr.com/7267/7843625592_7e72a06e0b_b.jpg" username="DrMartinus" views="5" />
<photo  date_taken="2011-04-12 17:58:36" description="Si paseas por las Ramblas de Barcelona, no dejes de entrar a la Boquería. Una explosión de colores, olores y texturas" id="5614655316" latitude="41.381671" license="1" longitude="2.172551" nbComments="12" rank="100" tags="barcelona spain boqueria market mercado lasramblas fruits frutos frutas pacoct 2011 esp fruta fruit order orden laboqueria pattern patron pauta comida comestible food alimento sano healthy saludable wholesome abundancia abundance muchos many monton pile heap pila natural comidavegetariana vegetarian vegetariano mango mangos" title="Boqueriando (1/3)" url_b="http://static.flickr.com/5102/5614655316_bb4285cf1a_b.jpg" username="Paco CT" views="98" />
<photo  date_taken="2011-04-12 17:59:05" description="Si paseas por las Ramblas de Barcelona, no dejes de entrar a la Boquería. Una explosión de colores, olores y texturas" id="5614654904" latitude="41.381671" license="1" longitude="2.172551" nbComments="7" rank="101" tags="barcelona spain boqueria market mercado lasramblas fruits frutos frutas pacoct 2011 esp fruta fruit order orden laboqueria pattern patron pauta comida comestible food alimento sano healthy saludable wholesome natural abundancia abundance muchos many monton pile heap pila comidavegetariana vegetarian vegetariano" title="Boqueriando (2/3)" url_b="http://static.flickr.com/5069/5614654904_e7b179bf20_b.jpg" username="Paco CT" views="138" />
<photo  date_taken="2011-04-12 18:05:31" description="La Boquería, una joya viva de Barcelona!" id="5617377630" latitude="41.381671" license="1" longitude="2.172551" nbComments="1" rank="102" tags="barcelona spain boqueria market mercado lasramblas judiasverdes greenbeans frenchbeans pacoct 2011 esp fruta fruit order orden laboqueria pattern patron pauta comida comestible food alimento sano healthy saludable wholesome abundancia abundance muchos many natural monton pile heap pila comidavegetariana vegetarian vegetariano judias greenbean" title="Boqueriando II (3/3)" url_b="http://static.flickr.com/5148/5617377630_ef562c884b_b.jpg" username="Paco CT" views="81" />
<photo  date_taken="2009-06-19 16:04:28" description="" id="5787952461" latitude="41.380936" license="2" longitude="2.173436" nbComments="0" rank="103" tags="ramblas" title="" url_b="http://static.flickr.com/3221/5787952461_30fa5814a9_b.jpg" username="saraseo" views="3" />
<photo  date_taken="2008-10-25 11:50:46" description="3 Imagenes Raw tratadas con Photomatix 3.1 Casa Bruno Cuadros, &amp;quot;Casa de los Paraguas&amp;quot;. Rambla, 82 / Pla de la Boqueria, 1 BARCELONA Ruta del Modernisme de Barcelona. Aquest edifici, construït el 1858, va ser remodelat el 1883 per Josep Vilaseca. Hi destaquen les ombrel·les i ventalls de foneria. L'element més emblemàtic és l'original drac xinès de la cantonada, que sosté un fanal de ferro del qual penja un paraigua. Este edificio construido en 1858 fue remodelado en 1883 por Josep Vilaseca. Destacan sus paraguas en la fachada del edificio. Tiene un espectacular dragon en la esquina del edificio que sostiene un pequeño farol y un gran paraguas. Originally a residential building from the 18th century in a corner of La Rambla, the house was reformed by Josep Vilaseca in the late 19th century, in his typical eclectic, pre-modernista style. The building was known for the umbrellas shop owned by Bruno Cuadros. Apart from the curious collages made with umbrellas that cover and decorate the facade, there's also a sculpture of a chinese dragon." id="3009963097" latitude="41.381775" license="3" longitude="2.172589" nbComments="0" rank="104" tags="casadelosparaguas casabrunocuadros josepvilaseca modernisme barcelona dragon" title="Casa de los Paraguas" url_b="http://static.flickr.com/3060/3009963097_efd3262f94_b.jpg" username="xn44" views="378" />
<photo  date_taken="2008-10-25 11:49:33" description="3 Imagenes Raw tratadas con Photomatix 3.1 Casa Bruno Cuadros, &amp;quot;Casa de los Paraguas&amp;quot;. Rambla, 82 / Pla de la Boqueria, 1 BARCELONA Ruta del Modernisme de Barcelona. Aquest edifici, construït el 1858, va ser remodelat el 1883 per Josep Vilaseca. Hi destaquen les ombrel·les i ventalls de foneria. L'element més emblemàtic és l'original drac xinès de la cantonada, que sosté un fanal de ferro del qual penja un paraigua. Este edificio construido en 1858 fue remodelado en 1883 por Josep Vilaseca. Destacan sus paraguas en la fachada del edificio. Tiene un espectacular dragon en la esquina del edificio que sostiene un pequeño farol y un gran paraguas. Originally a residential building from the 18th century in a corner of La Rambla, the house was reformed by Josep Vilaseca in the late 19th century, in his typical eclectic, pre-modernista style. The building was known for the umbrellas shop owned by Bruno Cuadros. Apart from the curious collages made with umbrellas that cover and decorate the facade, there's also a sculpture of a chinese dragon." id="3007622653" latitude="41.381775" license="3" longitude="2.172589" nbComments="0" rank="105" tags="casabrunocuadros casadelosparaguas barcelona ramblasdebarcelona" title="Casa de los Paraguas" url_b="http://static.flickr.com/3017/3007622653_53fc8a4320_b.jpg" username="xn44" views="242" />
<photo  date_taken="2008-10-25 11:48:48" description="3 Imagenes Raw tratadas con Photomatix 3.1 Casa Bruno Cuadros, &amp;quot;Casa de los Paraguas&amp;quot;. Rambla, 82 / Pla de la Boqueria, 1 BARCELONA Ruta del Modernisme de Barcelona. Aquest edifici, construït el 1858, va ser remodelat el 1883 per Josep Vilaseca. Hi destaquen les ombrel·les i ventalls de foneria. L'element més emblemàtic és l'original drac xinès de la cantonada, que sosté un fanal de ferro del qual penja un paraigua. Este edificio construido en 1858 fue remodelado en 1883 por Josep Vilaseca. Destacan sus paraguas en la fachada del edificio. Tiene un espectacular dragon en la esquina del edificio que sostiene un pequeño farol y un gran paraguas. Originally a residential building from the 18th century in a corner of La Rambla, the house was reformed by Josep Vilaseca in the late 19th century, in his typical eclectic, pre-modernista style. The building was known for the umbrellas shop owned by Bruno Cuadros. Apart from the curious collages made with umbrellas that cover and decorate the facade, there's also a sculpture of a chinese dragon." id="3007717263" latitude="41.381775" license="3" longitude="2.172589" nbComments="2" rank="106" tags="casabrunocuadros casadelosparaguas modernisme barcelona ramblasdebarcelona" title="Casa de los Paraguas" url_b="http://static.flickr.com/3197/3007717263_297f5e09fd_b.jpg" username="xn44" views="298" />
<photo  date_taken="2012-04-28 12:50:18" description="...a la Rambla, Barcelona" id="6986534836" latitude="41.380862" license="1" longitude="2.173392" nbComments="0" rank="107" tags="barcelona" title="Abrazos gratis" url_b="http://static.flickr.com/8002/6986534836_6168f1f5f9_b.jpg" username="andreaerdna" views="22" />
<photo  date_taken="2010-02-20 07:32:36" description="by &lt;a href=&quot;http://nye.cat&quot; rel=&quot;nofollow&quot;&gt;nye.cat&lt;/a&gt;" id="4385669256" latitude="41.380888" license="3" longitude="2.17349" nbComments="0" rank="108" tags="hdr barcelona rambla rambles estatua humana nye" title="Estàtua humana a la Rambla (Barcelona)" url_b="http://static.flickr.com/2707/4385669256_9031c5e452_b.jpg" username="nyë" views="171" />
<photo  date_taken="2011-06-05 12:00:54" description="At the southern end, before noon on a Sunday, La Rambla in Barcelona wasn't too much of a madhouse." id="5812622966" latitude="41.380882" license="1" longitude="2.173501" nbComments="0" rank="109" tags="larambla lasramblas streetscape 1105spainanditaly spain barcelona 2011" title="La Rambla" url_b="http://static.flickr.com/5117/5812622966_e5e2abaf06_b.jpg" username="jacdupree" views="132" />
<photo  date_taken="2011-11-20 12:55:31" description="Victòria. Barcelona. La Rambla (façana de l'hotel Oriente)" id="6371440039" latitude="41.380793" license="1" longitude="2.173393" nbComments="0" rank="110" tags="barcelona greekmythology classicaltradition" title="Victòria. Barcelona. La Rambla" url_b="http://static.flickr.com/6051/6371440039_82e60fa2a4_b.jpg" username="Pilar Torres" views="47" />
<photo  date_taken="2008-10-15 17:41:37" description="No hay mas que decir, definitivamente si. Aunque sean de piedra y esten enganchados a la pared. Visto en Barcelona, Ramblas. There's no more to say. The do exist. Even if they are made of stone and are stuck on walls. As seen in Barcelona, Ramblas. Por favor, criticad todo lo que os parezca conveniente, eso es lo que me ayudara a mejorar para la proxima vez! Please, criticize everything that seems convinient to you, those are the little things that help me go further the next time! &lt;a href=&quot;http://creativecommons.org/licenses/by-nc-sa/3.0/&quot; rel=&quot;nofollow&quot;&gt;&lt;/a&gt;Aquesta obra est&amp;#224; subjecta a una llic&amp;#232;ncia de &lt;a href=&quot;http://creativecommons.org/licenses/by-nc-sa/3.0/&quot; rel=&quot;nofollow&quot;&gt;Reconeixement-No comercial-Compartir Igual 3.0 No adaptada de Creative Commons&lt;/a&gt; Per qualsevol altre us, contacteu amb mi a: danferb(at)gmail.com Para cualquier otro uso, contactad conmigo en: danferb(at)gmail.com For any other use, send an e-mail to: danferb(at)gmail.com" id="2982323403" latitude="41.380825" license="3" longitude="2.17349" nbComments="3" rank="111" tags="dragon paraguas andamios abanico luz barcelona tarde verde azul amarillo grislight lampara green blue yellow afternoon lightroom adobelightroom urbanfragmentsnopeople adobe dfb digital geotagged geotag" title="Do Dragons Exist? (In Ramblas)" url_b="http://static.flickr.com/3023/2982323403_29824c116f_b.jpg" username="Danferb (Migrando a 500px... =) )" views="168" />
<photo  date_taken="2011-10-14 18:31:11" description="La Rambla, Barcelona" id="6244073124" latitude="41.380935" license="1" longitude="2.173613" nbComments="0" rank="112" tags="instagramapp square squareformat iphoneography uploaded:by=instagram hefe foursquare:venue=4adcda4df964a5201a4021e3" title="Barcelona Architecture" url_b="http://static.flickr.com/6174/6244073124_5e35d0f81f_b.jpg" username="enric archivell" views="6" />
<photo  date_taken="2011-06-05 17:31:25" description="" id="5822154555" latitude="41.380696" license="4" longitude="2.173324" nbComments="0" rank="113" tags="barcelona" title="Teatre Del Liceu La Rambla" url_b="http://static.flickr.com/2074/5822154555_012ecbaa69_b.jpg" username="ahisgett" views="26" />
<photo  date_taken="2009-11-22 07:49:06" description="" id="4131150609" latitude="41.381952" license="1" longitude="2.172558" nbComments="0" rank="114" tags="barcelona spain larambla" title="Brid vendors in La Rambla" url_b="http://static.flickr.com/2720/4131150609_33a27fddb5_b.jpg" username="k_paulinka" views="11" />
<photo  date_taken="2009-11-22 07:47:12" description="" id="4131149047" latitude="41.381952" license="1" longitude="2.172558" nbComments="0" rank="115" tags="barcelona spain larambla" title="La Rambla" url_b="http://static.flickr.com/2782/4131149047_3b66d3e707_b.jpg" username="k_paulinka" views="11" />
<photo  date_taken="2009-11-22 07:47:39" description="" id="4131912250" latitude="41.381952" license="1" longitude="2.172558" nbComments="0" rank="116" tags="barcelona spain larambla" title="Selling pets at La Rambla" url_b="http://static.flickr.com/2775/4131912250_1e46b54e37_b.jpg" username="k_paulinka" views="33" />
<photo  date_taken="2009-11-22 07:47:23" description="" id="4131911658" latitude="41.381952" license="1" longitude="2.172558" nbComments="0" rank="117" tags="barcelona spain larambla" title="La Rambla" url_b="http://static.flickr.com/2641/4131911658_b0689f1743_b.jpg" username="k_paulinka" views="57" />
<photo  date_taken="2011-08-08 10:32:00" description="" id="6038872110" latitude="41.381934" license="4" longitude="2.172511" nbComments="0" rank="118" tags="barcelona barca spain granhavana silkengranhavana laramblas canon60d placacatalunya barcelonaspain spainbarcelona bcn catalunya canon eos60d 60d efs tamron1755mmnonvc tamron eos canoneos canoncamera dslr slr" title="Las Ramblas" url_b="http://static.flickr.com/6089/6038872110_95da99aa2b_b.jpg" username="EMjBU" views="21" />
<photo  date_taken="2011-08-08 10:33:14" description="" id="6038338247" latitude="41.381934" license="4" longitude="2.172511" nbComments="0" rank="119" tags="barcelona barca spain granhavana silkengranhavana laramblas canon60d placacatalunya barcelonaspain spainbarcelona bcn catalunya canon eos60d 60d efs tamron1755mmnonvc tamron eos canoneos canoncamera dslr slr" title="Las Ramblas" url_b="http://static.flickr.com/6086/6038338247_a97d063380_b.jpg" username="EMjBU" views="17" />
<photo  date_taken="2011-08-08 10:32:34" description="" id="6038879648" latitude="41.381934" license="4" longitude="2.172511" nbComments="0" rank="120" tags="barcelona barca spain granhavana silkengranhavana laramblas canon60d placacatalunya barcelonaspain spainbarcelona bcn catalunya canon eos60d 60d efs tamron1755mmnonvc tamron eos canoneos canoncamera dslr slr" title="Las Ramblas" url_b="http://static.flickr.com/6123/6038879648_acd7deb19f_b.jpg" username="EMjBU" views="20" />
<photo  date_taken="2011-08-10 09:46:45" description="" id="6041194814" latitude="41.381934" license="4" longitude="2.172511" nbComments="0" rank="121" tags="barcelona barca spain granhavana silkengranhavana laramblas canon60d placacatalunya barcelonaspain spainbarcelona bcn catalunya canon eos60d 60d efs tamron1755mmnonvc tamron eos canoneos canoncamera dslr slr" title="Las Ramblas" url_b="http://static.flickr.com/6071/6041194814_7796cc13f9_b.jpg" username="EMjBU" views="14" />
<photo  date_taken="2011-08-10 20:14:35" description="" id="6041321432" latitude="41.381934" license="4" longitude="2.172511" nbComments="0" rank="122" tags="barcelona barca spain granhavana silkengranhavana laramblas canon60d placacatalunya barcelonaspain spainbarcelona bcn catalunya canon eos60d 60d efs tamron1755mmnonvc tamron eos canoneos canoncamera dslr slr" title="Las Ramblas Street performer" url_b="http://static.flickr.com/6128/6041321432_f127575cc4_b.jpg" username="EMjBU" views="24" />
<photo  date_taken="2011-08-10 20:01:42" description="" id="6040765385" latitude="41.381934" license="4" longitude="2.172511" nbComments="0" rank="123" tags="barcelona barca spain granhavana silkengranhavana laramblas canon60d placacatalunya barcelonaspain spainbarcelona bcn catalunya canon eos60d 60d efs tamron1755mmnonvc tamron eos canoneos canoncamera dslr slr" title="Las Ramblas" url_b="http://static.flickr.com/6206/6040765385_c750d349ba_b.jpg" username="EMjBU" views="25" />
<photo  date_taken="2008-06-06 13:47:06" description="La cara no turística de BCN a un pas de la rambla" id="2556410789" latitude="41.381268" license="1" longitude="2.172288" nbComments="0" rank="124" tags="bcn" title="# 071" url_b="http://static.flickr.com/3132/2556410789_72b864d3d3_b.jpg" username="rumataro (very busy lately)" views="0" />
<photo  date_taken="2004-06-14 14:46:45" description="" id="1332344768" latitude="41.381948" license="1" longitude="2.172487" nbComments="0" rank="125" tags="barcelona larambla thom" title="Thom pays the man" url_b="http://static.flickr.com/1364/1332344768_02782d7d07_b.jpg" username="Becky E" views="540" />
<photo  date_taken="2009-04-26 14:35:11" description="" id="3558020440" latitude="41.380825" license="4" longitude="2.173629" nbComments="1" rank="126" tags="barcelona βαρκελώνη paella παέγια streetperfomance larambla streetartist decapitaded touristic attraction ciutatvella" title="Paella Catalana" url_b="http://static.flickr.com/3615/3558020440_b4abfb686d_b.jpg" username="aleξ" views="198" />
<photo  date_taken="2011-02-03 20:42:41" description="" id="5413921825" latitude="41.380871" license="2" longitude="2.173672" nbComments="0" rank="127" tags="barcelona larambla street" title="la rambla – portraitist" url_b="http://static.flickr.com/4118/5413921825_4c5d02aa6f_b.jpg" username="Steven_at" views="48" />
<photo  date_taken="2009-11-03 17:18:17" description="" id="4460465565" latitude="41.380871" license="5" longitude="2.173672" nbComments="0" rank="128" tags="macro ville geotagged" title="La Rambla" url_b="http://static.flickr.com/2686/4460465565_4ed52369aa_b.jpg" username="Damien Clauzel" views="2" />
<photo  date_taken="2011-04-03 19:00:27" description="Siempre se encuentra gente curiosa paseando por La Rambla" id="5591670697" latitude="41.380871" license="1" longitude="2.173672" nbComments="0" rank="129" tags="barcelona payaso ramblas" title="Haciendo el Payaso 2" url_b="http://static.flickr.com/5147/5591670697_ac08a5bd1a_b.jpg" username="Predicatore" views="24" />
<photo  date_taken="2009-11-03 17:10:35" description="" id="4461235386" latitude="41.380871" license="5" longitude="2.173672" nbComments="0" rank="130" tags="ville geotagged" title="La Rambla" url_b="http://static.flickr.com/4027/4461235386_8b0c734b10_b.jpg" username="Damien Clauzel" views="0" />
<photo  date_taken="2009-11-03 17:14:49" description="" id="4461241524" latitude="41.380871" license="5" longitude="2.173672" nbComments="0" rank="131" tags="ville geotagged" title="Sculpture vivante sur La Rambla" url_b="http://static.flickr.com/4036/4461241524_7671463f35_b.jpg" username="Damien Clauzel" views="1" />
<photo  date_taken="2011-04-03 18:59:11" description="Siempre se encuentra gente curiosa paseando por La Rambla" id="5592262304" latitude="41.380871" license="1" longitude="2.173672" nbComments="0" rank="132" tags="barcelona payaso ramblas" title="Haciendo el Payaso" url_b="http://static.flickr.com/5185/5592262304_22681b03d4_b.jpg" username="Predicatore" views="15" />
<photo  date_taken="2009-11-03 17:15:51" description="" id="4461243236" latitude="41.380871" license="5" longitude="2.173672" nbComments="0" rank="133" tags="macro ville geotagged" title="La Rambla" url_b="http://static.flickr.com/4070/4461243236_2dc7dbc7af_b.jpg" username="Damien Clauzel" views="0" />
<photo  date_taken="2009-11-03 17:13:02" description="" id="4461239670" latitude="41.380871" license="5" longitude="2.173672" nbComments="0" rank="134" tags="macro ville geotagged" title="La Rambla" url_b="http://static.flickr.com/4041/4461239670_61fa12df25_b.jpg" username="Damien Clauzel" views="1" />
<photo  date_taken="2009-11-03 17:10:59" description="" id="4460458581" latitude="41.380871" license="5" longitude="2.173672" nbComments="0" rank="135" tags="ville geotagged" title="La Rambla" url_b="http://static.flickr.com/4065/4460458581_3d289afc0c_b.jpg" username="Damien Clauzel" views="1" />
<photo  date_taken="2008-03-24 17:25:16" description="" id="3421599968" latitude="41.380761" license="2" longitude="2.173565" nbComments="2" rank="136" tags="k200d barcelona larambla streetperformer spain espagne españa" title="La Rambla street performer" url_b="http://static.flickr.com/3393/3421599968_00f6e30178_b.jpg" username="Jonathan Taglione" views="7" />
<photo  date_taken="2008-03-25 09:48:21" description="" id="3421590596" latitude="41.380761" license="2" longitude="2.173565" nbComments="2" rank="137" tags="k200d barcelona larambla streetperformer spain espagne españa" title="La Rambla street performer" url_b="http://static.flickr.com/3652/3421590596_e0a383ef4f_b.jpg" username="Jonathan Taglione" views="34" />
<photo  date_taken="2008-03-24 18:14:48" description="" id="3420764623" latitude="41.380761" license="2" longitude="2.173565" nbComments="0" rank="138" tags="k200d barcelona larambla spain espagne españa" title="Birds shop, La Rambla" url_b="http://static.flickr.com/3311/3420764623_194497b156_b.jpg" username="Jonathan Taglione" views="23" />
<photo  date_taken="2008-03-24 17:24:45" description="" id="3421590608" latitude="41.380761" license="2" longitude="2.173565" nbComments="0" rank="139" tags="k200d barcelona larambla streetperformer spain espagne españa" title="La Rambla street performers" url_b="http://static.flickr.com/3609/3421590608_ee004c1aa7_b.jpg" username="Jonathan Taglione" views="46" />
<photo  date_taken="2008-03-25 09:52:58" description="" id="3421590584" latitude="41.380761" license="2" longitude="2.173565" nbComments="0" rank="140" tags="k200d barcelona larambla spain espagne españa" title="La Rambla" url_b="http://static.flickr.com/3638/3421590584_724f996322_b.jpg" username="Jonathan Taglione" views="18" />
<photo  date_taken="2008-03-24 17:21:31" description="" id="3421590586" latitude="41.380761" license="2" longitude="2.173565" nbComments="0" rank="141" tags="k200d barcelona larambla spain espagne españa" title="La Rambla" url_b="http://static.flickr.com/3330/3421590586_ef0f7c1ab0_b.jpg" username="Jonathan Taglione" views="4" />
<photo  date_taken="2008-03-24 17:23:48" description="" id="3420764661" latitude="41.380761" license="2" longitude="2.173565" nbComments="0" rank="142" tags="k200d barcelona larambla spain espagne españa" title="La Rambla" url_b="http://static.flickr.com/3303/3420764661_8b356466f8_b.jpg" username="Jonathan Taglione" views="18" />
<photo  date_taken="2008-03-25 12:19:45" description="" id="3421599964" latitude="41.380761" license="2" longitude="2.173565" nbComments="0" rank="143" tags="k200d barcelona larambla streetperformer spain espagne españa" title="La Rambla street performers" url_b="http://static.flickr.com/3539/3421599964_ede371611d_b.jpg" username="Jonathan Taglione" views="17" />
<photo  date_taken="2008-03-24 18:39:10" description="" id="3420764609" latitude="41.380761" license="2" longitude="2.173565" nbComments="0" rank="144" tags="k200d barcelona larambla spain espagne españa" title="La Rambla" url_b="http://static.flickr.com/3637/3420764609_b9666a558d_b.jpg" username="Jonathan Taglione" views="8" />
<photo  date_taken="2008-03-25 09:31:20" description="" id="3420279813" latitude="41.380761" license="2" longitude="2.173565" nbComments="0" rank="145" tags="k200d barcelona larambla dragon spain espagne españa" title="La Rambla Dragon" url_b="http://static.flickr.com/3631/3420279813_3bb97f636a_b.jpg" username="Jonathan Taglione" views="14" />
<photo  date_taken="2008-03-25 16:15:04" description="" id="3421083334" latitude="41.380761" license="2" longitude="2.173565" nbComments="0" rank="146" tags="k200d barcelona larambla birds spain espagne españa" title="Canarios Machos" url_b="http://static.flickr.com/3621/3421083334_895370295d_b.jpg" username="Jonathan Taglione" views="78" />
<photo  date_taken="2008-03-24 18:21:01" description="" id="3420764603" latitude="41.380761" license="2" longitude="2.173565" nbComments="0" rank="147" tags="k200d barcelona larambla flowers spain espagne españa" title="Flowers,  La Rambla" url_b="http://static.flickr.com/3404/3420764603_3fc0169648_b.jpg" username="Jonathan Taglione" views="17" />
<photo  date_taken="2008-03-24 18:15:52" description="" id="3420278313" latitude="41.380761" license="2" longitude="2.173565" nbComments="0" rank="148" tags="k200d barcelona larambla people spain espagne españa" title="Citadines" url_b="http://static.flickr.com/3409/3420278313_6509e0bc59_b.jpg" username="Jonathan Taglione" views="15" />
<photo  date_taken="2010-06-20 09:02:34" description="Casa dels Paraigües. Josep Vilaseca i Casanovas, La Rambla, Barcelona." id="4716728881" latitude="41.381405" license="2" longitude="2.173329" nbComments="6" rank="149" tags="picnik casadelsparaigûes rambla barcelona cataluña catalunya españa espanya josepvilasecaicasanovas drac dragon paraguas paraigües ricoh gx200 almusaiti  西班牙 巴塞罗那 برشلونة اسبانيا スペイン バルセロナ spagna spain espagne victorianojaviertornelgarcia victor 加泰罗尼亚 カタルーニャ كاتالونيا リコーgx200の ريكو 理光 испания 스페인 स्पेन 바르셀로나 बार्सिलोना барселона ברצלונה ספרד βαρκελώνη บาร์เซโลน่า es" title="" url_b="http://static.flickr.com/4058/4716728881_99725036a0_b.jpg" username="Almusaiti" views="56" />
<photo  date_taken="2011-08-05 17:21:14" description="" id="6158562602" latitude="41.381526" license="3" longitude="2.172718" nbComments="0" rank="150" tags="barcelona espanha spain españa espanya catalunha catalonia cataluña catalunya august2011 sony sonyalphadslra700 2011 architecture arquitectura architektur architettura architektura arquitetura építészet modernismo modernisme modernism moderne" title="Barcelona - La Rambla" url_b="http://static.flickr.com/6066/6158562602_6b06f7d356_b.jpg" username="jaime.silva" views="304" />
</photos>
