<?xml version="1.0" encoding="UTF-8" standalone="no"?>
<photos monument="Piazza del Campo">

<photo  date_taken="2012-02-04 15:01:34" description="Per chi pensava che lo slittino fosse abbastanza ecco questo ragazzino che ha staccato le ruote da uno skateboard e lo ha trasformato in snowboard. Poi, non contento, si è pure improvvisato un trampolinetto... Piazza del Campo è utile per tutto eheheh... Comunque lui è un mio nuovo idolo :)" id="6815986419" latitude="43.318285" license="5" longitude="11.331346" nbComments="0" rank="1" tags="genere italia luoghi siena snowboard sport" title="Siena snowboard" url_b="http://static.flickr.com/7006/6815986419_881bd7be51_b.jpg" username="FranzPisa" views="59" />
<photo  date_taken="2009-01-03 15:23:47" description="" id="3298849720" latitude="43.318195" license="3" longitude="11.33141" nbComments="1" rank="2" tags="contrasto colore siena piazzadelcampo tuscany toscana italia italy renzoferrante" title="Contrasti" url_b="http://static.flickr.com/3328/3298849720_4af9d032cf_b.jpg" username="Renzo Ferrante" views="48" />
<photo  date_taken="2006-07-22 09:54:58" description="Siena, Italy" id="2402815867" latitude="43.318285" license="5" longitude="11.331238" nbComments="0" rank="3" tags="piazza del campo sienna italy siena" title="Looking toward Piazza del Campo" url_b="http://static.flickr.com/2344/2402815867_4ace9198e4_b.jpg" username="jmenard48" views="208" />
<photo  date_taken="2010-09-09 11:22:11" description="" id="5112053241" latitude="43.318471" license="2" longitude="11.331297" nbComments="0" rank="4" tags="siena tuscany piazzadelcampo" title="Behind Palazzo Pubblico" url_b="http://static.flickr.com/1142/5112053241_f863dfee48_b.jpg" username="Shark Attacks" views="5" />
<photo  date_taken="2009-07-13 14:03:46" description="" id="3746308311" latitude="43.318178" license="3" longitude="11.331538" nbComments="0" rank="5" tags="sienne siena italy italie piazza campo" title="Torre del Mangia" url_b="http://static.flickr.com/2497/3746308311_0765442ea1_b.jpg" username="THEfunkyman" views="24" />
<photo  date_taken="2009-06-11 14:22:00" description="2009-06-11c - SIENNE - SIENA - Piazza del Campo - Palazzo Pubblico - Palais Sansedoni - Toscane - Italie Musique - Par : Jaime Heras - Album : El astronauta - Piste : 12 - La Estrella de Fomalhaut - Lien vers l'album : &lt;a href=&quot;http://www.jamendo.com/fr/album/34267&quot; rel=&quot;nofollow&quot;&gt;www.jamendo.com/fr/album/34267&lt;/a&gt; Durée de la vidéo sur Dailymotion : 2:09 - Lien vers la vidéo : &lt;a href=&quot;http://www.dailymotion.com/video/xweizt_sienne-siena-piazza-del-campo_travel#.UOSrB2_aWkE&quot; rel=&quot;nofollow&quot;&gt;www.dailymotion.com/video/xweizt_sienne-siena-piazza-del-...&lt;/a&gt;" id="4159343573" latitude="43.318543" license="1" longitude="11.331464" nbComments="0" rank="6" tags="italie toscane sienne siena piazzadelcampo palazzopubblico palaissansedoni musique music palazzosansedoni vidéo" title="SIENNE - SIENA - Piazza del Campo" url_b="http://static.flickr.com/2738/4159343573_60ef70fa0f_b.jpg" username="Michel27" views="120" />
<photo  date_taken="2009-06-11 14:24:50" description="2009-06-11d - SIENNE - SIENA - Piazza del Campo - Fontaine de la Joie - Fonte Gaia - Toscane - Italie Musique - Par : Jaime Heras - Album : La Voz de los Angeles Rotos - Piste : 12 - La esperanza (Conclusion) - Lien vers l'album : &lt;a href=&quot;http://www.jamendo.com/fr/album/25926&quot; rel=&quot;nofollow&quot;&gt;www.jamendo.com/fr/album/25926&lt;/a&gt;" id="4161989893" latitude="43.318543" license="1" longitude="11.331464" nbComments="0" rank="7" tags="italie toscane sienne siena piazzadelcampo fontaine fontegaia musique music vidéo" title="SIENNE - SIENA - Fontaine de la Joie" url_b="http://static.flickr.com/2620/4161989893_502bb763d4_b.jpg" username="Michel27" views="86" />
<photo  date_taken="2001-07-01 13:25:00" description="Crowds gather outside the Palazzo Pubblico in the Piazza Del Campo." id="5843925871" latitude="43.318426" license="1" longitude="11.331592" nbComments="0" rank="8" tags="italy scancafe 2001 july2001 siena italia" title="Palazzo Pubblico" url_b="http://static.flickr.com/5237/5843925871_b51fef27e1_b.jpg" username="Joe Shlabotnik" views="39" />
<photo  date_taken="2007-09-25 00:00:12" description="Il Palazzo Pubblico e la Torre del Mangia, in Piazza del Campo." id="1446530899" latitude="43.31855" license="3" longitude="11.331464" nbComments="0" rank="9" tags="italia italy siena sienne toscana tuscany città town city италия сиена piazza del campo place palazzo pubblico palace tower torre mangia" title="Siena" url_b="http://static.flickr.com/1175/1446530899_e6374191a8_b.jpg" username="alphaorionis" views="55" />
<photo  date_taken="2007-09-25 00:00:01" description="Palazzo Pubblico e Torre del Mangia, in Piazza del Campo." id="1446435587" latitude="43.31855" license="3" longitude="11.331464" nbComments="0" rank="10" tags="italia italy siena sienne toscana tuscany città town city италия сиена piazza del campo place palazzo pubblico palace tower torre mangia" title="Siena" url_b="http://static.flickr.com/1043/1446435587_e5641a4f1d_b.jpg" username="alphaorionis" views="20" />
<photo  date_taken="2009-08-29 13:22:54" description="Fontanna Radości (Fonte Gaia), Piazza del Campo, Siena, 29 sierpnia 2009 r. ** The Fountain of Joy (Fonte Gaia), Piazza del Campo, Siena, August 29, 2009" id="4093959374" latitude="43.318574" license="3" longitude="11.331378" nbComments="2" rank="11" tags="siena włochy wlochy italy italia toskania tuscany toscana fontanna woda fountain water" title="Fontanna Radości" url_b="http://static.flickr.com/2612/4093959374_da17285643_b.jpg" username="magro_kr" views="123" />
<photo  date_taken="2011-06-08 14:27:50" description="Piazza del Campo 田野廣場 義大利 Siena 錫耶納" id="6268624722" latitude="43.318363" license="5" longitude="11.331142" nbComments="0" rank="12" tags="panasonic dmcgf1 italy siena piazzadelcampo 出遊 heritage building sky" title="P1240105" url_b="http://static.flickr.com/6154/6268624722_15fc191689_b.jpg" username="Richard, enjoy my life!" views="31" />
<photo  date_taken="2011-06-08 14:26:33" description="Palazzo Pubblico 市政廳 Piazza del Campo 田野廣場 義大利 Siena 錫耶納" id="6268618812" latitude="43.318363" license="5" longitude="11.331142" nbComments="0" rank="13" tags="panasonic dmcgf1 italy siena piazzadelcampo 出遊 heritage palace museum tower sky" title="市政廳" url_b="http://static.flickr.com/6102/6268618812_102c77122e_b.jpg" username="Richard, enjoy my life!" views="24" />
<photo  date_taken="2005-07-29 16:06:31" description="Siena 2005 - auf dem &amp;quot;Piazza del Campo&amp;quot;" id="73458782" latitude="43.318589" license="2" longitude="11.331437" nbComments="0" rank="14" tags="toscana umbrien siena augschburger piazzadelcampo palio honeymoon flitterwochen borisott tuscany german germany" title="Siena 2005" url_b="http://static.flickr.com/35/73458782_7fcb7190ec_b.jpg" username="augschburger" views="113" />
<photo  date_taken="2003-07-01 00:00:00" description="Piazza del Campo a Siena - Italia [Siena, city of Toscana, Italian region]" id="3947157795" latitude="43.318589" license="1" longitude="11.331485" nbComments="0" rank="15" tags="35mm analog analogue analógica architecture architettura arquitetura bn bw biancoenero blackandwhite building canon canoneos500 centro downtown fernandostankuns film filme italia italy itália pb película photo piazza praça prédio sepia siena square toscana" title="toscana" url_b="http://static.flickr.com/2643/3947157795_f9eb849ab7_b.jpg" username="Fernando Stankuns" views="55" />
<photo  date_taken="2006-05-14 13:56:09" description="The shell-shaped Piazza del Campo, the town square, which houses the Palazzo Pubblico and the Torre del Mangia, is an architectural treasure, and is famous for hosting the Palio. The Palazzo Pubblico, itself a great work of architecture, houses yet another important art museum. Included within the museum is Ambrogio Lorenzetti's series of frescos on the good government and the results of good and bad government, there are also some of the finest frescoes of Simone Martini and Pietro Lorenzetti." id="312780578" latitude="43.318408" license="4" longitude="11.331652" nbComments="0" rank="16" tags="buildings people siena italy" title="The Piazza Del Campo in Siena (2006-05-477)" url_b="http://static.flickr.com/103/312780578_e1058d7239_b.jpg" username="Argenberg" views="196" />
<photo  date_taken="2011-05-23 09:25:32" description="It seems like that crane pops up in half of my photos from Siena." id="6495734725" latitude="43.318488" license="4" longitude="11.331158" nbComments="0" rank="17" tags="siena italy palazzopubblico piazzadelcampo torremangia sky tower crane" title="Palazzo Pubblico" url_b="http://static.flickr.com/7013/6495734725_644f522405_b.jpg" username="shonk" views="54" />
<photo  date_taken="2000-12-31 16:00:00" description="" id="8350954878" latitude="43.318333" license="1" longitude="11.331388" nbComments="0" rank="18" tags="" title="Piazza del Campo - Drain Grating - 3" url_b="http://static.flickr.com/8044/8350954878_4d4679d45c_b.jpg" username="matisse_enzer" views="2" />
<photo  date_taken="2000-12-31 16:00:00" description="" id="8350954308" latitude="43.318333" license="1" longitude="11.331388" nbComments="0" rank="19" tags="" title="Piazza del Campo - Drain Grating - 1" url_b="http://static.flickr.com/8507/8350954308_87a962d46f_b.jpg" username="matisse_enzer" views="2" />
<photo  date_taken="2007-07-29 01:08:06" description="&lt;b&gt;una piazza, della gente&lt;/b&gt; &lt;i&gt;e anche un selciato, della verbena, dei MOZZONI di sigaretta e un sacco di donnine&lt;/i&gt; See it &lt;a href=&quot;http://bighugelabs.com/flickr/onblack.php?id=932825045&amp;amp;size=large&quot;&gt;on black&lt;/a&gt;." id="932825045" latitude="43.318379" license="5" longitude="11.331372" nbComments="2" rank="20" tags="siena italy italia night piazzadelcampo toscana longexposure city people urban lights reflection dark darkness nuit" title="round square" url_b="http://static.flickr.com/1036/932825045_b47a9fbe34_b.jpg" username="neverending september" views="404" />
<photo  date_taken="2010-07-02 18:39:37" description="people" id="4856240574" latitude="43.318402" license="3" longitude="11.331297" nbComments="0" rank="21" tags="people palio siena blue square piazzadelcampo italia italy heads crowd crowded" title="Too many" url_b="http://static.flickr.com/4117/4856240574_f6cc5f7487_b.jpg" username="bartb_pt" views="107" />
<photo  date_taken="2003-04-24 12:43:11" description="and the invasion of tourists on a normal day." id="297196658" latitude="43.318422" license="3" longitude="11.331303" nbComments="1" rank="22" tags="siena toscana toskana tuscany italia italien italy" title="Siena Piazza del Campo" url_b="http://static.flickr.com/115/297196658_0524c12800_b.jpg" username="Axel V" views="55" />
<photo  date_taken="2003-04-24 12:47:55" description="and the invasion of tourists on a normal day" id="297196862" latitude="43.318422" license="3" longitude="11.331303" nbComments="0" rank="23" tags="siena toscana toskana tuscany italia italien italy" title="Siena Piazza del Campo" url_b="http://static.flickr.com/121/297196862_516ae381e5_b.jpg" username="Axel V" views="35" />
<photo  date_taken="2001-07-02 13:28:00" description="The Palio is paraded around the Piazza del Campo before the race." id="5844001319" latitude="43.31842" license="1" longitude="11.33148" nbComments="0" rank="24" tags="palio july2001 siena italia italy scancafe 2001" title="The Palio" url_b="http://static.flickr.com/5312/5844001319_edf82fdf0a_b.jpg" username="Joe Shlabotnik" views="27" />
<photo  date_taken="2001-07-02 13:22:00" description="Pageantry in the Piazza del Campo before the big race." id="5843985459" latitude="43.31842" license="1" longitude="11.33148" nbComments="0" rank="25" tags="palio july2001 siena italia italy scancafe 2001" title="Palio Pageantry" url_b="http://static.flickr.com/2670/5843985459_92ef8b3f40_b.jpg" username="Joe Shlabotnik" views="24" />
<photo  date_taken="2001-07-02 13:25:00" description="The Piazza Del Campo is filled with people waiting for the race to start. We didn't have the greatest view, but we were at least in a relatively high spot. We got there around quarter to 4 in the afternoon, the ceremonies (flags, drummers, ceremonial horse races, etc.) started around a quarter after 5, and the real race started around quarter to 8. It's a quick race, just a minute and a half, and by 8:15 we were back at the Duomo waiting for our friend Ilise and her parents. It was so totally worth hanging out there for four hours; I hope we can do it again some day!" id="5844538916" latitude="43.31842" license="1" longitude="11.33148" nbComments="0" rank="26" tags="palio july2001 siena italia italy scancafe 2001" title="Piazza Del Campo During The Palio" url_b="http://static.flickr.com/5228/5844538916_1234b6f2dd_b.jpg" username="Joe Shlabotnik" views="27" />
<photo  date_taken="2001-07-02 13:29:00" description="" id="5844004773" latitude="43.31842" license="1" longitude="11.33148" nbComments="0" rank="27" tags="palio july2001 siena italia italy scancafe 2001" title="Piazza Del Campo During The Palio" url_b="http://static.flickr.com/3461/5844004773_5b0c8bfcb9_b.jpg" username="Joe Shlabotnik" views="31" />
<photo  date_taken="2001-07-02 13:23:00" description="A giant brass band in the Piazza del Campo before the big race." id="5843987759" latitude="43.31842" license="1" longitude="11.33148" nbComments="0" rank="28" tags="palio july2001 siena italia italy scancafe 2001" title="Horns And Tubas" url_b="http://static.flickr.com/3135/5843987759_a005b51628_b.jpg" username="Joe Shlabotnik" views="26" />
<photo  date_taken="2000-12-31 16:00:00" description="" id="8350955560" latitude="43.318355" license="1" longitude="11.331517" nbComments="0" rank="29" tags="" title="View from the tower in the Piazza del Campo" url_b="http://static.flickr.com/8054/8350955560_caa10606f5_b.jpg" username="matisse_enzer" views="3" />
<photo  date_taken="2011-07-28 17:17:05" description="Piazza del campo" id="6045203049" latitude="43.31844" license="3" longitude="11.331464" nbComments="0" rank="30" tags="sienne italie" title="Sienne" url_b="http://static.flickr.com/6071/6045203049_9d738b6a5c_b.jpg" username="isabelle.puaut" views="5" />
<photo  date_taken="2011-07-28 16:29:45" description="Piazza del campo" id="6045198555" latitude="43.31844" license="3" longitude="11.331464" nbComments="0" rank="31" tags="sienne italie" title="Sienne" url_b="http://static.flickr.com/6196/6045198555_e0b549a2f5_b.jpg" username="isabelle.puaut" views="6" />
<photo  date_taken="2011-07-28 16:30:33" description="Piazza del campo" id="6045198867" latitude="43.31844" license="3" longitude="11.331464" nbComments="0" rank="32" tags="sienne italie" title="Sienne" url_b="http://static.flickr.com/6209/6045198867_d40d255db8_b.jpg" username="isabelle.puaut" views="3" />
<photo  date_taken="2009-09-22 11:21:08" description="medieval buildings on the Piazza del Campo, Sienna" id="3959191160" latitude="43.318426" license="3" longitude="11.331485" nbComments="0" rank="33" tags="siena tuscany piazzadelcampo medievalsquares" title="Siena-3" url_b="http://static.flickr.com/3453/3959191160_9a2093bc77_b.jpg" username="musical photo man" views="25" />
<photo  date_taken="2009-09-22 14:21:25" description="Piazza del Campo, Siena" id="3958653321" latitude="43.318426" license="3" longitude="11.331485" nbComments="0" rank="34" tags="siena tuscany" title="Siena-11" url_b="http://static.flickr.com/3470/3958653321_51046a91e2_b.jpg" username="musical photo man" views="12" />
<photo  date_taken="2009-09-22 11:22:24" description="couple lying on the Piazza del Campo's fishbone-patterned, red-brick, 14th century paving (Siena, Tuscany)" id="3959194530" latitude="43.318426" license="3" longitude="11.331485" nbComments="2" rank="35" tags="siena tuscany" title="Siena-4" url_b="http://static.flickr.com/3446/3959194530_898d23e001_b.jpg" username="musical photo man" views="100" />
<photo  date_taken="2009-01-03 16:18:14" description="" id="3182052235" latitude="43.318195" license="3" longitude="11.33141" nbComments="8" rank="36" tags="siena tuscany toscana italia renzoferrante" title="Siena - Piazza del Campo" url_b="http://static.flickr.com/3457/3182052235_304c672157_b.jpg" username="Renzo Ferrante" views="90" />
<photo  date_taken="2009-04-16 23:13:25" description="from the main square (Piazza del Campo)" id="3527234153" latitude="43.318436" license="1" longitude="11.331496" nbComments="0" rank="37" tags="italy siena" title="Towards the Duomo" url_b="http://static.flickr.com/2156/3527234153_150b777267_b.jpg" username="SolGrundy" views="3" />
<photo  date_taken="2010-03-18 12:31:16" description="Siena, Toscana, Italia" id="4446143618" latitude="43.318184" license="3" longitude="11.331378" nbComments="6" rank="38" tags="siena toscana italia italy tuscany polarizer polarizzatore davidelonigro canoneos400d" title="Piazza del Campo III" url_b="http://static.flickr.com/4044/4446143618_fedaa7f059_b.jpg" username="John Soqquadro" views="93" />
<photo  date_taken="2010-03-18 12:28:36" description="Siena, Toscana, Italia" id="4445327853" latitude="43.318184" license="3" longitude="11.331378" nbComments="0" rank="39" tags="siena toscana italia italy tuscany davidelonigro canoneos400d polarizer raw" title="Piazza del Campo II" url_b="http://static.flickr.com/2790/4445327853_15cacbf4aa_b.jpg" username="John Soqquadro" views="58" />
<photo  date_taken="2010-03-18 12:25:52" description="Siena, Toscana, Italia" id="4445082543" latitude="43.318184" license="3" longitude="11.331378" nbComments="0" rank="40" tags="siena toscana italia italy tuscany giovedì davidelonigro canoneos400d" title="Piazza del Campo" url_b="http://static.flickr.com/4066/4445082543_88b3d22ded_b.jpg" username="John Soqquadro" views="55" />
<photo  date_taken="2008-06-09 08:46:12" description="Early morning in Siena this lady walked around the main square sweeping up the previous days garbage. I highly recommend going to the square in the morning before it is flooded with tourists. Siena, Italy" id="2900850588" latitude="43.318308" license="1" longitude="11.331228" nbComments="1" rank="41" tags="2008 gap italy italy2008 piazzadelcampo siena" title="Cleaning The Square" url_b="http://static.flickr.com/3146/2900850588_2f05e34bd7_b.jpg" username="rbhamjee" views="37" />
<photo  date_taken="2010-09-09 09:44:32" description="" id="5111991415" latitude="43.318471" license="2" longitude="11.331297" nbComments="0" rank="42" tags="siena tuscany piazzadelcampo" title="P1020157.jpg" url_b="http://static.flickr.com/1312/5111991415_d7b44f17be_b.jpg" username="Shark Attacks" views="6" />
<photo  date_taken="2010-09-09 12:18:32" description="" id="5112062021" latitude="43.318471" license="2" longitude="11.331297" nbComments="0" rank="43" tags="siena tuscany piazzadelcampo" title="Siena" url_b="http://static.flickr.com/1414/5112062021_906dd45b13_b.jpg" username="Shark Attacks" views="9" />
<photo  date_taken="2010-09-09 12:25:02" description="" id="5112665656" latitude="43.318471" license="2" longitude="11.331297" nbComments="0" rank="44" tags="siena tuscany piazzadelcampo" title="Torre del Mangia" url_b="http://static.flickr.com/1215/5112665656_99a5775a3f_b.jpg" username="Shark Attacks" views="7" />
<photo  date_taken="2010-09-09 11:18:37" description="" id="5112645034" latitude="43.318471" license="2" longitude="11.331297" nbComments="0" rank="45" tags="siena tuscany piazzadelcampo" title="Torre del Mangia" url_b="http://static.flickr.com/1403/5112645034_0014a4fae0_b.jpg" username="Shark Attacks" views="5" />
<photo  date_taken="2010-09-09 11:02:12" description="" id="5112031081" latitude="43.318471" license="2" longitude="11.331297" nbComments="0" rank="46" tags="siena tuscany piazzadelcampo" title="P1020214.jpg" url_b="http://static.flickr.com/1221/5112031081_2f06cf1cf8_b.jpg" username="Shark Attacks" views="8" />
<photo  date_taken="2010-09-09 11:22:28" description="" id="5112655620" latitude="43.318471" license="2" longitude="11.331297" nbComments="0" rank="47" tags="siena tuscany piazzadelcampo" title="P1020224.jpg" url_b="http://static.flickr.com/1432/5112655620_cd9c262f0e_b.jpg" username="Shark Attacks" views="4" />
<photo  date_taken="2010-09-09 10:27:34" description="" id="5112009267" latitude="43.318471" license="2" longitude="11.331297" nbComments="0" rank="48" tags="siena tuscany piazzadelcampo" title="Torre del Mangia" url_b="http://static.flickr.com/4129/5112009267_1ddcd91da9_b.jpg" username="Shark Attacks" views="14" />
<photo  date_taken="2010-09-09 09:47:13" description="" id="5112000277" latitude="43.318471" license="2" longitude="11.331297" nbComments="0" rank="49" tags="siena tuscany piazzadelcampo" title="P1020161.jpg" url_b="http://static.flickr.com/1197/5112000277_ab926c727d_b.jpg" username="Shark Attacks" views="9" />
<photo  date_taken="2010-09-09 10:50:47" description="" id="5112624028" latitude="43.318471" license="2" longitude="11.331297" nbComments="0" rank="50" tags="siena tuscany piazzadelcampo" title="P1020213.jpg" url_b="http://static.flickr.com/1398/5112624028_a2691632c6_b.jpg" username="Shark Attacks" views="19" />
<photo  date_taken="2010-09-09 11:02:17" description="" id="5112036501" latitude="43.318471" license="2" longitude="11.331297" nbComments="0" rank="51" tags="siena tuscany piazzadelcampo" title="P1020215.jpg" url_b="http://static.flickr.com/1197/5112036501_6e58b7d10b_b.jpg" username="Shark Attacks" views="5" />
<photo  date_taken="2010-09-09 10:28:47" description="" id="5112014827" latitude="43.318471" license="2" longitude="11.331297" nbComments="0" rank="52" tags="siena tuscany piazzadelcampo" title="Piazza del Campo" url_b="http://static.flickr.com/4125/5112014827_6c2c9c88db_b.jpg" username="Shark Attacks" views="34" />
<photo  date_taken="2010-09-09 09:45:52" description="" id="5112593776" latitude="43.318471" license="2" longitude="11.331297" nbComments="0" rank="53" tags="siena tuscany piazzadelcampo" title="Torre del Mangia" url_b="http://static.flickr.com/1149/5112593776_71267fd2d4_b.jpg" username="Shark Attacks" views="9" />
<photo  date_taken="2010-09-09 09:59:46" description="" id="5112602908" latitude="43.318471" license="2" longitude="11.331297" nbComments="0" rank="54" tags="siena tuscany piazzadelcampo" title="P1020168.jpg" url_b="http://static.flickr.com/4071/5112602908_013baf2621_b.jpg" username="Shark Attacks" views="8" />
<photo  date_taken="2010-09-09 10:33:06" description="" id="5112618546" latitude="43.318471" license="2" longitude="11.331297" nbComments="0" rank="55" tags="siena tuscany piazzadelcampo" title="P1020210.jpg" url_b="http://static.flickr.com/4124/5112618546_0de861035e_b.jpg" username="Shark Attacks" views="7" />
<photo  date_taken="2010-09-09 09:39:36" description="" id="5112585918" latitude="43.318471" license="2" longitude="11.331297" nbComments="0" rank="56" tags="siena tuscany piazzadelcampo" title="P1020154.jpg" url_b="http://static.flickr.com/1081/5112585918_289b8dd6fb_b.jpg" username="Shark Attacks" views="6" />
<photo  date_taken="2010-09-09 12:27:47" description="" id="5112070975" latitude="43.318471" license="2" longitude="11.331297" nbComments="0" rank="57" tags="siena tuscany piazzadelcampo" title="Piazza del Campo" url_b="http://static.flickr.com/4107/5112070975_f4cb68d191_b.jpg" username="Shark Attacks" views="20" />
<photo  date_taken="2010-09-09 11:16:44" description="" id="5112042189" latitude="43.318471" license="2" longitude="11.331297" nbComments="0" rank="58" tags="siena tuscany piazzadelcampo" title="P1020219.jpg" url_b="http://static.flickr.com/1387/5112042189_2c0a64262a_b.jpg" username="Shark Attacks" views="9" />
<photo  date_taken="2012-02-03 15:04:17" description="Divertimento per grandi e piccini" id="6808221659" latitude="43.31818" license="5" longitude="11.331324" nbComments="2" rank="59" tags="italia luoghi siena neve" title="Slittino fai-da-te in piazza del campo" url_b="http://static.flickr.com/7010/6808221659_401e8ee32e_b.jpg" username="FranzPisa" views="77" />
<photo  date_taken="2012-04-29 10:20:16" description="Set my camera on teh ground pointing straight up, with the fisheye lens you get a pretty neat perspective." id="8075238989" latitude="43.31851" license="1" longitude="11.331415" nbComments="0" rank="60" tags="peleng8mm siena tuscany italy" title="Piazza del Campo" url_b="http://static.flickr.com/8334/8075238989_d456b7d3ca_b.jpg" username="colddayforpontooning" views="8" />
<photo  date_taken="2012-05-03 20:57:32" description="aka: Siena Beach" id="7142844761" latitude="43.31845" license="3" longitude="11.331525" nbComments="1" rank="61" tags="europe italy piazzadelcampo siena sienabeach southerneurope tuscany" title="Piazza del Campo" url_b="http://static.flickr.com/7132/7142844761_654e0f164d_b.jpg" username="mikealex" views="24" />
<photo  date_taken="2009-04-17 03:30:59" description="" id="3527243937" latitude="43.318443" license="1" longitude="11.33156" nbComments="0" rank="62" tags="italy siena" title="Piazza del Campo" url_b="http://static.flickr.com/3537/3527243937_af24693931_b.jpg" username="SolGrundy" views="18" />
<photo  date_taken="2012-07-12 14:49:20" description="" id="8113985980" latitude="43.318127" license="1" longitude="11.331405" nbComments="0" rank="63" tags="italia italy siena" title="178 - Siena - Piazza del Campo" url_b="http://static.flickr.com/8051/8113985980_46d2ee6e81_b.jpg" username="MnGyver" views="12" />
<photo  date_taken="2010-06-30 03:32:24" description="" id="4805648313" latitude="43.318215" license="3" longitude="11.33156" nbComments="0" rank="64" tags="siena italy palio piazzadelcampo alison clayton carol hanlon" title="In the stands" url_b="http://static.flickr.com/4114/4805648313_046fc02a9f_b.jpg" username="Bart Hanlon" views="57" />
<photo  date_taken="2009-07-13 14:00:42" description="" id="3747096604" latitude="43.318178" license="3" longitude="11.331538" nbComments="0" rank="65" tags="sienne siena italy italie piazza campo" title="Torre del Mangia - Piazza del Campo" url_b="http://static.flickr.com/2524/3747096604_968486c589_b.jpg" username="THEfunkyman" views="20" />
<photo  date_taken="2006-08-20 11:26:24" description="The most beautiful place for a cup of coffee lies probably in Siena." id="231399704" latitude="43.318535" license="2" longitude="11.331464" nbComments="0" rank="66" tags="italie siena italy toscana piazzadelcampo" title="Italy 2006 Piazza del Campo" url_b="http://static.flickr.com/81/231399704_74c9ba5c97_b.jpg" username="Ladik" views="66" />
<photo  date_taken="2012-02-03 15:00:21" description="Photomerge da 6 scatti verticali f/11 a 20mm" id="6808220527" latitude="43.318465" license="5" longitude="11.33156" nbComments="2" rank="67" tags="italia luoghi siena neve" title="Piazza del campo (photomerge)" url_b="http://static.flickr.com/7160/6808220527_a9635250bd_b.jpg" username="FranzPisa" views="67" />
<photo  date_taken="2009-06-11 14:23:23" description="2009-06-11-14h23 - SIENNE - SIENA - Piazza del Campo - Fontaine de la Joie - Fonte Gaia - Toscane - Italie" id="3855621625" latitude="43.318543" license="2" longitude="11.331464" nbComments="0" rank="68" tags="italie toscane sienne siena piazzadelcampo fontegaia fontaine" title="SIENNE - SIENA - Piazza del Campo" url_b="http://static.flickr.com/2607/3855621625_fccec2bb4d_b.jpg" username="Michel27" views="105" />
<photo  date_taken="2009-06-11 14:24:17" description="2009-06-11-14h24 - SIENNE - SIENA - Piazza del Campo - Fontaine de la Joie - Fonte Gaia - Toscane - Italie" id="3855628057" latitude="43.318543" license="2" longitude="11.331464" nbComments="0" rank="69" tags="italie toscane sienne siena piazzadelcampo fontegaia fontaine" title="SIENNE - SIENA - Piazza del Campo" url_b="http://static.flickr.com/2586/3855628057_2c89ced19b_b.jpg" username="Michel27" views="100" />
<photo  date_taken="2001-07-01 13:26:00" description="Crowds gathering in the Piazza Del Campo for the events on the day before the Palio." id="5843928283" latitude="43.318426" license="1" longitude="11.331592" nbComments="0" rank="70" tags="italy scancafe 2001 july2001 siena italia" title="Piazza Del Campo" url_b="http://static.flickr.com/5311/5843928283_0d2c31365a_b.jpg" username="Joe Shlabotnik" views="49" />
<photo  date_taken="2001-07-01 13:27:00" description="Crowds gathering in the Piazza Del Campo for the events on the day before the Palio." id="5843931105" latitude="43.318426" license="1" longitude="11.331592" nbComments="0" rank="71" tags="italy scancafe 2001 july2001 siena italia" title="The Day Before The Palio" url_b="http://static.flickr.com/5024/5843931105_8e8df25a13_b.jpg" username="Joe Shlabotnik" views="60" />
<photo  date_taken="2007-09-25 00:00:17" description="" id="1447512724" latitude="43.31855" license="3" longitude="11.331464" nbComments="0" rank="72" tags="italia italy siena sienne toscana tuscany città town city италия сиена piazza del campo place" title="Siena, Piazza del Campo" url_b="http://static.flickr.com/1191/1447512724_ef3ea4c438_b.jpg" username="alphaorionis" views="87" />
<photo  date_taken="2007-09-25 00:00:14" description="" id="1447438164" latitude="43.31855" license="3" longitude="11.331464" nbComments="0" rank="73" tags="italia italy siena sienne toscana tuscany città town city италия сиена piazza del campo place" title="Siena, Piazza del Campo" url_b="http://static.flickr.com/1130/1447438164_6d7c54ef3a_b.jpg" username="alphaorionis" views="78" />
<photo  date_taken="2012-06-24 02:25:28" description="Semi-Fisheye View of Piazza del Campo Siena - Photographer Russell McNeil PhD (Physics) lives in Nanaimo, British Columbia where he works also as a writer and a personal trainer." id="7430904616" latitude="43.318519" license="1" longitude="11.331533" nbComments="0" rank="74" tags="film" title="Semi-Fisheye View of Piazza del Campo Siena" url_b="http://static.flickr.com/8019/7430904616_7a8a7d8648_b.jpg" username="russellmcneil" views="39" />
<photo  date_taken="2001-07-01 13:09:00" description="In Siena's Piazza Del Campo, as people gather for tonight's Palio celebration." id="5843874219" latitude="43.318433" license="1" longitude="11.331603" nbComments="0" rank="75" tags="sue palio siena july2001 italia italy scancafe 2001" title="Piazza Del Campo" url_b="http://static.flickr.com/3433/5843874219_a6642bf953_b.jpg" username="Joe Shlabotnik" views="38" />
<photo  date_taken="2001-07-01 13:10:00" description="" id="5843877217" latitude="43.318433" license="1" longitude="11.331603" nbComments="0" rank="76" tags="palio july2001 siena italia italy scancafe 2001" title="Piazza Del Campo" url_b="http://static.flickr.com/3655/5843877217_8089af53b8_b.jpg" username="Joe Shlabotnik" views="10" />
<photo  date_taken="2001-07-01 13:11:00" description="Flag bearers of two of Siena's contrade - I think these are Pantera (panther) and Civetta (little owl) - march through the crowds in the Piazza Del Campo." id="5844454698" latitude="43.318433" license="1" longitude="11.331603" nbComments="0" rank="77" tags="palio july2001 siena italia italy scancafe 2001" title="Flag Bearers" url_b="http://static.flickr.com/3230/5844454698_4c70b8bbed_b.jpg" username="Joe Shlabotnik" views="14" />
<photo  date_taken="2011-09-06 01:35:31" description="" id="6119259405" latitude="43.318308" license="3" longitude="11.331624" nbComments="0" rank="78" tags="instagramapp square squareformat iphoneography uploaded:by=instagram lomofi foursquare:venue=4bcaeef5fb84c9b612ed1d3e" title="Piazza del Campo" url_b="http://static.flickr.com/6208/6119259405_67d8300604_b.jpg" username="Shrisha R" views="5" />
<photo  date_taken="2011-07-10 07:40:33" description="" id="5922329960" latitude="43.318308" license="1" longitude="11.331624" nbComments="0" rank="79" tags="instagramapp square squareformat iphoneography uploaded:by=instagram normal foursquare:venue=4bcaeef5fb84c9b612ed1d3e" title="Going to piazza del campo" url_b="http://static.flickr.com/6124/5922329960_b9ef4b7837_b.jpg" username="titti1982" views="2" />
<photo  date_taken="2011-07-09 07:58:41" description="" id="8327635720" latitude="43.318308" license="4" longitude="11.331624" nbComments="0" rank="80" tags="uploaded:by=flickstagram instagram:photo=121872269835238 instagram:venue_name=piazzadelcampo instagram:venue=199206" title="Sienna" url_b="http://static.flickr.com/8495/8327635720_60ddb88c70_b.jpg" username="Paul-in-London" views="4" />
<photo  date_taken="2011-06-08 14:28:43" description="Piazza del Campo 田野廣場 義大利 Siena 錫耶納" id="6268109477" latitude="43.318363" license="5" longitude="11.331142" nbComments="0" rank="81" tags="panasonic dmcgf1 italy siena piazzadelcampo 出遊 heritage" title="P1240107" url_b="http://static.flickr.com/6045/6268109477_0a30fa0545_b.jpg" username="Richard, enjoy my life!" views="4" />
<photo  date_taken="2011-06-08 14:27:58" description="Piazza del Campo 田野廣場 義大利 Siena 錫耶納" id="6268104027" latitude="43.318363" license="5" longitude="11.331142" nbComments="0" rank="82" tags="panasonic dmcgf1 italy siena piazzadelcampo 出遊 beauty 正妹" title="P1240106" url_b="http://static.flickr.com/6035/6268104027_bda82c4b61_b.jpg" username="Richard, enjoy my life!" views="4" />
<photo  date_taken="2005-08-08 09:37:43" description="Piazza del Campo" id="73461110" latitude="43.318589" license="2" longitude="11.331437" nbComments="2" rank="83" tags="toscana siena piazzadelcampo stitch gesticht d70 pano panorama augschburger borisott tuscany german germany" title="Siena 2005 Panorama" url_b="http://static.flickr.com/34/73461110_817f642518_b.jpg" username="augschburger" views="353" />
<photo  date_taken="2005-08-08 09:32:37" description="Piazza del Campo" id="73461101" latitude="43.318589" license="2" longitude="11.331437" nbComments="2" rank="84" tags="toscana siena piazzadelcampo stitch gesticht d70 pano panorama augschburger borisott tuscany german germany" title="Siena 2005 Panorama" url_b="http://static.flickr.com/34/73461101_0376d94584_b.jpg" username="augschburger" views="167" />
<photo  date_taken="2012-05-02 14:26:50" description="Siena Beach" id="6994100218" latitude="43.318494" license="3" longitude="11.331597" nbComments="0" rank="85" tags="europe italy piazzadelcampo siena sienabeach southerneurope tuscany" title="Piazza del Campo" url_b="http://static.flickr.com/8028/6994100218_72ee0176a3_b.jpg" username="mikealex" views="47" />
<photo  date_taken="2009-04-08 15:08:09" description="" id="3455095015" latitude="43.318527" license="1" longitude="11.331571" nbComments="0" rank="86" tags="italien" title="Der Campanile am Piazza del Campo in Siena" url_b="http://static.flickr.com/3408/3455095015_d116e306a7_b.jpg" username="michael.heiss" views="38" />
<photo  date_taken="2009-09-08 14:18:49" description="" id="4198100309" latitude="43.318589" license="5" longitude="11.331464" nbComments="0" rank="87" tags="tuscany italy siena" title="Piazza Del Campo" url_b="http://static.flickr.com/2503/4198100309_6242005ba7_b.jpg" username="ianloic" views="3" />
<photo  date_taken="2009-09-08 14:20:40" description="" id="4198861828" latitude="43.318589" license="5" longitude="11.331464" nbComments="0" rank="88" tags="tuscany italy siena" title="Fountain at the Piazza Del Campo" url_b="http://static.flickr.com/4009/4198861828_7a65315c03_b.jpg" username="ianloic" views="2" />
<photo  date_taken="2009-09-08 14:18:01" description="" id="4198838728" latitude="43.318589" license="5" longitude="11.331464" nbComments="0" rank="89" tags="tuscany italy siena" title="Piazza Del Campo" url_b="http://static.flickr.com/2487/4198838728_de5403be66_b.jpg" username="ianloic" views="1" />
<photo  date_taken="2009-09-08 14:22:46" description="" id="4198869500" latitude="43.318589" license="5" longitude="11.331464" nbComments="0" rank="90" tags="tuscany italy siena" title="Piazza Del Campo" url_b="http://static.flickr.com/2570/4198869500_ba5f4b036a_b.jpg" username="ianloic" views="1" />
<photo  date_taken="2009-09-08 14:23:58" description="" id="4198886864" latitude="43.318589" license="5" longitude="11.331464" nbComments="0" rank="91" tags="tuscany italy siena" title="Crowded Piazza Del Campo" url_b="http://static.flickr.com/2675/4198886864_5d25ae433e_b.jpg" username="ianloic" views="2" />
<photo  date_taken="2009-09-08 14:23:55" description="" id="4198878552" latitude="43.318589" license="5" longitude="11.331464" nbComments="0" rank="92" tags="tuscany italy siena" title="Piazza Del Campo" url_b="http://static.flickr.com/2653/4198878552_6f6635428a_b.jpg" username="ianloic" views="3" />
<photo  date_taken="2009-09-08 14:24:10" description="" id="4198903664" latitude="43.318589" license="5" longitude="11.331464" nbComments="0" rank="93" tags="tuscany italy siena" title="Piazza Del Campo" url_b="http://static.flickr.com/4037/4198903664_227a5676bd_b.jpg" username="ianloic" views="4" />
<photo  date_taken="2009-09-08 14:18:28" description="" id="4198092997" latitude="43.318589" license="5" longitude="11.331464" nbComments="0" rank="94" tags="tuscany italy siena" title="Piazza Del Campo" url_b="http://static.flickr.com/4008/4198092997_d9a091cb01_b.jpg" username="ianloic" views="8" />
<photo  date_taken="2011-05-01 17:29:01" description="" id="6897737095" latitude="43.318578" license="4" longitude="11.331496" nbComments="0" rank="95" tags="" title="Kev @ Piazza del Campo, Siena, Tuscany, Italy" url_b="http://static.flickr.com/7048/6897737095_55e6d7794d_b.jpg" username="kevinpoh" views="34" />
<photo  date_taken="2011-06-08 14:34:39" description="Piazza del Campo 田野廣場 義大利 Siena 錫耶納" id="6272353549" latitude="43.318066" license="5" longitude="11.331421" nbComments="0" rank="96" tags="panasonic dmcgf1 italy siena piazzadelcampo 出遊" title="P1240121" url_b="http://static.flickr.com/6037/6272353549_b76585be2e_b.jpg" username="Richard, enjoy my life!" views="2" />
<photo  date_taken="2004-05-26 12:09:23" description="" id="166309980" latitude="43.318582" license="1" longitude="11.331496" nbComments="0" rank="97" tags="sienna piazzadelcampo ukitalymay2004" title="DSC01376" url_b="http://static.flickr.com/67/166309980_c31cd40f33_b.jpg" username="Mark &amp; Gideon" views="14" />
<photo  date_taken="2002-06-03 14:50:01" description="" id="164291823" latitude="43.318582" license="1" longitude="11.331496" nbComments="0" rank="98" tags="piazzadelcampo sienna italyjune2002" title="Italy June 2002 025" url_b="http://static.flickr.com/29/164291823_777c85989a_b.jpg" username="Mark &amp; Gideon" views="25" />
<photo  date_taken="2004-05-26 12:05:15" description="" id="166309891" latitude="43.318582" license="1" longitude="11.331496" nbComments="0" rank="99" tags="sienna piazzadelcampo ukitalymay2004" title="DSC01375" url_b="http://static.flickr.com/69/166309891_f0ac3a4678_b.jpg" username="Mark &amp; Gideon" views="7" />
<photo  date_taken="2002-06-03 15:45:59" description="" id="164292433" latitude="43.318582" license="1" longitude="11.331496" nbComments="0" rank="100" tags="piazzadelcampo sienna italyjune2002" title="Italy June 2002 028" url_b="http://static.flickr.com/52/164292433_915f872edd_b.jpg" username="Mark &amp; Gideon" views="48" />
<photo  date_taken="2009-07-15 12:02:26" description="&lt;a href=&quot;http://minibluehelmets.com&quot; rel=&quot;nofollow&quot;&gt;minibluehelmets.com | an art project&lt;/a&gt; sendername : RJ lat : 43.318606 lon : 11.331378 location : piazza del campo seina locationdescription : Piazza del Campo uploaded_at : 1247652145" id="3723473382" latitude="43.318606" license="3" longitude="11.331378" nbComments="0" rank="101" tags="minibluehelmet minibluehelmets todaysart artproject" title="from piazza del campo seina by RJ" url_b="http://static.flickr.com/2498/3723473382_d639e2391a_b.jpg" username="todaysart" views="53" />
<photo  date_taken="2003-07-01 00:00:00" description="Piazza del Campo a Siena - Italia [Siena, city of Toscana, Italian region]" id="3947160907" latitude="43.318589" license="1" longitude="11.331485" nbComments="0" rank="102" tags="35mm analog analogue analógica architecture architettura arquitetura bn bw biancoenero blackandwhite building canon canoneos500 centro downtown fernandostankuns film filme italia italy itália pb película photo piazza praça prédio sepia siena square toscana" title="piazza del campo" url_b="http://static.flickr.com/2545/3947160907_fcf1d7b32b_b.jpg" username="Fernando Stankuns" views="91" />
<photo  date_taken="2003-07-01 00:00:00" description="Piazza del Campo a Siena - Italia [Siena, city of Toscana, Italian region]" id="3947157579" latitude="43.318589" license="1" longitude="11.331485" nbComments="0" rank="103" tags="35mm analog analogue analógica architecture architettura arquitetura bn bw biancoenero blackandwhite building canon canoneos500 centro downtown fernandostankuns film filme italia italy itália pb película photo piazza praça prédio sepia siena square toscana" title="siena" url_b="http://static.flickr.com/2435/3947157579_8bb3b604a2_b.jpg" username="Fernando Stankuns" views="41" />
<photo  date_taken="2003-07-01 00:00:00" description="Torre nella Piazza del Campo a Siena - Italia [Tower at Siena, city of Toscana, Italian region]" id="3947941210" latitude="43.318589" license="1" longitude="11.331485" nbComments="0" rank="104" tags="35mm analog analogue analógica architecture architettura arquitetura bn bw biancoenero blackandwhite building canon canoneos500 centro downtown fernandostankuns film filme italia italy itália pb película photo prédio sepia siena torre toscana" title="torre" url_b="http://static.flickr.com/2542/3947941210_3b4448c267_b.jpg" username="Fernando Stankuns" views="72" />
<photo  date_taken="2008-07-02 10:30:22" description="Siena's Palio is a twice-a-year horse race that takes place in the Piazza del Campo, Siena's main square. The best way of seeing these photos in order is via the slideshow in my &lt;a href=&quot;http://www.flickr.com/photos/deano/sets/72157606343530460/&quot;&gt;Palio&lt;/a&gt; set. The empty square, on the lunchtime of race day. By 6pm it was filled with 30,000 people." id="2698391428" latitude="43.318138" license="1" longitude="11.331194" nbComments="1" rank="105" tags="italy italia tuscany toscana siena piazzadelcampo" title="Piazza del Campo" url_b="http://static.flickr.com/3202/2698391428_86739e60a7_b.jpg" username="Dean Ayres" views="255" />
<photo  date_taken="2006-06-10 05:46:35" description="" id="170662451" latitude="43.318582" license="1" longitude="11.331512" nbComments="0" rank="106" tags="italy siena" title="siena 21 - Piazza del Campo frame 2a" url_b="http://static.flickr.com/56/170662451_37e1c565d2_b.jpg" username="j_t_d" views="1" />
<photo  date_taken="2006-06-10 05:46:39" description="" id="170662480" latitude="43.318582" license="1" longitude="11.331512" nbComments="0" rank="107" tags="italy siena" title="siena 22 - Piazza del Campo frame 2b" url_b="http://static.flickr.com/49/170662480_98484de717_b.jpg" username="j_t_d" views="5" />
<photo  date_taken="2006-06-19 19:03:38" description="" id="170947680" latitude="43.318582" license="1" longitude="11.331512" nbComments="0" rank="108" tags="italy" title="siena 20 - Piazza del Campo panoramic" url_b="http://static.flickr.com/65/170947680_feffcbf406_b.jpg" username="j_t_d" views="8" />
<photo  date_taken="2006-06-10 05:46:32" description="" id="170662420" latitude="43.318582" license="1" longitude="11.331512" nbComments="0" rank="109" tags="italy siena" title="siena 20 - Piazza del Campo frame 1" url_b="http://static.flickr.com/71/170662420_403bd051fa_b.jpg" username="j_t_d" views="1" />
<photo  date_taken="2006-06-10 05:46:43" description="" id="170662523" latitude="43.318582" license="1" longitude="11.331512" nbComments="0" rank="110" tags="italy siena" title="siena 23 - Piazza del Campo frame 3" url_b="http://static.flickr.com/46/170662523_953eac8e8a_b.jpg" username="j_t_d" views="3" />
<photo  date_taken="2011-12-10 21:07:11" description="" id="6495738575" latitude="43.318488" license="4" longitude="11.331158" nbComments="0" rank="111" tags="siena italy piazzadelcampo sky clouds hdr" title="Last HDR" url_b="http://static.flickr.com/7028/6495738575_f4b2ec9427_b.jpg" username="shonk" views="47" />
<photo  date_taken="2009-07-02 19:51:09" description="" id="3853016327" latitude="43.318605" license="1" longitude="11.331453" nbComments="0" rank="112" tags="italy tuscany palio siena italia piazzadelcampo contrade" title="IMG_6268" url_b="http://static.flickr.com/2505/3853016327_d3632ee02c_b.jpg" username="lusciousblopster" views="1" />
<photo  date_taken="2009-07-02 18:17:44" description="" id="3848670310" latitude="43.318605" license="1" longitude="11.331453" nbComments="0" rank="113" tags="italy tuscany palio siena italia piazzadelcampo contrade" title="IMG_6229" url_b="http://static.flickr.com/2669/3848670310_a90219e50d_b.jpg" username="lusciousblopster" views="0" />
<photo  date_taken="2009-07-02 18:14:39" description="" id="3847865361" latitude="43.318605" license="1" longitude="11.331453" nbComments="0" rank="114" tags="italy tuscany palio siena italia piazzadelcampo contrade" title="IMG_6226" url_b="http://static.flickr.com/2617/3847865361_b44bd3299b_b.jpg" username="lusciousblopster" views="0" />
<photo  date_taken="2009-07-02 20:09:59" description="" id="3855737548" latitude="43.318605" license="1" longitude="11.331453" nbComments="0" rank="115" tags="italy tuscany palio siena italia piazzadelcampo contrade" title="IMG_6295" url_b="http://static.flickr.com/2547/3855737548_171a9f9194_b.jpg" username="lusciousblopster" views="2" />
<photo  date_taken="2009-07-02 17:13:56" description="" id="4120366800" latitude="43.318605" license="1" longitude="11.331453" nbComments="0" rank="116" tags="italy italia palio siena piazzadelcampo contrade tartuca tortoise" title="IMG_6207B" url_b="http://static.flickr.com/2488/4120366800_d5721ae4c3_b.jpg" username="lusciousblopster" views="9" />
<photo  date_taken="2009-07-02 19:57:38" description="" id="3854116320" latitude="43.318605" license="1" longitude="11.331453" nbComments="0" rank="117" tags="italy tuscany palio siena italia piazzadelcampo contrade tartuca tortoise" title="IMG_6283" url_b="http://static.flickr.com/2592/3854116320_72f7f2f44d_b.jpg" username="lusciousblopster" views="6" />
<photo  date_taken="2009-07-02 15:57:21" description="" id="3845468122" latitude="43.318605" license="1" longitude="11.331453" nbComments="0" rank="118" tags="italy tuscany palio siena italia piazzadelcampo contrade" title="IMG_6161" url_b="http://static.flickr.com/2559/3845468122_5a7755d430_b.jpg" username="lusciousblopster" views="0" />
<photo  date_taken="2009-07-02 18:24:25" description="" id="3848722930" latitude="43.318605" license="1" longitude="11.331453" nbComments="0" rank="119" tags="italy tuscany palio siena italia piazzadelcampo contrade" title="IMG_6238" url_b="http://static.flickr.com/2446/3848722930_49b32bef6e_b.jpg" username="lusciousblopster" views="0" />
<photo  date_taken="2009-07-02 16:29:55" description="" id="3846116714" latitude="43.318605" license="1" longitude="11.331453" nbComments="0" rank="120" tags="italy tuscany palio siena italia piazzadelcampo contrade" title="IMG_6185b" url_b="http://static.flickr.com/2526/3846116714_69498922a0_b.jpg" username="lusciousblopster" views="0" />
<photo  date_taken="2009-07-02 19:53:34" description="" id="3853286885" latitude="43.318605" license="1" longitude="11.331453" nbComments="0" rank="121" tags="italy tuscany palio siena italia piazzadelcampo contrade" title="IMG_6271" url_b="http://static.flickr.com/2525/3853286885_d785f897b1_b.jpg" username="lusciousblopster" views="0" />
<photo  date_taken="2009-07-02 17:14:13" description="" id="4120366514" latitude="43.318605" license="1" longitude="11.331453" nbComments="0" rank="122" tags="italy italia palio siena piazzadelcampo contrade tartuca tortoise" title="IMG_6209B" url_b="http://static.flickr.com/2747/4120366514_726f6334d3_b.jpg" username="lusciousblopster" views="57" />
<photo  date_taken="2009-07-02 16:04:48" description="" id="3844682183" latitude="43.318605" license="1" longitude="11.331453" nbComments="0" rank="123" tags="italy tuscany palio siena italia piazzadelcampo contrade" title="IMG_6163" url_b="http://static.flickr.com/3481/3844682183_c67671e425_b.jpg" username="lusciousblopster" views="0" />
<photo  date_taken="2009-07-02 16:24:12" description="" id="3844747457" latitude="43.318605" license="1" longitude="11.331453" nbComments="0" rank="124" tags="italy tuscany palio siena italia piazzadelcampo contrade" title="IMG_6178" url_b="http://static.flickr.com/2672/3844747457_57374533f5_b.jpg" username="lusciousblopster" views="0" />
<photo  date_taken="2009-07-02 18:16:08" description="" id="3848665528" latitude="43.318605" license="1" longitude="11.331453" nbComments="0" rank="125" tags="italy tuscany palio siena italia piazzadelcampo contrade istrice porcupine" title="IMG_6228" url_b="http://static.flickr.com/3458/3848665528_e3ed4ed515_b.jpg" username="lusciousblopster" views="12" />
<photo  date_taken="2009-07-02 19:51:32" description="" id="3853282821" latitude="43.318605" license="1" longitude="11.331453" nbComments="0" rank="126" tags="italy tuscany palio siena italia piazzadelcampo contrade" title="IMG_6269" url_b="http://static.flickr.com/2615/3853282821_0c87665d54_b.jpg" username="lusciousblopster" views="0" />
<photo  date_taken="2009-07-02 18:21:46" description="" id="3848714066" latitude="43.318605" license="1" longitude="11.331453" nbComments="0" rank="127" tags="italy tuscany palio siena italia piazzadelcampo contrade" title="IMG_6236" url_b="http://static.flickr.com/2623/3848714066_d5cb9a8f08_b.jpg" username="lusciousblopster" views="0" />
<photo  date_taken="2009-07-02 15:57:14" description="" id="3844674253" latitude="43.318605" license="1" longitude="11.331453" nbComments="0" rank="128" tags="italy tuscany palio siena italia piazzadelcampo contrade" title="IMG_6160" url_b="http://static.flickr.com/3487/3844674253_ff3db4188c_b.jpg" username="lusciousblopster" views="0" />
<photo  date_taken="2009-07-02 19:51:32" description="" id="3852973947" latitude="43.318605" license="1" longitude="11.331453" nbComments="0" rank="129" tags="italy tuscany palio siena italia piazzadelcampo contrade" title="IMG_6269" url_b="http://static.flickr.com/2561/3852973947_f41b53233d_b.jpg" username="lusciousblopster" views="1" />
<photo  date_taken="2009-07-02 16:24:03" description="" id="3845534836" latitude="43.318605" license="1" longitude="11.331453" nbComments="0" rank="130" tags="italy tuscany palio siena italia piazzadelcampo contrade" title="IMG_6177" url_b="http://static.flickr.com/2608/3845534836_1be580ff7f_b.jpg" username="lusciousblopster" views="0" />
<photo  date_taken="2009-07-02 19:58:49" description="" id="3853380693" latitude="43.318605" license="1" longitude="11.331453" nbComments="0" rank="131" tags="italy tuscany palio siena italia piazzadelcampo contrade" title="IMG_6287" url_b="http://static.flickr.com/3575/3853380693_dffb34f9f8_b.jpg" username="lusciousblopster" views="1" />
<photo  date_taken="2009-07-02 16:34:08" description="" id="3845339615" latitude="43.318605" license="1" longitude="11.331453" nbComments="0" rank="132" tags="italy tuscany palio siena italia piazzadelcampo contrade" title="IMG_6190" url_b="http://static.flickr.com/2617/3845339615_b63334a40a_b.jpg" username="lusciousblopster" views="2" />
<photo  date_taken="2009-07-02 18:21:27" description="" id="3848679380" latitude="43.318605" license="1" longitude="11.331453" nbComments="0" rank="133" tags="italy tuscany palio siena italia piazzadelcampo contrade" title="IMG_6234" url_b="http://static.flickr.com/3446/3848679380_ded7e77043_b.jpg" username="lusciousblopster" views="1" />
<photo  date_taken="2009-07-02 17:11:22" description="" id="3847211176" latitude="43.318605" license="1" longitude="11.331453" nbComments="0" rank="134" tags="italy tuscany palio siena italia piazzadelcampo contrade" title="IMG_6204" url_b="http://static.flickr.com/2620/3847211176_c97abe0902_b.jpg" username="lusciousblopster" views="0" />
<photo  date_taken="2009-07-02 17:28:39" description="" id="3847797971" latitude="43.318605" license="1" longitude="11.331453" nbComments="0" rank="135" tags="italy tuscany palio siena italia piazzadelcampo contrade" title="IMG_6212" url_b="http://static.flickr.com/2674/3847797971_e13289c502_b.jpg" username="lusciousblopster" views="0" />
<photo  date_taken="2009-07-02 20:08:35" description="" id="3854278112" latitude="43.318605" license="1" longitude="11.331453" nbComments="0" rank="136" tags="italy tuscany palio siena italia piazzadelcampo contrade" title="IMG_6291" url_b="http://static.flickr.com/3467/3854278112_3fe93cf962_b.jpg" username="lusciousblopster" views="1" />
<photo  date_taken="2009-07-02 16:16:11" description="" id="3845481910" latitude="43.318605" license="1" longitude="11.331453" nbComments="0" rank="137" tags="italy tuscany palio siena italia piazzadelcampo contrade" title="IMG_6170" url_b="http://static.flickr.com/2565/3845481910_7890f3aa85_b.jpg" username="lusciousblopster" views="1" />
<photo  date_taken="2009-07-02 19:56:44" description="" id="3853302313" latitude="43.318605" license="1" longitude="11.331453" nbComments="0" rank="138" tags="italy tuscany palio siena italia piazzadelcampo contrade tartuca tortoise" title="IMG_6278" url_b="http://static.flickr.com/3489/3853302313_8917f015ca_b.jpg" username="lusciousblopster" views="0" />
<photo  date_taken="2009-07-02 18:24:11" description="" id="3847926381" latitude="43.318605" license="1" longitude="11.331453" nbComments="0" rank="139" tags="italy tuscany palio siena italia piazzadelcampo contrade" title="IMG_6237" url_b="http://static.flickr.com/2445/3847926381_12636dd49b_b.jpg" username="lusciousblopster" views="1" />
<photo  date_taken="2009-07-02 18:17:58" description="" id="3848675070" latitude="43.318605" license="1" longitude="11.331453" nbComments="0" rank="140" tags="italy tuscany palio siena italia piazzadelcampo contrade" title="IMG_6231" url_b="http://static.flickr.com/3540/3848675070_79a8f4dc67_b.jpg" username="lusciousblopster" views="0" />
<photo  date_taken="2009-07-02 16:34:18" description="" id="3847184640" latitude="43.318605" license="1" longitude="11.331453" nbComments="0" rank="141" tags="italy tuscany palio siena italia piazzadelcampo contrade" title="IMG_6191" url_b="http://static.flickr.com/2462/3847184640_fb62890b34_b.jpg" username="lusciousblopster" views="0" />
<photo  date_taken="2009-07-02 16:17:30" description="" id="3845527994" latitude="43.318605" license="1" longitude="11.331453" nbComments="0" rank="142" tags="italy tuscany palio siena italia piazzadelcampo contrade" title="IMG_6174" url_b="http://static.flickr.com/3462/3845527994_beff24cda2_b.jpg" username="lusciousblopster" views="0" />
<photo  date_taken="2009-07-02 18:14:52" description="" id="3848661676" latitude="43.318605" license="1" longitude="11.331453" nbComments="0" rank="143" tags="italy tuscany palio siena italia piazzadelcampo contrade" title="IMG_6227" url_b="http://static.flickr.com/2574/3848661676_a677d8f34b_b.jpg" username="lusciousblopster" views="0" />
<photo  date_taken="2009-07-02 17:34:45" description="" id="3848603446" latitude="43.318605" license="1" longitude="11.331453" nbComments="0" rank="144" tags="italy tuscany palio siena italia piazzadelcampo contrade tartuca tortoise" title="IMG_6219" url_b="http://static.flickr.com/2550/3848603446_ed491a8d9b_b.jpg" username="lusciousblopster" views="3" />
<photo  date_taken="2009-07-02 16:28:58" description="" id="3845524052" latitude="43.318605" license="1" longitude="11.331453" nbComments="0" rank="145" tags="italy tuscany palio siena italia piazzadelcampo contrade" title="IMG_6183" url_b="http://static.flickr.com/2426/3845524052_8315ddffb2_b.jpg" username="lusciousblopster" views="0" />
<photo  date_taken="2009-07-02 18:13:02" description="" id="3848653122" latitude="43.318605" license="1" longitude="11.331453" nbComments="0" rank="146" tags="italy tuscany palio siena italia piazzadelcampo contrade" title="IMG_6224" url_b="http://static.flickr.com/3534/3848653122_7e8f3bb959_b.jpg" username="lusciousblopster" views="1" />
<photo  date_taken="2009-07-02 18:29:42" description="" id="3847935329" latitude="43.318605" license="1" longitude="11.331453" nbComments="0" rank="147" tags="italy tuscany palio siena italia piazzadelcampo contrade" title="IMG_6245" url_b="http://static.flickr.com/3439/3847935329_967efc6f26_b.jpg" username="lusciousblopster" views="0" />
<photo  date_taken="2009-07-02 17:14:13" description="" id="4119590045" latitude="43.318605" license="1" longitude="11.331453" nbComments="0" rank="148" tags="italy italia palio siena piazzadelcampo contrade tartuca tortoise" title="IMG_6209C" url_b="http://static.flickr.com/2510/4119590045_024f5499fc_b.jpg" username="lusciousblopster" views="5" />
<photo  date_taken="2009-07-02 18:32:45" description="" id="3853034480" latitude="43.318605" license="1" longitude="11.331453" nbComments="0" rank="149" tags="italy tuscany palio siena italia piazzadelcampo contrade" title="IMG_6250" url_b="http://static.flickr.com/3470/3853034480_9aaf51fd0f_b.jpg" username="lusciousblopster" views="0" />
<photo  date_taken="2009-07-02 16:29:45" description="" id="3845326743" latitude="43.318605" license="1" longitude="11.331453" nbComments="0" rank="150" tags="italy tuscany palio siena italia piazzadelcampo contrade" title="IMG_6184b" url_b="http://static.flickr.com/3531/3845326743_63f3caceb8_b.jpg" username="lusciousblopster" views="0" />
</photos>
