<?xml version="1.0" encoding="UTF-8" standalone="no"?>
<photos monument="Potala Palace">

<photo  date_taken="2006-05-05 15:37:16" description="" id="147408208" latitude="29.657791" license="4" longitude="91.116914" nbComments="0" rank="1" tags="tibet lhasa potala palace geotagged geo:lat=2965779156294031 geo:lon=9111691425917012" title="Tibet '06 - 008 - Potala Palace" url_b="http://static.flickr.com/53/147408208_88b58355e5_b.jpg" username="mckaysavage" views="461" />
<photo  date_taken="2009-06-28 14:48:00" description="中国 西藏 拉萨 布达拉宫 Potala Palace, Lhasa, Tibet, China" id="3817437289" latitude="29.658029" license="3" longitude="91.117782" nbComments="1" rank="2" tags="西藏 tibet 蔡司 lhasa distagont28mmf28 拉萨 potalapalace 布达拉宫 པོ་ཏ་ལ carlzeiss day china 中国 architecture tibetan 藏区 佛教 buddhism 藏传佛教" title="布达拉宫 / Potala Palace" url_b="http://static.flickr.com/2472/3817437289_a0053a3b04_b.jpg" username="randomix" views="426" />
<photo  date_taken="2006-05-05 11:43:11" description="Pilgrims would come for thousands of miles to walk this kora (circuit) around the Potala. It was always packed. One always moves clockwise around Buddhist sites, koras, temples or even cairns. On one side were prayer wheels, on the other, tiny stalls selling everything an average Tibetan would need from cloth and beads for worshop to tin pots and utencils. Begging is a common practice in Tibet and not seen as a sign of lack. PIlgrims come from very humble homes to visit their holy sites and then collect alms to fund the long, slow way back." id="147404936" latitude="29.657116" license="4" longitude="91.114103" nbComments="1" rank="3" tags="tibet kora prayer wheel lhasa potala palace fav geotagged geo:lat=2965711685345664 geo:lon=9111410368661392" title="Tibet '06 - 006 - Potala Palace Kora" url_b="http://static.flickr.com/56/147404936_a0b3c91dc3_b.jpg" username="mckaysavage" views="1093" />
<photo  date_taken="2006-05-04 15:57:49" description="The incredible Potala Palace in Lhasa, the former residence of the Dalai Lama. Turned into a museum and bereft of much of its internal heritage, it nonetheless remains a truely spectacular and dramatic building still dominating the skyline of Lhasa." id="147403406" latitude="29.654379" license="4" longitude="91.117326" nbComments="3" rank="4" tags="tibet lhasa potala palace geotagged geo:lat=2965437910174053 geo:lon=9111732666063266" title="Tibet '06 - 005 - Potala Palace" url_b="http://static.flickr.com/50/147403406_932471f775_b.jpg" username="mckaysavage" views="14651" />
<photo  date_taken="2011-04-14 10:03:45" description="" id="6831327232" latitude="29.654697" license="6" longitude="91.113266" nbComments="8" rank="5" tags="14140mmf458 chn camera china lenses lhasa panasonic panasoniclumixg14140mmf458 potalapalace tar tibet tibetautonomousregion 中国 supershot" title="Potala Palace" url_b="http://static.flickr.com/7209/6831327232_145f6a01ea_b.jpg" username="ninjawil" views="203" />
<photo  date_taken="2006-09-27 22:32:25" description="Perched upon Marpo Ri hill, 130 meters above the Lhasa valley, the Potala Palace rises a further 170 meters and is the greatest monumental structure in all of Tibet." id="271170049" latitude="29.657926" license="1" longitude="91.117233" nbComments="0" rank="6" tags="nightshot lhasa potalapalace tibet" title="Potala Palace" url_b="http://static.flickr.com/82/271170049_a280577596_b.jpg" username="ironmanixs" views="581" />
<photo  date_taken="2012-05-19 18:33:35" description="" id="7284572978" latitude="29.658371" license="4" longitude="91.116657" nbComments="0" rank="7" tags="potalapalace tibet lhasa" title="Potala Palace" url_b="http://static.flickr.com/8145/7284572978_9918258b79_b.jpg" username="Mot the barber" views="17" />
<photo  date_taken="2012-05-19 17:51:35" description="" id="7284561550" latitude="29.658371" license="4" longitude="91.116657" nbComments="0" rank="8" tags="potalapalace tibet lhasa" title="Potala Palace" url_b="http://static.flickr.com/7072/7284561550_df2cd6e152_b.jpg" username="Mot the barber" views="28" />
<photo  date_taken="2012-05-19 18:03:30" description="" id="7284564836" latitude="29.658371" license="4" longitude="91.116657" nbComments="0" rank="9" tags="potalapalace tibet lhasa" title="Potala Palace" url_b="http://static.flickr.com/7105/7284564836_9a87444e95_b.jpg" username="Mot the barber" views="35" />
<photo  date_taken="2012-05-19 18:02:54" description="" id="7284564434" latitude="29.658371" license="4" longitude="91.116657" nbComments="0" rank="10" tags="potalapalace tibet lhasa" title="Potala Palace" url_b="http://static.flickr.com/7093/7284564434_c04dc25f71_b.jpg" username="Mot the barber" views="27" />
<photo  date_taken="2012-05-19 18:16:59" description="" id="7284567956" latitude="29.658371" license="4" longitude="91.116657" nbComments="0" rank="11" tags="potalapalace tibet lhasa" title="Potala Palace" url_b="http://static.flickr.com/7236/7284567956_10c05d18cb_b.jpg" username="Mot the barber" views="23" />
<photo  date_taken="2012-05-19 18:25:28" description="" id="7284570776" latitude="29.658371" license="4" longitude="91.116657" nbComments="0" rank="12" tags="potalapalace tibet lhasa" title="Potala Palace" url_b="http://static.flickr.com/7236/7284570776_bf77d976c0_b.jpg" username="Mot the barber" views="17" />
<photo  date_taken="2012-05-19 18:02:33" description="" id="7284564064" latitude="29.658371" license="4" longitude="91.116657" nbComments="0" rank="13" tags="potalapalace tibet lhasa" title="Potala Palace" url_b="http://static.flickr.com/7229/7284564064_d90b650023_b.jpg" username="Mot the barber" views="51" />
<photo  date_taken="2012-05-19 18:35:43" description="" id="7284574084" latitude="29.658371" license="4" longitude="91.116657" nbComments="0" rank="14" tags="potalapalace tibet lhasa" title="Potala Palace" url_b="http://static.flickr.com/8149/7284574084_19bd72964f_b.jpg" username="Mot the barber" views="21" />
<photo  date_taken="2012-05-19 18:41:44" description="" id="7284576314" latitude="29.658371" license="4" longitude="91.116657" nbComments="0" rank="15" tags="potalapalace tibet lhasa" title="Potala Palace" url_b="http://static.flickr.com/7230/7284576314_0cc1482379_b.jpg" username="Mot the barber" views="25" />
<photo  date_taken="2012-05-19 18:23:43" description="" id="7284569764" latitude="29.658371" license="4" longitude="91.116657" nbComments="0" rank="16" tags="potalapalace tibet lhasa" title="Potala Palace" url_b="http://static.flickr.com/7220/7284569764_f6a6e49e71_b.jpg" username="Mot the barber" views="20" />
<photo  date_taken="2012-05-19 18:37:58" description="" id="7284575368" latitude="29.658371" license="4" longitude="91.116657" nbComments="0" rank="17" tags="potalapalace tibet lhasa" title="Potala Palace" url_b="http://static.flickr.com/7073/7284575368_d8ebcf9544_b.jpg" username="Mot the barber" views="15" />
<photo  date_taken="2012-05-19 17:59:47" description="" id="7284563532" latitude="29.658371" license="4" longitude="91.116657" nbComments="0" rank="18" tags="potalapalace tibet lhasa" title="Potala Palace" url_b="http://static.flickr.com/7245/7284563532_5cd27da1ab_b.jpg" username="Mot the barber" views="25" />
<photo  date_taken="2012-05-19 18:36:56" description="" id="7284574480" latitude="29.658371" license="4" longitude="91.116657" nbComments="0" rank="19" tags="potalapalace tibet lhasa" title="Potala Palace" url_b="http://static.flickr.com/8016/7284574480_8d4c815b4e_b.jpg" username="Mot the barber" views="15" />
<photo  date_taken="2012-05-19 17:59:43" description="" id="7284563138" latitude="29.658371" license="4" longitude="91.116657" nbComments="0" rank="20" tags="potalapalace tibet lhasa" title="Potala Palace" url_b="http://static.flickr.com/7078/7284563138_0cf6c8612e_b.jpg" username="Mot the barber" views="43" />
<photo  date_taken="2012-05-19 18:22:54" description="" id="7284569240" latitude="29.658371" license="4" longitude="91.116657" nbComments="0" rank="21" tags="potalapalace tibet lhasa" title="Potala Palace" url_b="http://static.flickr.com/7083/7284569240_3d2a26f233_b.jpg" username="Mot the barber" views="14" />
<photo  date_taken="2012-05-19 18:05:15" description="" id="7284565958" latitude="29.658371" license="4" longitude="91.116657" nbComments="0" rank="22" tags="potalapalace tibet lhasa" title="Potala Palace" url_b="http://static.flickr.com/7105/7284565958_645faebbcb_b.jpg" username="Mot the barber" views="45" />
<photo  date_taken="2012-05-19 18:12:46" description="" id="7284566924" latitude="29.658371" license="4" longitude="91.116657" nbComments="0" rank="23" tags="potalapalace tibet lhasa" title="Potala Palace" url_b="http://static.flickr.com/8003/7284566924_31865fafaf_b.jpg" username="Mot the barber" views="20" />
<photo  date_taken="2012-05-19 18:20:13" description="" id="7284568848" latitude="29.658371" license="4" longitude="91.116657" nbComments="0" rank="24" tags="potalapalace tibet lhasa" title="Potala Palace" url_b="http://static.flickr.com/8017/7284568848_7d065a1f15_b.jpg" username="Mot the barber" views="18" />
<photo  date_taken="2012-05-19 18:26:56" description="" id="7284571324" latitude="29.658371" license="4" longitude="91.116657" nbComments="0" rank="25" tags="potalapalace tibet lhasa" title="Potala Palace" url_b="http://static.flickr.com/7085/7284571324_ffc178b8c1_b.jpg" username="Mot the barber" views="25" />
<photo  date_taken="2012-05-19 18:44:53" description="" id="7284576686" latitude="29.658371" license="4" longitude="91.116657" nbComments="0" rank="26" tags="potalapalace tibet lhasa" title="Potala Palace" url_b="http://static.flickr.com/7241/7284576686_4dc389823d_b.jpg" username="Mot the barber" views="16" />
<photo  date_taken="2012-05-19 18:29:27" description="" id="7284571754" latitude="29.658371" license="4" longitude="91.116657" nbComments="0" rank="27" tags="potalapalace tibet lhasa" title="Potala Palace" url_b="http://static.flickr.com/8024/7284571754_69d3236516_b.jpg" username="Mot the barber" views="16" />
<photo  date_taken="2012-05-19 18:41:08" description="" id="7284575830" latitude="29.658371" license="4" longitude="91.116657" nbComments="0" rank="28" tags="potalapalace tibet lhasa" title="Potala Palace" url_b="http://static.flickr.com/7242/7284575830_2d4f8b3db7_b.jpg" username="Mot the barber" views="15" />
<photo  date_taken="2012-05-19 18:19:33" description="" id="7284568270" latitude="29.658371" license="4" longitude="91.116657" nbComments="0" rank="29" tags="potalapalace tibet lhasa" title="Potala Palace" url_b="http://static.flickr.com/8010/7284568270_5089809cbe_b.jpg" username="Mot the barber" views="24" />
<photo  date_taken="2012-05-19 17:59:11" description="" id="7284562572" latitude="29.658371" license="4" longitude="91.116657" nbComments="0" rank="30" tags="potalapalace tibet lhasa" title="Potala Palace" url_b="http://static.flickr.com/7221/7284562572_9b699816f9_b.jpg" username="Mot the barber" views="34" />
<photo  date_taken="2012-05-19 17:52:55" description="" id="7284562102" latitude="29.658371" license="4" longitude="91.116657" nbComments="0" rank="31" tags="potalapalace tibet lhasa" title="Potala Palace" url_b="http://static.flickr.com/7227/7284562102_fe266280cd_b.jpg" username="Mot the barber" views="17" />
<photo  date_taken="2006-09-30 10:54:20" description="One of the many sets of stairs on the way up to the Potala Palace in Lhasa, Tibet" id="6851597823" latitude="29.657394" license="2" longitude="91.117519" nbComments="0" rank="32" tags="china dalailama lhasa monastery potalapalace tibet tibetanbuddhism unescoworldheritagesite xizangtibet cn" title="Potala Palace Stairs" url_b="http://static.flickr.com/7185/6851597823_9bd0e33634_b.jpg" username="Jay Mooy" views="57" />
<photo  date_taken="2010-09-12 14:55:55" description="" id="5042287205" latitude="29.6585" license="1" longitude="91.117" nbComments="0" rank="33" tags="" title="View from Potala Palace, Lhasa" url_b="http://static.flickr.com/4153/5042287205_7abec12d59_b.jpg" username="mikemedia" views="44" />
<photo  date_taken="2009-06-28 16:26:00" description="中国 西藏 拉萨 布达拉宫 Potala Palace, Lhasa, Tibet, China" id="3817438505" latitude="29.65855" license="3" longitude="91.116409" nbComments="0" rank="34" tags="architecture lhasa a16 拉萨 布达拉宫 པོ་ཏ་ལ potalapalace tamronspaf1750mmf28if tamron 西藏 tibet 腾龙 day outdoor china 中国 tibetan 藏区 佛教 buddhism 藏传佛教" title="红宫 / Red Palace" url_b="http://static.flickr.com/2517/3817438505_8eaf8a1b18_b.jpg" username="randomix" views="179" />
<photo  date_taken="2011-11-03 02:50:23" description="From the steps" id="6414094023" latitude="29.657166" license="1" longitude="91.117666" nbComments="0" rank="35" tags="" title="Potala Palace" url_b="http://static.flickr.com/7164/6414094023_73130cf172_b.jpg" username="oh contraire" views="11" />
<photo  date_taken="1998-05-04 00:00:00" description="[&amp;quot;sz:956046&amp;quot;, &amp;quot;fn:pcd.19980504.4-0423-015.m1.jpg&amp;quot;]" id="5360076345" latitude="29.657951" license="6" longitude="91.117999" nbComments="7" rank="36" tags="rtw97 tibet" title="Potala Palace, Lhasa, Tibet" url_b="http://static.flickr.com/5169/5360076345_74b8a6784e_b.jpg" username="linuts" views="106" />
<photo  date_taken="2010-09-12 15:58:18" description="" id="5042917712" latitude="29.656499" license="1" longitude="91.116699" nbComments="0" rank="37" tags="" title="Potala Palace, Lhasa" url_b="http://static.flickr.com/4104/5042917712_63af8d6b47_b.jpg" username="mikemedia" views="44" />
<photo  date_taken="2010-09-12 02:16:47" description="" id="5042282035" latitude="29.656499" license="1" longitude="91.116699" nbComments="0" rank="38" tags="" title="Potala Palace, Lhasa" url_b="http://static.flickr.com/4152/5042282035_6c90b17b22_b.jpg" username="mikemedia" views="42" />
<photo  date_taken="2010-09-12 14:56:50" description="" id="5042285145" latitude="29.656499" license="1" longitude="91.116699" nbComments="0" rank="39" tags="" title="Potala Palace, Lhasa" url_b="http://static.flickr.com/4129/5042285145_3e377e59db_b.jpg" username="mikemedia" views="45" />
<photo  date_taken="2010-09-12 15:00:09" description="" id="5042914196" latitude="29.656499" license="1" longitude="91.116699" nbComments="0" rank="40" tags="" title="Potala Palace, Lhasa" url_b="http://static.flickr.com/4084/5042914196_f0db218581_b.jpg" username="mikemedia" views="45" />
<photo  date_taken="2011-11-03 02:45:30" description="Potala Palace, Lhasa" id="6414086151" latitude="29.657" license="1" longitude="91.118" nbComments="0" rank="41" tags="" title="Murals" url_b="http://static.flickr.com/6211/6414086151_0e8d0a4da5_b.jpg" username="oh contraire" views="13" />
<photo  date_taken="2011-04-14 11:15:05" description="" id="6920237763" latitude="29.656619" license="6" longitude="91.117602" nbComments="0" rank="42" tags="20mmf17 chn camera china lenses lhasa panasonic panasoniclumixg20mmf17asph pancakelens potalapalace tar tibet tibetautonomousregion 中国" title="Potala Palace" url_b="http://static.flickr.com/7209/6920237763_55dfca3dde_b.jpg" username="ninjawil" views="35" />
<photo  date_taken="2011-04-14 11:02:52" description="" id="6920214523" latitude="29.656619" license="6" longitude="91.117602" nbComments="1" rank="43" tags="14140mmf458 chn camera china lenses lhasa panasonic panasoniclumixg14140mmf458 potalapalace tar tibet tibetautonomousregion 中国" title="Tibetans climb the long stairs to the Potala Palaca" url_b="http://static.flickr.com/7191/6920214523_0173ab8f5b_b.jpg" username="ninjawil" views="62" />
<photo  date_taken="2009-06-28 16:23:00" description="中国 西藏 拉萨 布达拉宫 Potala Palace, Lhasa, Tibet, China" id="3817437953" latitude="29.659139" license="3" longitude="91.116699" nbComments="0" rank="44" tags="tamron 西藏 tibet lhasa 腾龙 拉萨 potalapalace 布达拉宫 པོ་ཏ་ལ day a16 tamronspaf1750mmf28if china 中国 tibetan 藏区 佛教 buddhism 藏传佛教" title="布达拉宫 / Potala Palace" url_b="http://static.flickr.com/2509/3817437953_16c901dd22_b.jpg" username="randomix" views="334" />
<photo  date_taken="2011-11-03 02:36:23" description="From the steps of the Potala Palace. Totally not using photography as an excuse to take a rest." id="6414074173" latitude="29.656666" license="1" longitude="91.118333" nbComments="0" rank="45" tags="" title="Lhasa" url_b="http://static.flickr.com/7163/6414074173_78801ce2e5_b.jpg" username="oh contraire" views="11" />
<photo  date_taken="2011-11-03 03:54:35" description="Lhasa" id="6414100633" latitude="29.658833" license="1" longitude="91.1185" nbComments="0" rank="46" tags="" title="Steps to Potala Palace" url_b="http://static.flickr.com/7150/6414100633_2f3c508314_b.jpg" username="oh contraire" views="18" />
<photo  date_taken="2011-11-03 03:52:48" description="Having a rest on the steps up to the Potala Palace, Lhasa." id="6414101997" latitude="29.658833" license="1" longitude="91.1185" nbComments="0" rank="47" tags="" title="Just taking an oxygen break" url_b="http://static.flickr.com/7031/6414101997_2684d907cb_b.jpg" username="oh contraire" views="11" />
<photo  date_taken="2006-09-30 10:49:44" description="A red door contrasted against the white finish of the building, located on the Potala Palace grounds." id="6769047097" latitude="29.656569" license="2" longitude="91.11918" nbComments="0" rank="48" tags="architecture china door lhasa monastery potalapalace tibet tibetanbuddhism unescoworldheritagesite xizangtibet cn" title="Red Door" url_b="http://static.flickr.com/7028/6769047097_63ed4a7ac2_b.jpg" username="Jay Mooy" views="56" />
<photo  date_taken="2009-07-03 20:59:00" description="中国 西藏 拉萨 布达拉宫 Potala Palace, Lhasa, Tibet, China" id="3818249108" latitude="29.65496" license="3" longitude="91.117248" nbComments="2" rank="49" tags="architecture lhasa a16 拉萨 布达拉宫 night པོ་ཏ་ལ potalapalace tamronspaf1750mmf28if tamron 西藏 tibet 腾龙 day outdoor tibetautonomousregion china 中国 tibetan 藏区 佛教 buddhism 藏传佛教" title="暮光之城 / Before Dark" url_b="http://static.flickr.com/3501/3818249108_bde41a4201_b.jpg" username="randomix" views="396" />
<photo  date_taken="2006-09-01 18:06:00" description="Filename: IMG_3911" id="383867374" latitude="29.654641" license="3" longitude="91.117255" nbComments="0" rank="50" tags="lhasa me selected bike" title="At Potala Palace" url_b="http://static.flickr.com/123/383867374_7e209555c0_b.jpg" username="notemper2x" views="46" />
<photo  date_taken="2011-11-03 04:20:49" description="At a tea house near the Potala Palace. Noodle soup, spicy potato thing, and bread. I'd say it was delicious, but... y'know. It was okay, though." id="6414115027" latitude="29.6575" license="1" longitude="91.120166" nbComments="0" rank="51" tags="" title="Lunch" url_b="http://static.flickr.com/6047/6414115027_794dd21444_b.jpg" username="oh contraire" views="13" />
<photo  date_taken="2006-09-29 11:14:09" description="A nightshot of Potala palace taken from the square in front of the palace." id="393891674" latitude="29.65451" license="1" longitude="91.117599" nbComments="2" rank="52" tags="nightshot lhasa potalapalace buddhism tibet" title="Potala palace at night" url_b="http://static.flickr.com/124/393891674_13dedfaa0a_b.jpg" username="ironmanixs" views="1185" />
<photo  date_taken="2011-11-03 04:17:06" description="A man who was very interested in our lunch at a tea house near the Potala Palace, Lhasa." id="6414107789" latitude="29.657833" license="1" longitude="91.120333" nbComments="0" rank="53" tags="" title="Hey, what are you guys having?" url_b="http://static.flickr.com/7027/6414107789_69190dac07_b.jpg" username="oh contraire" views="14" />
<photo  date_taken="2011-11-03 02:11:29" description="Dalai Lama's winter palace. Uh, not that he goes there much these days... :-/" id="6414071795" latitude="29.655333" license="1" longitude="91.119499" nbComments="0" rank="54" tags="" title="Potala Palace" url_b="http://static.flickr.com/7158/6414071795_82c69f8f72_b.jpg" username="oh contraire" views="15" />
<photo  date_taken="2006-09-23 11:24:01" description="The Potala Palace ancient architectural complex is considered a model of Tibetan architecture. Located on the Red Hill in Lhasa, Tibet, it is 3,700 meters above sea level" id="272973120" latitude="29.654993" license="1" longitude="91.11464" nbComments="0" rank="55" tags="china lhasa tibet potalapalace" title="Potala Palace" url_b="http://static.flickr.com/110/272973120_c570e7342d_b.jpg" username="ironmanixs" views="626" />
<photo  date_taken="2009-07-03 20:16:00" description="中国 西藏 拉萨 布达拉宫 Potala Palace, Lhasa, Tibet, China" id="3817438943" latitude="29.653659" license="3" longitude="91.117362" nbComments="2" rank="56" tags="tamron 西藏 tibet lhasa 腾龙 拉萨 potalapalace 布达拉宫 པོ་ཏ་ལ day a16 tamronspaf1750mmf28if tibetautonomousregion china 中国 tibetan 藏区 佛教 buddhism 藏传佛教" title="消防员 / Firefighters" url_b="http://static.flickr.com/3570/3817438943_d4d6caa95e_b.jpg" username="randomix" views="324" />
<photo  date_taken="2004-09-21 05:17:36" description="" id="2459173712" latitude="29.65508" license="1" longitude="91.113736" nbComments="1" rank="57" tags="tibet countries potalapalace lhasa" title="Potala Palace, Tibet" url_b="http://static.flickr.com/2300/2459173712_1b3c037c68_b.jpg" username="Dennis Kruyt" views="188" />
<photo  date_taken="2012-09-07 08:38:23" description="Potala Palace" id="8378180411" latitude="29.653728" license="1" longitude="91.118524" nbComments="0" rank="58" tags="" title="_MG_8991" url_b="http://static.flickr.com/8502/8378180411_0b11d9ab66_b.jpg" username="Liyuan Tan" views="0" />
<photo  date_taken="2009-08-14 08:37:00" description="I'm currently uploading old photos from my trip to Tibet in 2009 that I never got around to uploading. Taken across from the Potala Palace in Lhasa." id="5595909729" latitude="29.65315" license="3" longitude="91.113224" nbComments="0" rank="59" tags="tibet china photographer spy pink people" title="The Photographer" url_b="http://static.flickr.com/5179/5595909729_0f031f2ae1_b.jpg" username="chrissuderman" views="73" />
</photos>
