<?xml version="1.0" encoding="UTF-8" standalone="no"?>
<photos monument="Rialto Bridge">

<photo  date_taken="2007-12-23 10:54:44" description="A gondolier passing under the Rialto Bridge in Venice, Italy. &lt;a href=&quot;http://bighugelabs.com/flickr/onblack.php?id=2204146428&amp;amp;size=large&quot;&gt;View On Black&lt;/a&gt; &lt;a href=&quot;http://www.flickr.com/groups/world/pool/tags/italy/&quot;&gt;Back to Italy&lt;/a&gt; - &lt;a href=&quot;http://www.flickr.com/groups/world/&quot;&gt;Visit the World&lt;/a&gt;" id="2204146428" latitude="45.438069" license="3" longitude="12.335892" nbComments="2" rank="1" tags="italia italy venice venezia veneto grandcanal canal water europe travel gondola gondolier rialto bridge rialtobridge boat canonsd450 canon sd450 widescreen wallpaper 169" title="Gondolier" url_b="http://static.flickr.com/2189/2204146428_0ffc0d8252_b.jpg" username="wenzday01" views="1402" />
<photo  date_taken="2007-12-23 18:43:06" description="&lt;a href=&quot;http://bighugelabs.com/flickr/onblack.php?id=2220234972&amp;amp;size=large&quot;&gt;View On Black&lt;/a&gt; &lt;a href=&quot;http://www.flickr.com/groups/world/pool/tags/italy/&quot;&gt;Back to Italy&lt;/a&gt; - &lt;a href=&quot;http://www.flickr.com/groups/world/&quot;&gt;Visit the World&lt;/a&gt;" id="2220234972" latitude="45.438069" license="3" longitude="12.335892" nbComments="2" rank="2" tags="italia italy venezia venice veneto grandcanal water night lights reflection rialtobridge rialto europe travel canon sd450 canonsd450 longexposure" title="Grand Canal at Night" url_b="http://static.flickr.com/2319/2220234972_30fb20e5de_b.jpg" username="wenzday01" views="639" />
<photo  date_taken="2007-09-17 20:24:24" description="The famous Venetian canal is busy even at night! Best viewed &lt;a href=&quot;http://www.flickr.com/photo_zoom.gne?id=1459631519&amp;amp;size=l&quot;&gt;large &lt;/a&gt;" id="1459631519" latitude="45.438069" license="3" longitude="12.335908" nbComments="15" rank="3" tags="grandcanal thegrandcanal venice italy gondola water boats rialto bridge rialtobridge venezia venito longexposure night canal shadows movement top20venice" title="The Grand canal at night - A view from the Rialto" url_b="http://static.flickr.com/1412/1459631519_5948f39be4_b.jpg" username="Dysanovic" views="1116" />
<photo  date_taken="2007-04-14 00:00:01" description="Taken from a gondola, the Rialto is the biggest of the three bridges crossing the Grand Canal in Venice, Italy." id="1106866705" latitude="45.438069" license="6" longitude="12.335919" nbComments="2" rank="4" tags="rialto rialtobridge bridge venice italy grandcanal" title="The Rialto Bridge" url_b="http://static.flickr.com/1234/1106866705_5b12792ffb_b.jpg" username="Christina Welsh (Rin)" views="274" />
<photo  date_taken="2007-09-04 04:20:13" description="" id="1348349950" latitude="45.438077" license="6" longitude="12.335886" nbComments="0" rank="5" tags="venice venezia italy rialto bridge grand canal" title="rialto bridge" url_b="http://static.flickr.com/1130/1348349950_6b2c4660dd_b.jpg" username="skunks" views="79" />
<photo  date_taken="2008-02-19 18:08:06" description="Rialto Bridge is the most famous bridge in Venice. Мостът Риалто е най-известният мост във Венеция." id="2286770769" latitude="45.438084" license="2" longitude="12.335854" nbComments="0" rank="6" tags="италия венеция italy venice italien venedig italia venezia veneto венето canal grand grande water канал вода нощ вечер night evening риалто мост rialto bridge" title="Il Rialto / Rialto Bridge / Мостът Риалто" url_b="http://static.flickr.com/3115/2286770769_3145c2f7bc_b.jpg" username="mitko_denev" views="405" />
<photo  date_taken="2010-05-08 19:10:09" description="Venice canal from Rialto bridge" id="4625572542" latitude="45.438073" license="1" longitude="12.335951" nbComments="0" rank="7" tags="venice venecia venezia italy italia canal" title="Venice" url_b="http://static.flickr.com/3387/4625572542_4c502c1ab3_b.jpg" username="jas_gd" views="257" />
<photo  date_taken="2007-07-06 11:22:33" description="View of the Grand Canal from Ponte di Rialto." id="946359338" latitude="45.438107" license="4" longitude="12.335876" nbComments="0" rank="8" tags="europe travel venice italy grandcanal rialtobridge pontedirialto" title="Grand Canal" url_b="http://static.flickr.com/1250/946359338_e3280a6646_b.jpg" username="HarshLight" views="152" />
<photo  date_taken="2007-07-06 11:41:17" description="Looking down the Grand Canal from near the Rialto Bridge." id="2985924668" latitude="45.438107" license="4" longitude="12.335876" nbComments="0" rank="9" tags="europe travel italy venice grandcanal" title="Grand Canal" url_b="http://static.flickr.com/3152/2985924668_760f8e8204_b.jpg" username="HarshLight" views="47" />
<photo  date_taken="2007-07-06 11:17:29" description="A look down the Grand Canal from Ponte di Rialto." id="2985923400" latitude="45.438107" license="4" longitude="12.335876" nbComments="1" rank="10" tags="europe travel italy venice rialtobridge grandcanal pontedirialto" title="Grand Canal from the Rialto" url_b="http://static.flickr.com/3245/2985923400_830ed64847_b.jpg" username="HarshLight" views="137" />
<photo  date_taken="2009-10-03 20:01:07" description="Our view as we ate our first dinner of sliced meat, cheese and bread in Venice" id="4039842970" latitude="45.438122" license="3" longitude="12.335897" nbComments="8" rank="11" tags="italia italy october2009 vacationwithsusie venice venizia racheltitiriga water canals gondola dusk rialtobridge rialto panasonic dmcfz28" title="The Dinner View" url_b="http://static.flickr.com/2584/4039842970_d995fa7cd2_b.jpg" username="rachel_titiriga" views="65" />
<photo  date_taken="2012-08-12 14:12:21" description="Canal Grande" id="7844171766" latitude="45.438017" license="3" longitude="12.335983" nbComments="11" rank="12" tags="włochy italy italia italie italien италия 意大利 이탈리아 イタリア wenecja venice venezia venecia venise venedig венеция 威尼斯 베네치아 ヴェネツィア rialto most bridge" title="Italy Venice Next to Rialto Bridge August 2012" url_b="http://static.flickr.com/8441/7844171766_12062714a6_b.jpg" username="Smo_Q" views="351" />
<photo  date_taken="2001-10-16 20:16:14" description="Venice, Ponte di Rialto" id="6218108364" latitude="45.438037" license="4" longitude="12.335895" nbComments="0" rank="13" tags="venice pontedirialto italy rialto bridge" title="Venice, Ponte di Rialto" url_b="http://static.flickr.com/6230/6218108364_a3a254c2a0_b.jpg" username="Arian Zwegers" views="278" />
<photo  date_taken="2009-10-20 09:12:14" description="The Rialto Bridge (Italian: Ponte di Rialto) is one of the four bridges spanning the Grand Canal in Venice, Italy. It is the oldest bridge across the canal, and was the dividing line for the districts of San Marco and San Polo. The present stone bridge, a single span designed by Antonio da Ponte, was finally completed in 1591. It is similar to the wooden bridge it succeeded. Two inclined ramps lead up to a central portico. On either side of the portico, the covered ramps carry rows of shops. The engineering of the bridge was considered so audacious that architect Vincenzo Scamozzi predicted future ruin. The bridge has defied its critics to become one of the architectural icons of Venice. (Wikipedia)" id="8495306483" latitude="45.438039" license="4" longitude="12.335897" nbComments="2" rank="14" tags="italy venezia venice pontederialto" title="Ponte di Rialto" url_b="http://static.flickr.com/8229/8495306483_77e9706bdb_b.jpg" username="PAVDW" views="6" />
<photo  date_taken="2009-09-11 13:17:13" description="missed stolen portrait" id="3919829010" latitude="45.438039" license="3" longitude="12.335908" nbComments="14" rank="15" tags="woman missed stolen portrait rialto bridge venice italy delete deleted2 deleted3 delete4 saved deleted5 deleted6 saved2 deleted7 deleted8 deleted9 saved3 deleted10 yearningforaholga" title="" url_b="http://static.flickr.com/2442/3919829010_3e16af1c91_b.jpg" username="Renzo Apostoli" views="78" />
<photo  date_taken="2009-07-23 12:39:39" description="" id="3767926085" latitude="45.438039" license="6" longitude="12.335908" nbComments="0" rank="16" tags="italy venice rialtobridge" title="Rialto Bridge" url_b="http://static.flickr.com/3567/3767926085_73c5acca00_b.jpg" username="JERVIS_PICS" views="4" />
<photo  date_taken="2009-09-11 13:23:52" description="" id="3919898390" latitude="45.438039" license="3" longitude="12.335908" nbComments="0" rank="17" tags="man stolen portrait rialto bridge venice italy tsn" title="" url_b="http://static.flickr.com/2636/3919898390_6618392123_b.jpg" username="Renzo Apostoli" views="21" />
<photo  date_taken="2009-07-23 12:41:16" description="" id="3767928121" latitude="45.438039" license="6" longitude="12.335908" nbComments="0" rank="18" tags="italy venice rialtobridge" title="Rialto Bridge" url_b="http://static.flickr.com/2489/3767928121_0b318d701d_b.jpg" username="JERVIS_PICS" views="6" />
<photo  date_taken="2013-02-24 17:27:10" description="Should we take a picture of ourselves, trying to find out where we are or just enjoy the view?" id="8505085168" latitude="45.438032" license="1" longitude="12.335908" nbComments="0" rank="19" tags="" title="Venice - Rialto bridge" url_b="http://static.flickr.com/8367/8505085168_7ae0c8d4c0_b.jpg" username="Irina+" views="5" />
<photo  date_taken="2007-11-21 11:33:15" description="" id="2061793971" latitude="45.438047" license="2" longitude="12.335876" nbComments="0" rank="20" tags="italy 2007 vacation venezia venice" title="Rialto Bridge (Venice)" url_b="http://static.flickr.com/2055/2061793971_1361fde907_b.jpg" username="ajd, mhd, njd, med &amp; gsd" views="18" />
<photo  date_taken="2007-11-21 11:32:32" description="" id="2061792831" latitude="45.438047" license="2" longitude="12.335876" nbComments="0" rank="21" tags="italy 2007 vacation venezia venice" title="view from the Rialto Bridge (Venice)" url_b="http://static.flickr.com/2235/2061792831_2865f24cb8_b.jpg" username="ajd, mhd, njd, med &amp; gsd" views="8" />
<photo  date_taken="2007-11-25 07:58:04" description="" id="2071225749" latitude="45.438017" license="1" longitude="12.335886" nbComments="0" rank="22" tags="venice italy vacation" title="overlooking Grand Canal from Rialto Bridge" url_b="http://static.flickr.com/2278/2071225749_69b6076c59_b.jpg" username="Xmansti" views="5" />
<photo  date_taken="2007-11-26 05:23:26" description="" id="2107619771" latitude="45.438017" license="1" longitude="12.335886" nbComments="0" rank="23" tags="" title="view from Rialto Bridge" url_b="http://static.flickr.com/2206/2107619771_2eda532e6e_b.jpg" username="Xmansti" views="0" />
<photo  date_taken="2007-11-27 05:53:41" description="" id="2087554617" latitude="45.438017" license="1" longitude="12.335886" nbComments="0" rank="24" tags="vacation italy venice" title="view of grand canal from Rialto bridge" url_b="http://static.flickr.com/2062/2087554617_039b292243_b.jpg" username="Xmansti" views="17" />
<photo  date_taken="2012-09-14 17:22:46" description="Ponte Rialto - view from the water, looking north." id="8150303138" latitude="45.438039" license="2" longitude="12.335919" nbComments="0" rank="25" tags="italy italia venice venezia canal boats boat water bridge canale grandcanal" title="Rialto Bridge" url_b="http://static.flickr.com/8049/8150303138_eed451daf1_b.jpg" username="penanghill" views="26" />
<photo  date_taken="2004-04-16 12:37:09" description="View from Rialto Bridge, Grand Canal, Venice, Italy" id="3211537187" latitude="45.438047" license="3" longitude="12.335919" nbComments="0" rank="26" tags="venice italy venezia italia view rialto bridge grand canal" title="View from Rialto Bridge, Grand Canal, Venice, Italy" url_b="http://static.flickr.com/3465/3211537187_322d576a16_b.jpg" username="Eustaquio Santimano" views="1182" />
<photo  date_taken="2008-11-15 19:56:40" description="" id="5131358135" latitude="45.438062" license="4" longitude="12.335886" nbComments="0" rank="27" tags="venice rialtobridge" title="The Rialto Bridge by night" url_b="http://static.flickr.com/1176/5131358135_ed795f5303_b.jpg" username="NH53" views="30" />
<photo  date_taken="2010-08-01 07:55:52" description="" id="5135521790" latitude="45.438065" license="5" longitude="12.335905" nbComments="0" rank="28" tags="boats day grandcanal hdr italy landmarks landscape rialtobridge sea venice vvv2010" title="Grand Canal from the Rialto Bridge" url_b="http://static.flickr.com/1150/5135521790_8015570aaf_b.jpg" username="jiuguangw" views="138" />
<photo  date_taken="2009-06-29 14:40:42" description="Tomada desde el &amp;quot;vaporetto&amp;quot;" id="4511734438" latitude="45.438065" license="1" longitude="12.335905" nbComments="0" rank="29" tags="bridge gondola italia italy puente rialto venecia venice" title="Puente de Rialto" url_b="http://static.flickr.com/2284/4511734438_fc7b8d8999_b.jpg" username="germangg95" views="21" />
<photo  date_taken="2009-06-06 12:47:58" description="" id="3624948817" latitude="45.438065" license="3" longitude="12.335905" nbComments="0" rank="30" tags="trip09 travel backpacking europe italy venice rialtobridge" title="Rialto Bridge - Venice, Italy" url_b="http://static.flickr.com/3540/3624948817_acf25eb193_b.jpg" username="geordieb1" views="13" />
<photo  date_taken="2009-07-11 13:37:40" description="" id="3745570419" latitude="45.438017" license="4" longitude="12.335919" nbComments="0" rank="31" tags="italië italy rialto canal water venice venetië gondola boat" title="View from the Rialto Bridge" url_b="http://static.flickr.com/3458/3745570419_49445c8aeb_b.jpg" username="robinbos" views="21" />
<photo  date_taken="2004-08-25 13:29:41" description="Sounth from the Rialto Bridge" id="354193586" latitude="45.438047" license="1" longitude="12.335865" nbComments="0" rank="32" tags="italy venice grandcanal canon" title="The Gand Canal" url_b="http://static.flickr.com/125/354193586_9dd75c59b8_b.jpg" username="tim.spilman" views="20" />
<photo  date_taken="2004-08-25 13:31:10" description="Looking North from the Rialto Bridge" id="354200943" latitude="45.438047" license="1" longitude="12.335865" nbComments="0" rank="33" tags="venice grandcanal canon" title="The Grand Canal" url_b="http://static.flickr.com/149/354200943_83894cb9cb_b.jpg" username="tim.spilman" views="21" />
<photo  date_taken="2007-12-23 10:56:41" description="&lt;a href=&quot;http://bighugelabs.com/flickr/onblack.php?id=2213679562&amp;amp;size=large&quot;&gt;View On Black&lt;/a&gt; &lt;a href=&quot;http://www.flickr.com/groups/world/pool/tags/italy/&quot;&gt;Back to Italy&lt;/a&gt; - &lt;a href=&quot;http://www.flickr.com/groups/world/&quot;&gt;Visit the World&lt;/a&gt;" id="2213679562" latitude="45.438069" license="3" longitude="12.335892" nbComments="0" rank="34" tags="italy italia venezia venice veneto grandcanal travel europe water bridge rialtobridge rialto canon sd450 canonsd450 widescreen wallpaper 169 bw topv111 topv333" title="Grand Canal II" url_b="http://static.flickr.com/2102/2213679562_a4608dfdf8_b.jpg" username="wenzday01" views="1545" />
<photo  date_taken="2007-12-23 11:04:57" description="&lt;a href=&quot;http://flickr.com/photos/wenzday01/2213679780/in/set-72157603630014606/&quot;&gt;Same guy.&lt;/a&gt; &lt;a href=&quot;http://bighugelabs.com/flickr/onblack.php?id=2826679262&amp;amp;size=large&quot;&gt;View On Black&lt;/a&gt;" id="2826679262" latitude="45.438069" license="3" longitude="12.335892" nbComments="0" rank="35" tags="venice venezia veneto italy italia grandcanal gondola canal gondolier europe water bridge rialtobridge rialto fake tiltshift faketiltshift photoshop travel canon sd450 canonsd450" title="Standing on Water" url_b="http://static.flickr.com/3227/2826679262_f88c0ac2e6_b.jpg" username="wenzday01" views="254" />
<photo  date_taken="2007-12-23 18:34:20" description="&lt;a href=&quot;http://bighugelabs.com/flickr/onblack.php?id=2219442331&amp;amp;size=large&quot;&gt;View On Black&lt;/a&gt; &lt;a href=&quot;http://www.flickr.com/groups/world/pool/tags/italy/&quot;&gt;Back to Italy&lt;/a&gt; - &lt;a href=&quot;http://www.flickr.com/groups/world/&quot;&gt;Visit the World&lt;/a&gt;" id="2219442331" latitude="45.438069" license="3" longitude="12.335892" nbComments="0" rank="36" tags="italia italy venezia venice veneto grandcanal water night lights rialtobridge rialto europe travel canon sd450 canonsd450" title="Rialto Bridge at Night" url_b="http://static.flickr.com/2411/2219442331_fe0d08c0c1_b.jpg" username="wenzday01" views="557" />
<photo  date_taken="2007-12-23 10:56:10" description="This is the view of the busy Grand Canal southwest from the famous Rialto Bridge. &lt;a href=&quot;http://bighugelabs.com/flickr/onblack.php?id=2193353269&amp;amp;size=large&quot;&gt;View On Black&lt;/a&gt; &lt;a href=&quot;http://www.flickr.com/groups/world/pool/tags/italy/&quot;&gt;Back to Italy&lt;/a&gt; - &lt;a href=&quot;http://www.flickr.com/groups/world/&quot;&gt;Visit the World&lt;/a&gt;" id="2193353269" latitude="45.438069" license="3" longitude="12.335892" nbComments="2" rank="37" tags="italia italy venice venezia veneto europe travel canal grandcanal bridge rialto rialtobridge pontedirialto ponte bw canon sd450 canonsd450" title="Grand Canal I" url_b="http://static.flickr.com/2414/2193353269_667e19d30c_b.jpg" username="wenzday01" views="328" />
<photo  date_taken="2007-12-23 11:04:57" description="&lt;a href=&quot;http://bighugelabs.com/flickr/onblack.php?id=2213679780&amp;amp;size=large&quot;&gt;View On Black&lt;/a&gt; &lt;a href=&quot;http://www.flickr.com/groups/world/pool/tags/italy/&quot;&gt;Back to Italy&lt;/a&gt; - &lt;a href=&quot;http://www.flickr.com/groups/world/&quot;&gt;Visit the World&lt;/a&gt;" id="2213679780" latitude="45.438069" license="3" longitude="12.335892" nbComments="3" rank="38" tags="italy italia venezia venice veneto grandcanal travel europe water bridge rialtobridge rialto canon sd450 canonsd450" title="Grand Canal III" url_b="http://static.flickr.com/2317/2213679780_53706e3639_b.jpg" username="wenzday01" views="524" />
<photo  date_taken="2001-06-28 00:00:05" description="Another view of the Rialto Bridge, with its tacky souvenir and glass bead jewelry shops." id="2594901641" latitude="45.438073" license="4" longitude="12.335903" nbComments="0" rank="39" tags="2001 june2001 italy venice venezia bridge rialto" title="Rialto Bridge" url_b="http://static.flickr.com/3022/2594901641_c1b89b83ca_b.jpg" username="Joe Shlabotnik" views="102" />
<photo  date_taken="2001-06-25 00:00:14" description="" id="2590334834" latitude="45.438073" license="4" longitude="12.335903" nbComments="6" rank="40" tags="2001 june2001 venice italy gondola canal bridge rialto venezia faved myphotoseverywhere" title="The Rialto Bridge" url_b="http://static.flickr.com/3286/2590334834_f236bc3a78_b.jpg" username="Joe Shlabotnik" views="270" />
<photo  date_taken="2001-06-27 00:00:08" description="" id="2593622130" latitude="45.438073" license="4" longitude="12.335903" nbComments="0" rank="41" tags="2001 june2001 venice venezia rialto bridge" title="Rialto Bridge" url_b="http://static.flickr.com/3155/2593622130_f1deb04562_b.jpg" username="Joe Shlabotnik" views="27" />
<photo  date_taken="2010-05-21 12:49:05" description="Canal Grande under Rialto Bridge" id="4661521872" latitude="45.438002" license="3" longitude="12.335881" nbComments="1" rank="42" tags="" title="Gondolas" url_b="http://static.flickr.com/1285/4661521872_fafbf11249_b.jpg" username="Birger Hoppe" views="18" />
<photo  date_taken="2010-05-21 12:47:12" description="seen from Rialto Bridge." id="4660901133" latitude="45.438002" license="3" longitude="12.335881" nbComments="0" rank="43" tags="" title="Gondolas on Canal Grande" url_b="http://static.flickr.com/4046/4660901133_ab476e9162_b.jpg" username="Birger Hoppe" views="22" />
<photo  date_taken="2010-05-21 12:50:51" description="Venice is not for push charis. And not for rolling suitcases either. This baby still seems to enjoy being carried up Rialto bridge." id="4675349850" latitude="45.438002" license="3" longitude="12.335881" nbComments="0" rank="44" tags="" title="Carry-on Baby" url_b="http://static.flickr.com/4046/4675349850_057d4c6726_b.jpg" username="Birger Hoppe" views="12" />
<photo  date_taken="2010-11-07 15:27:22" description="" id="5171848466" latitude="45.438062" license="3" longitude="12.335865" nbComments="0" rank="45" tags="venice venezia" title="under the Rialto Bridge" url_b="http://static.flickr.com/4088/5171848466_9875d6712c_b.jpg" username="Mariusz_Kucharczyk" views="14" />
<photo  date_taken="2005-01-16 17:43:56" description="" id="3435428" latitude="45.438073" license="1" longitude="12.335876" nbComments="0" rank="46" tags="venice venezia italy bridge" title="Rialto bridge" url_b="http://static.flickr.com/2/3435428_13f452c58c_b.jpg" username="rmattson" views="44" />
<photo  date_taken="2007-09-04 02:47:51" description="" id="1347454935" latitude="45.438077" license="6" longitude="12.335886" nbComments="0" rank="47" tags="venice venezia italy" title="rialto bridge" url_b="http://static.flickr.com/1311/1347454935_380b3d1fd3_b.jpg" username="skunks" views="2" />
<photo  date_taken="2012-03-08 21:19:34" description="" id="6902941152" latitude="45.438047" license="4" longitude="12.335854" nbComments="0" rank="48" tags="cappello gondola venezia veneto italy water acqua canali barchr ponti bridge piazza san marco rialto arte fotografi passione bianco e nero night notte notturna scie luminose" title="ordinary life in venice" url_b="http://static.flickr.com/7093/6902941152_6082314022_b.jpg" username="sandro visintin" views="331" />
<photo  date_taken="2005-08-12 11:12:47" description="" id="6100669782" latitude="45.438054" license="3" longitude="12.33594" nbComments="0" rank="49" tags="venecia italia canal puente agua nublado cloudy arquitectura venice italy bridge water architecture cielo nubes azul blanco white blue sky clouds gondola barco turistas tourist boat" title="Rialto bridge" url_b="http://static.flickr.com/6079/6100669782_a961cc24f5_b.jpg" username="kiarras" views="40" />
<photo  date_taken="2007-06-16 21:22:26" description="&lt;a href=&quot;http://loc.alize.us/#/flickr:568108027&quot;&gt;See where this picture was taken.&lt;/a&gt; &lt;a href=&quot;http://www.flickr.com/groups/geotagging/discuss/72157594165549916/&quot;&gt;[?]&lt;/a&gt; Signior Antonio, many a time and oft In the Rialto you have rated me About my moneys and my usances..." id="568108027" latitude="45.437987" license="1" longitude="12.335898" nbComments="0" rank="50" tags="emssimp findleastinteresting venice holiday italy rialto bridge grandcanal geo:lat=45437987 geo:lon=12335898 geotagged 0f" title="rialto bridge" url_b="http://static.flickr.com/1238/568108027_f89dd97e41_b.jpg" username="estherase" views="138" />
<photo  date_taken="2002-08-16 18:52:30" description="Venice's most famous bridge, the Ponte di Rialto. It is located at the narrowest spot of the Canal Grande. It has many interesting shops right on the bridge." id="563268039" latitude="45.438032" license="1" longitude="12.335844" nbComments="0" rank="51" tags="italia italy veneto venezia bridge bridges landmark landmarks" title="Ponte di Rialto" url_b="http://static.flickr.com/1242/563268039_ba5a5fff08_b.jpg" username="asmythie" views="119" />
<photo  date_taken="2002-08-16 22:59:38" description="" id="562905790" latitude="45.438032" license="1" longitude="12.335844" nbComments="0" rank="52" tags="italia italy veneto venezia landmark landmarks bridge bridges" title="Ponte di Rialto at night" url_b="http://static.flickr.com/1358/562905790_e39967cc77_b.jpg" username="asmythie" views="35" />
<photo  date_taken="2012-03-17 13:42:13" description="Taken from the Rialto Bridge" id="6998089071" latitude="45.43808" license="4" longitude="12.335927" nbComments="0" rank="53" tags="venice italy gondolas" title="Gondolas of Venice" url_b="http://static.flickr.com/6038/6998089071_17ebb1d104_b.jpg" username="whatleydude" views="8" />
<photo  date_taken="2007-06-09 15:51:11" description="Rialto Bridge, Venice, Italy" id="882056246" latitude="45.438077" license="5" longitude="12.335854" nbComments="0" rank="54" tags="rialto bridge venice italy" title="water travel" url_b="http://static.flickr.com/1261/882056246_3c0b140e41_b.jpg" username="cking" views="38" />
<photo  date_taken="2008-06-22 19:43:03" description="" id="2729046126" latitude="45.438081" license="1" longitude="12.335854" nbComments="0" rank="55" tags="veniceitaly" title="Rialto bridge" url_b="http://static.flickr.com/3244/2729046126_6f564d2b40_b.jpg" username="mystery_fish" views="9" />
<photo  date_taken="2011-05-30 13:23:19" description="Ponte di Rialto 雷亞托橋 義大利 Venezia 威尼斯" id="6207144956" latitude="45.438069" license="5" longitude="12.335844" nbComments="0" rank="56" tags="italy venezia pontedirialto heritage panasonic dmcgf1 出遊 bridge market" title="Ponte di Rialto 雷亞托橋" url_b="http://static.flickr.com/6121/6207144956_44c7a569d0_b.jpg" username="Richard, enjoy my life!" views="18" />
<photo  date_taken="2011-05-30 13:23:24" description="Ponte di Rialto 雷亞托橋 義大利 Venezia 威尼斯" id="6206630769" latitude="45.438069" license="5" longitude="12.335844" nbComments="0" rank="57" tags="italy venezia pontedirialto heritage panasonic dmcgf1 出遊 bridge market" title="Ponte di Rialto 雷亞托橋" url_b="http://static.flickr.com/6002/6206630769_ea1e707b31_b.jpg" username="Richard, enjoy my life!" views="31" />
<photo  date_taken="2007-10-05 08:59:19" description="" id="2350231395" latitude="45.438096" license="2" longitude="12.335881" nbComments="0" rank="58" tags="italy 2007 venice bridge canal vacation" title="Ponte di Rialto" url_b="http://static.flickr.com/2072/2350231395_33ca09dce7_b.jpg" username="jamesmelzer" views="10" />
<photo  date_taken="2007-10-05 08:55:26" description="" id="2351064788" latitude="45.438096" license="2" longitude="12.335881" nbComments="0" rank="59" tags="italy 2007 venice bridge vacation" title="Ponte di Rialto 2" url_b="http://static.flickr.com/3164/2351064788_70927c9b7d_b.jpg" username="jamesmelzer" views="5" />
<photo  date_taken="2009-03-11 15:58:46" description="" id="3352475574" latitude="45.438062" license="3" longitude="12.335838" nbComments="0" rank="60" tags="venice italy rialtobridge pontederialto" title="079" url_b="http://static.flickr.com/3650/3352475574_9730d54fe8_b.jpg" username="IanHaskins" views="6" />
<photo  date_taken="2009-07-29 14:57:01" description="" id="3858000251" latitude="45.438099" license="2" longitude="12.335886" nbComments="0" rank="61" tags="puente bridge rialto venezia venecia italy italia ferper novideo canal" title="Rialto" url_b="http://static.flickr.com/2668/3858000251_6510b789a4_b.jpg" username="FerPer" views="55" />
<photo  date_taken="2009-07-29 14:53:44" description="" id="3854891413" latitude="45.438099" license="2" longitude="12.335886" nbComments="2" rank="62" tags="venezia ferper venecia italia italy novideo rialto puente bridge canal grancanal grandcanal bn bw blancoynegro blackandwhite" title="Desde Rialto" url_b="http://static.flickr.com/2610/3854891413_cd3715228b_b.jpg" username="FerPer" views="69" />
<photo  date_taken="2012-03-31 23:04:41" description="Grand Canal, from Rialto Bridge, sunrise, Venice" id="7078409113" latitude="45.437975" license="2" longitude="12.335881" nbComments="0" rank="63" tags="" title="Grand Canal" url_b="http://static.flickr.com/7226/7078409113_8b38771ff9_b.jpg" username="kewing" views="4" />
<photo  date_taken="2007-04-03 00:00:00" description="Venice, view from Rialto Bridge, 03/04/2007" id="1491167675" latitude="45.438099" license="3" longitude="12.335876" nbComments="0" rank="64" tags="italy venice rialto a80 canon powershot" title="Italy, III" url_b="http://static.flickr.com/1196/1491167675_f35912e337_b.jpg" username="Mariana de Araújo" views="38" />
<photo  date_taken="2007-04-03 00:00:01" description="Venice, view from Rialto Bridge, 03/04/2007" id="1492020154" latitude="45.438099" license="3" longitude="12.335876" nbComments="0" rank="65" tags="italy venice rialto a80 canon powershot" title="Italy, II" url_b="http://static.flickr.com/1436/1492020154_28ee711f76_b.jpg" username="Mariana de Araújo" views="32" />
<photo  date_taken="2010-05-08 21:20:50" description="Venice Grand canal from Rialto bridge" id="4665140769" latitude="45.438073" license="1" longitude="12.335951" nbComments="0" rank="66" tags="" title="Venice" url_b="http://static.flickr.com/4050/4665140769_c139f33ed4_b.jpg" username="jas_gd" views="31" />
<photo  date_taken="2010-05-08 19:12:32" description="Venice canal from Rialto bridge" id="4625574676" latitude="45.438073" license="1" longitude="12.335951" nbComments="0" rank="67" tags="venice venecia venezia italy italia canal" title="Venice" url_b="http://static.flickr.com/4023/4625574676_af80ca3ccd_b.jpg" username="jas_gd" views="81" />
<photo  date_taken="2010-07-12 19:40:31" description="" id="5184246529" latitude="45.437969" license="3" longitude="12.335912" nbComments="0" rank="68" tags="bridge canal grandcanal italy rialtobridge venezia venice" title="grand canal" url_b="http://static.flickr.com/1026/5184246529_f39943f00f_b.jpg" username="scpgt" views="23" />
<photo  date_taken="2012-07-01 13:35:11" description="From the Rialto bridge on the way out." id="7481216694" latitude="45.438002" license="1" longitude="12.335833" nbComments="0" rank="69" tags="polaroid slr680 slr 680 600 italy italia grand canal grande canałasso venice venezia gondola gondolas gondoliers piers docks water river" title="The Grand Canal" url_b="http://static.flickr.com/8160/7481216694_4b368219c3_b.jpg" username="jbhalper" views="11" />
<photo  date_taken="2007-12-19 11:21:38" description="Puente de Rialto en el Canal Grande de Venecia (Italia); foto realizada en el momento de comenzar el recorrido en góndola por las &amp;quot;calles&amp;quot; de Venezia." id="2122666358" latitude="45.438096" license="3" longitude="12.335854" nbComments="10" rank="70" tags="venecia venice venezia grancanal canalgrande italia italy rialto ponte puente canal bridge imagepoetry" title="Rialto (Venezia)" url_b="http://static.flickr.com/2281/2122666358_1751bd48e6_b.jpg" username="diegoperez74" views="527" />
<photo  date_taken="2011-07-31 18:58:54" description="Taken with &lt;a href=&quot;http://picplz.com&quot; rel=&quot;nofollow&quot;&gt;picplz&lt;/a&gt; at &lt;a href=&quot;http://picplz.com/pics/rialto-bridge-venezia-italia/&quot; rel=&quot;nofollow&quot;&gt;Rialto Bridge&lt;/a&gt; in &lt;a href=&quot;http://picplz.com/city/venice-it/&quot; rel=&quot;nofollow&quot;&gt;Venice, Italy&lt;/a&gt;." id="5994678180" latitude="45.437986" license="2" longitude="12.335844" nbComments="0" rank="71" tags="picplz foursquare:venue=4bdf65920ee3a593d22334b0" title="picplz_upload" url_b="http://static.flickr.com/6007/5994678180_cfd7e9d645_b.jpg" username="FDumeny" views="20" />
<photo  date_taken="2011-04-16 11:45:17" description="@ Rialto Bridge &lt;a href=&quot;http://4sq.com/hD7SUN&quot; rel=&quot;nofollow&quot;&gt;4sq.com/hD7SUN&lt;/a&gt; (posted via FlickSquare)" id="5623563475" latitude="45.437986" license="1" longitude="12.335844" nbComments="0" rank="72" tags="uploaded:by=flicksquare foursquare:venue=4bdf65920ee3a593d22334b0 geo:lat=45437986 geo:lon=12335844" title="view from the Ponte di Rialto" url_b="http://static.flickr.com/5108/5623563475_7751695d03_b.jpg" username="daggy72" views="7" />
<photo  date_taken="2012-08-29 12:37:54" description="" id="8158462675" latitude="45.437971" license="3" longitude="12.335865" nbComments="0" rank="73" tags="canoneos7d canon travel italy it venice veneto summer architecture canals путешествия лето италия венето венеция архитектура каналы grandcanal грандканал ponterialto rialtobridge мостриалто" title="Grand Canal from Rialto bridge" url_b="http://static.flickr.com/8202/8158462675_1a99b11aaa_b.jpg" username="nakedst" views="14" />
<photo  date_taken="2007-07-06 12:38:11" description="A look at the beautiful Rialto Bridge at night. Taken while heading down the Grand Canal on a vaporetto." id="2985925438" latitude="45.438107" license="4" longitude="12.335876" nbComments="0" rank="74" tags="europe travel italy venice rialtobridge grandcanal pontedirialto" title="Ponte di Rialto at Night" url_b="http://static.flickr.com/3050/2985925438_5fdc0cfec9_b.jpg" username="HarshLight" views="81" />
<photo  date_taken="2008-11-27 02:35:25" description="While taking these photos next to Rialto Bridge, the gondoliers were trying their best to convince us to take a ride in a gondola." id="3145958769" latitude="45.438107" license="4" longitude="12.335876" nbComments="0" rank="75" tags="europe travel venice italy gondolas" title="Gondola in Waiting" url_b="http://static.flickr.com/3123/3145958769_383f29d986_b.jpg" username="HarshLight" views="22" />
<photo  date_taken="2008-11-24 12:38:04" description="A view of Rialto Bridge from along the Grand Canal." id="3143735380" latitude="45.438107" license="4" longitude="12.335876" nbComments="0" rank="76" tags="europe travel venice italy pontedirialto rialtobridge grandcanal" title="Ponte di Rialto" url_b="http://static.flickr.com/3116/3143735380_f4a513f749_b.jpg" username="HarshLight" views="123" />
<photo  date_taken="2007-07-06 11:39:09" description="A view of Rialto Bridge from along the Grand Canal." id="2985068989" latitude="45.438107" license="4" longitude="12.335876" nbComments="0" rank="77" tags="europe travel italy venice rialtobridge pontedirialto" title="View of Ponte di Rialto" url_b="http://static.flickr.com/3143/2985068989_97d3fcbd77_b.jpg" username="HarshLight" views="50" />
<photo  date_taken="2007-07-06 11:40:48" description="A look at some of the buildings near the Rialto Bridge." id="2985069435" latitude="45.438107" license="4" longitude="12.335876" nbComments="0" rank="78" tags="europe travel italy venice rialtobridge pontedirialto" title="From Ponte di Rialto" url_b="http://static.flickr.com/3218/2985069435_772e74ed1d_b.jpg" username="HarshLight" views="88" />
<photo  date_taken="2007-07-05 08:24:02" description="View of the Rialto Bridge." id="945402759" latitude="45.438107" license="4" longitude="12.335876" nbComments="0" rank="79" tags="europe travel venice italy rialtobridge grandcanal gondolas pontedirialto" title="Ponte di Rialto" url_b="http://static.flickr.com/1052/945402759_4c5b334e75_b.jpg" username="HarshLight" views="107" />
<photo  date_taken="2008-11-24 12:50:22" description="A view of the Grand Canal from the Rialto Bridge." id="3143735602" latitude="45.438107" license="4" longitude="12.335876" nbComments="0" rank="80" tags="europe travel venice italy pontedirialto rialtobridge grandcanal" title="On Ponte di Rialto" url_b="http://static.flickr.com/3207/3143735602_a8eed669bd_b.jpg" username="HarshLight" views="94" />
<photo  date_taken="2008-11-24 13:04:53" description="Looking back up the stairs of the Rialto." id="3143735854" latitude="45.438107" license="4" longitude="12.335876" nbComments="0" rank="81" tags="europe travel venice italy pontedirialto rialtobridge grandcanal" title="Rialto Stairs" url_b="http://static.flickr.com/3268/3143735854_b3e90e25ca_b.jpg" username="HarshLight" views="98" />
<photo  date_taken="2007-07-05 08:28:36" description="A view of the Rialto Bridge in Venice while riding the vaporetto." id="2985198898" latitude="45.438107" license="4" longitude="12.335876" nbComments="0" rank="82" tags="europe travel italy venice rialtobridge grandcanal pontedirialto" title="Ponte di Rialto" url_b="http://static.flickr.com/3243/2985198898_05f6d3a0dc_b.jpg" username="HarshLight" views="175" />
<photo  date_taken="2007-07-06 12:03:25" description="Heading up the stairs of Rialto Bridge." id="2985925244" latitude="45.438107" license="4" longitude="12.335876" nbComments="0" rank="83" tags="europe travel italy venice rialtobridge pontedirialto" title="Heading up Ponte di Rialto" url_b="http://static.flickr.com/3274/2985925244_98468bca6c_b.jpg" username="HarshLight" views="71" />
<photo  date_taken="2008-11-27 02:34:39" description="While taking these photos, the gondoliers were trying their best to convince us to take a ride in a gondola." id="3145958395" latitude="45.438107" license="4" longitude="12.335876" nbComments="0" rank="84" tags="europe travel venice italy rialtobridge pontedirialto" title="Ponte di Rialto" url_b="http://static.flickr.com/3240/3145958395_2b64ec5ce0_b.jpg" username="HarshLight" views="34" />
<photo  date_taken="2007-07-06 11:40:41" description="A closer look at the center of Rialto Bridge." id="2985924364" latitude="45.438107" license="4" longitude="12.335876" nbComments="0" rank="85" tags="europe travel italy venice rialtobridge pontedirialto" title="Ponte di Rialto" url_b="http://static.flickr.com/3272/2985924364_725ec9b38d_b.jpg" username="HarshLight" views="32" />
<photo  date_taken="2007-07-06 12:01:02" description="A building near Rialto Bridge." id="2985925056" latitude="45.438107" license="4" longitude="12.335876" nbComments="0" rank="86" tags="europe travel italy venice" title="Keeping Time" url_b="http://static.flickr.com/3225/2985925056_769bc8f72a_b.jpg" username="HarshLight" views="31" />
<photo  date_taken="2008-11-24 12:57:14" description="A view of Rialto Bridge from along the Grand Canal." id="3142906915" latitude="45.438107" license="4" longitude="12.335876" nbComments="0" rank="87" tags="europe travel venice italy pontedirialto rialtobridge grandcanal" title="Ponte di Rialto" url_b="http://static.flickr.com/3213/3142906915_09220d462a_b.jpg" username="HarshLight" views="55" />
<photo  date_taken="2007-07-06 11:18:50" description="Looking closer at the center of the Rialto Bridge." id="2985923542" latitude="45.438107" license="4" longitude="12.335876" nbComments="0" rank="88" tags="europe travel italy venice rialtobridge pontedirialto" title="Ponte di Rialto" url_b="http://static.flickr.com/3199/2985923542_46ed419693_b.jpg" username="HarshLight" views="43" />
<photo  date_taken="2007-07-06 11:37:11" description="A view from Rialto Bridge." id="2985068829" latitude="45.438107" license="4" longitude="12.335876" nbComments="0" rank="89" tags="europe travel italy venice rialtobridge pontedirialto" title="Near Ponte di Rialto" url_b="http://static.flickr.com/3148/2985068829_ccbc585f27_b.jpg" username="HarshLight" views="23" />
<photo  date_taken="2007-07-06 12:00:43" description="Looking up the stairs towards Rialto Bridge." id="2985069775" latitude="45.438107" license="4" longitude="12.335876" nbComments="0" rank="90" tags="europe travel italy venice rialtobridge pontedirialto" title="Ponte di Rialto Stairs" url_b="http://static.flickr.com/3274/2985069775_8b7d1f1973_b.jpg" username="HarshLight" views="83" />
<photo  date_taken="2008-11-24 12:40:39" description="A view of the Grand Canal from the Rialto Bridge." id="3142906667" latitude="45.438107" license="4" longitude="12.335876" nbComments="0" rank="91" tags="europe travel venice italy pontedirialto rialtobridge grandcanal" title="On Ponte di Rialto" url_b="http://static.flickr.com/3218/3142906667_4e718664d3_b.jpg" username="HarshLight" views="73" />
<photo  date_taken="2007-07-06 11:39:44" description="A view of Rialto Bridge from along the Grand Canal." id="2985924220" latitude="45.438107" license="4" longitude="12.335876" nbComments="0" rank="92" tags="europe travel italy venice rialtobridge pontedirialto" title="View of Ponte di Rialto" url_b="http://static.flickr.com/3065/2985924220_3169357811_b.jpg" username="HarshLight" views="62" />
<photo  date_taken="2008-11-27 02:34:57" description="While taking these photos, the gondoliers were trying their best to convince us to take a ride in a gondola." id="3146791422" latitude="45.438107" license="4" longitude="12.335876" nbComments="0" rank="93" tags="europe travel venice italy rialtobridge pontedirialto" title="Ponte di Rialto" url_b="http://static.flickr.com/3108/3146791422_23e47d594f_b.jpg" username="HarshLight" views="18" />
<photo  date_taken="2012-02-06 19:08:36" description="That bridge" id="8138318242" latitude="45.437999" license="3" longitude="12.335833" nbComments="0" rank="94" tags="venice italy holiday canal" title="The Rialto" url_b="http://static.flickr.com/8471/8138318242_2beb608101_b.jpg" username="StuRap" views="26" />
<photo  date_taken="2010-04-18 18:56:49" description="18.4.2010: Venice" id="4623502852" latitude="45.437999" license="1" longitude="12.335833" nbComments="0" rank="95" tags="venezia venise venedig bridge ponte rialto gran canale gondole" title="Rialto" url_b="http://static.flickr.com/4056/4623502852_aba36bf609_b.jpg" username="Nick in exsilio" views="68" />
<photo  date_taken="2007-06-16 21:21:36" description="&lt;a href=&quot;http://loc.alize.us/#/flickr:567690096&quot;&gt;See where this picture was taken.&lt;/a&gt; &lt;a href=&quot;http://www.flickr.com/groups/geotagging/discuss/72157594165549916/&quot;&gt;[?]&lt;/a&gt;" id="567690096" latitude="45.437964" license="1" longitude="12.335898" nbComments="0" rank="96" tags="emssimp findleastinteresting venice holiday italy rialto bridge geo:lat=45437964 geo:lon=12335898 geotagged 0f" title="riatlo" url_b="http://static.flickr.com/1407/567690096_e2bf43dc1a_b.jpg" username="estherase" views="25" />
<photo  date_taken="2007-07-23 18:52:55" description="View of the Grand Canal from the Rialto Bridge (direction towards Academia), Venezia" id="1194777394" latitude="45.438054" license="6" longitude="12.335822" nbComments="0" rank="97" tags="italy roadtrip2007 23072007 venezia summer" title="P7241770" url_b="http://static.flickr.com/1043/1194777394_351eef9e89_b.jpg" username="taver" views="8" />
<photo  date_taken="2007-07-23 18:52:45" description="View of the Grand Canal from the Rialto Bridge (direction towards Academia), Venezia" id="1193906629" latitude="45.438054" license="6" longitude="12.335822" nbComments="0" rank="98" tags="italy roadtrip2007 23072007 venezia summer" title="P7241768" url_b="http://static.flickr.com/1305/1193906629_31d95375a7_b.jpg" username="taver" views="17" />
<photo  date_taken="2007-07-23 18:57:35" description="View of the Grand Canal from the Rialto Bridge (direction towards Ferrovia), Venezia" id="1193921255" latitude="45.438054" license="6" longitude="12.335822" nbComments="0" rank="99" tags="italy roadtrip2007 23072007 venezia summer" title="P7241781" url_b="http://static.flickr.com/1332/1193921255_eea8869379_b.jpg" username="taver" views="6" />
<photo  date_taken="2007-07-23 18:57:41" description="View of the Grand Canal from the Rialto Bridge (direction towards Ferrovia), Venezia" id="1193925425" latitude="45.438054" license="6" longitude="12.335822" nbComments="0" rank="100" tags="italy roadtrip2007 23072007 venezia summer" title="P7241783" url_b="http://static.flickr.com/1302/1193925425_8d13429b66_b.jpg" username="taver" views="12" />
<photo  date_taken="2007-07-23 18:56:52" description="Shops on the Rialto Bridge, Venezia" id="1193917355" latitude="45.438054" license="6" longitude="12.335822" nbComments="0" rank="101" tags="italy roadtrip2007 23072007 venezia summer" title="P7241777" url_b="http://static.flickr.com/1131/1193917355_7e4f1b2824_b.jpg" username="taver" views="12" />
<photo  date_taken="2007-07-23 18:53:10" description="View of the Grand Canal from the Rialto Bridge (direction towards Academia), Venezia" id="1193914157" latitude="45.438054" license="6" longitude="12.335822" nbComments="0" rank="102" tags="italy roadtrip2007 23072007 venezia summer" title="P7241771" url_b="http://static.flickr.com/1422/1193914157_9615ffd0e8_b.jpg" username="taver" views="12" />
<photo  date_taken="2007-02-10 17:50:28" description="" id="390556438" latitude="45.438098" license="4" longitude="12.33594" nbComments="0" rank="103" tags="venedig venice italy venezia rialto canale grande bridge" title="Rialto Bridge At Dawn" url_b="http://static.flickr.com/143/390556438_98c22e4733_b.jpg" username="rp72" views="389" />
<photo  date_taken="2009-09-01 19:05:23" description="" id="3888774907" latitude="45.438054" license="1" longitude="12.335972" nbComments="0" rank="104" tags="rialto ponte bridge venezia venice" title="Ponte Rialto" url_b="http://static.flickr.com/3454/3888774907_bb11e0f8c1_b.jpg" username="valix" views="117" />
<photo  date_taken="2007-01-12 14:14:50" description="Rialto Bridge." id="383992251" latitude="45.438096" license="3" longitude="12.335951" nbComments="0" rank="105" tags="venice italy rialto venezia" title="Venice2007-2 367" url_b="http://static.flickr.com/135/383992251_6a886537d1_b.jpg" username="dvdbramhall" views="19" />
<photo  date_taken="2007-01-12 14:14:39" description="Rialto Bridge." id="383992157" latitude="45.438096" license="3" longitude="12.335951" nbComments="0" rank="106" tags="venice italy rialto venezia" title="Venice2007-2 365" url_b="http://static.flickr.com/187/383992157_ff09a0d286_b.jpg" username="dvdbramhall" views="17" />
<photo  date_taken="2008-04-18 15:28:54" description="&lt;i&gt;Uploaded with the &lt;a href=&quot;http://www.flock.com/&quot;&gt;Flock Browser&lt;/a&gt;&lt;/i&gt;" id="2795304667" latitude="45.438118" license="1" longitude="12.33588" nbComments="0" rank="107" tags="" title="Rialto bridge" url_b="http://static.flickr.com/3221/2795304667_029325a3c5_b.jpg" username="Ciccio Pizzettaro" views="12" />
<photo  date_taken="2007-01-10 10:09:18" description="More people practising their boating skills, under the Rialto Bridge." id="384027703" latitude="45.438024" license="3" longitude="12.335811" nbComments="1" rank="108" tags="venice italy venezia" title="v162" url_b="http://static.flickr.com/124/384027703_bd556e5d29_b.jpg" username="dvdbramhall" views="23" />
<photo  date_taken="2007-01-13 10:05:56" description="From the Rialto Bridge. See notes of palaces." id="383937763" latitude="45.438024" license="3" longitude="12.335811" nbComments="0" rank="109" tags="venice italy rialto venezia" title="Venice2007-3 053" url_b="http://static.flickr.com/128/383937763_24e9f62a1a_b.jpg" username="dvdbramhall" views="28" />
<photo  date_taken="2007-01-10 17:41:55" description="From the Rialto Bridge." id="383964259" latitude="45.438024" license="3" longitude="12.335811" nbComments="0" rank="110" tags="venice italy rialto venezia" title="Venice2007-2 047" url_b="http://static.flickr.com/186/383964259_0e60d26d68_b.jpg" username="dvdbramhall" views="23" />
<photo  date_taken="2007-01-10 21:03:39" description="Rialto Bridge." id="383966108" latitude="45.438024" license="3" longitude="12.335811" nbComments="0" rank="111" tags="venice italy rialto night grandcanal venezia" title="Venice2007-2 072" url_b="http://static.flickr.com/123/383966108_3a4dd3300a_b.jpg" username="dvdbramhall" views="23" />
<photo  date_taken="2007-01-09 21:40:17" description="Rialto Bridge, from the vaporetto. There is an Annunciation carved across the bridge." id="384025890" latitude="45.438024" license="3" longitude="12.335811" nbComments="0" rank="112" tags="venice italy grandcanal night venezia annunciation" title="v148" url_b="http://static.flickr.com/139/384025890_7d53c1556b_b.jpg" username="dvdbramhall" views="57" />
<photo  date_taken="2007-01-13 16:56:38" description="I narrowly escape an accident with a runaway pushchair on the Rialto Bridge. Almost a Potemkin moment." id="383948175" latitude="45.438024" license="3" longitude="12.335811" nbComments="0" rank="113" tags="venice italy rialto venezia" title="Venice2007-3 177" url_b="http://static.flickr.com/151/383948175_cd448822c0_b.jpg" username="dvdbramhall" views="37" />
<photo  date_taken="2007-01-10 21:02:22" description="Mist from the Rialto Bridge." id="383965976" latitude="45.438024" license="3" longitude="12.335811" nbComments="0" rank="114" tags="venice italy rialto night grandcanal venezia" title="Venice2007-2 070" url_b="http://static.flickr.com/133/383965976_43580baf69_b.jpg" username="dvdbramhall" views="27" />
<photo  date_taken="2007-01-10 17:42:35" description="The Rialto Bridge." id="383964359" latitude="45.438024" license="3" longitude="12.335811" nbComments="0" rank="115" tags="venice italy rialto venezia" title="Venice2007-2 048" url_b="http://static.flickr.com/146/383964359_050e8f261b_b.jpg" username="dvdbramhall" views="22" />
<photo  date_taken="2007-01-13 10:07:05" description="Rialto Bridge. Still practising - and these were girls, so no hope there." id="383937880" latitude="45.438024" license="3" longitude="12.335811" nbComments="0" rank="116" tags="venice italy rialto venezia" title="Venice2007-3 054" url_b="http://static.flickr.com/150/383937880_9007380923_b.jpg" username="dvdbramhall" views="14" />
<photo  date_taken="2007-01-10 10:12:21" description="From the Rialto Bridge." id="384027833" latitude="45.438024" license="3" longitude="12.335811" nbComments="1" rank="117" tags="venice italy venezia" title="v163" url_b="http://static.flickr.com/123/384027833_127816166d_b.jpg" username="dvdbramhall" views="30" />
<photo  date_taken="2007-01-12 09:41:25" description="From the Rialto Bridge." id="383979176" latitude="45.438024" license="3" longitude="12.335811" nbComments="0" rank="118" tags="venice italy rialto grandcanal venezia" title="Venice2007-2 231" url_b="http://static.flickr.com/126/383979176_9d795c4692_b.jpg" username="dvdbramhall" views="15" />
<photo  date_taken="2009-10-04 11:53:27" description="" id="4061667826" latitude="45.438122" license="3" longitude="12.335897" nbComments="0" rank="119" tags="boat bridge canal italia italy october2009 racheltitiriga rialto rialtobridge vacationwithsusie venice venizia water panasonic dmcfz28" title="Venice-170" url_b="http://static.flickr.com/2639/4061667826_bc6310dd32_b.jpg" username="rachel_titiriga" views="7" />
<photo  date_taken="2009-10-03 20:09:18" description="" id="4039888226" latitude="45.438122" license="3" longitude="12.335897" nbComments="0" rank="120" tags="italia italy october2009 vacationwithsusie venice venizia racheltitiriga water canals bridge rialto rialtobridge night nightshot lights cafe panasonic dmcfz28" title="Rialto from the Back" url_b="http://static.flickr.com/2515/4039888226_528a94ef37_b.jpg" username="rachel_titiriga" views="21" />
<photo  date_taken="2009-10-04 11:56:51" description="" id="4061680544" latitude="45.438122" license="3" longitude="12.335897" nbComments="0" rank="121" tags="boat bridge canal italia italy october2009 racheltitiriga rialto rialtobridge vacationwithsusie venice venizia water panasonic dmcfz28" title="Venice-176" url_b="http://static.flickr.com/3500/4061680544_530bd98031_b.jpg" username="rachel_titiriga" views="21" />
<photo  date_taken="2009-10-04 11:55:06" description="" id="4061674516" latitude="45.438122" license="3" longitude="12.335897" nbComments="0" rank="122" tags="boat bridge canal italia italy october2009 racheltitiriga rialto rialtobridge vacationwithsusie venice venizia water panasonic dmcfz28" title="Venice-171" url_b="http://static.flickr.com/2686/4061674516_620aa2215b_b.jpg" username="rachel_titiriga" views="27" />
<photo  date_taken="2009-10-03 20:01:41" description="" id="4039844808" latitude="45.438122" license="3" longitude="12.335897" nbComments="1" rank="123" tags="italia italy october2009 vacationwithsusie venice venizia racheltitiriga water canals bridge rialto rialtobridge dusk blur blurry panasonic dmcfz28" title="Rialto Blur" url_b="http://static.flickr.com/3109/4039844808_96fb482de4_b.jpg" username="rachel_titiriga" views="21" />
<photo  date_taken="2009-10-03 20:01:56" description="" id="4039097185" latitude="45.438122" license="3" longitude="12.335897" nbComments="0" rank="124" tags="italia italy october2009 vacationwithsusie venice venizia racheltitiriga water canals bridge rialto rialtobridge night nightshot dusk panasonic dmcfz28" title="Rialto Bridge" url_b="http://static.flickr.com/2614/4039097185_333e6a2a02_b.jpg" username="rachel_titiriga" views="40" />
<photo  date_taken="2009-10-03 20:09:03" description="" id="4039046777" latitude="45.438122" license="3" longitude="12.335897" nbComments="0" rank="125" tags="italia italy october2009 vacationwithsusie venice venizia racheltitiriga water canals bridge rialto rialtobridge night nightshot panasonic dmcfz28" title="Venice-29" url_b="http://static.flickr.com/3495/4039046777_13b82a1edb_b.jpg" username="rachel_titiriga" views="16" />
<photo  date_taken="2009-10-03 19:44:48" description="Our first dinner in Venice. We went to the local deli and got fresh (but hard) bread, cheese and sliced meat. Then we sat in a little spot by the stairs of the Rialto Bridge and watched the night come. It was so beautiful and such a great and cheap way to enjoy the city and good food! I think it was like 6 euro for this?" id="4039089511" latitude="45.438122" license="3" longitude="12.335897" nbComments="0" rank="126" tags="italia italy october2009 vacationwithsusie venice venizia racheltitiriga food bread cheese meat picnic yum panasonic dmcfz28" title="Picnic by the Water" url_b="http://static.flickr.com/2551/4039089511_aa531a3c55_b.jpg" username="rachel_titiriga" views="65" />
<photo  date_taken="2011-08-02 20:08:46" description="" id="6500647555" latitude="45.437953" license="2" longitude="12.335876" nbComments="0" rank="127" tags="venice italy" title="Rialto Bridge" url_b="http://static.flickr.com/7169/6500647555_f4a4d2b28b_b.jpg" username="Boda de Cine" views="21" />
<photo  date_taken="2004-12-10 12:39:57" description="Rialto bridge, another landmark in a tourist tour of Venezia..." id="204711948" latitude="45.438107" license="1" longitude="12.335844" nbComments="0" rank="128" tags="italy venezia laguna canalgrande rialto bridge architecture medieval" title="Rialto" url_b="http://static.flickr.com/63/204711948_69b5bc954a_b.jpg" username="pietroizzo" views="208" />
<photo  date_taken="2007-08-27 06:23:46" description="On top of the Rialto bridge in Venice. The Rialto is one of three bridges that stretch across the Grand Canal." id="1341365674" latitude="45.438114" license="3" longitude="12.335854" nbComments="0" rank="129" tags="venice italy grandcanal rialto ponterialto samandelly viewofthecity boats water bridge" title="View from Ponte Rialto" url_b="http://static.flickr.com/1068/1341365674_9b883e3042_b.jpg" username="Ellyn B." views="44" />
<photo  date_taken="2007-08-10 15:13:28" description="Ponte Rialto, Venice, Italy" id="1352584425" latitude="45.438009" license="3" longitude="12.335811" nbComments="0" rank="130" tags="venice bridges rialto italy" title="ponte" url_b="http://static.flickr.com/1220/1352584425_834b890599_b.jpg" username="TiAmoComeSei" views="5" />
<photo  date_taken="2011-10-01 11:49:33" description="" id="8368058638" latitude="45.438024" license="1" longitude="12.335983" nbComments="0" rank="131" tags="venice italy 2011 grandcanal europe rialtobridge" title="Venice" url_b="http://static.flickr.com/8231/8368058638_071fdf6ed8_b.jpg" username="jasonlsraia" views="0" />
<photo  date_taken="2011-03-04 21:13:27" description="" id="5514230979" latitude="45.437974" license="3" longitude="12.335831" nbComments="0" rank="132" tags="2011 bw blackandwhite bridge carnevaledivenezia carnival grandcanal italy night rialto venice" title="grand canal" url_b="http://static.flickr.com/5299/5514230979_ea79b346dd_b.jpg" username="scpgt" views="55" />
<photo  date_taken="2011-03-04 21:14:49" description="" id="5514826712" latitude="45.437974" license="3" longitude="12.335831" nbComments="0" rank="133" tags="2011 bridge carnevaledivenezia carnival grandcanal italy night rialto venice" title="grand canal" url_b="http://static.flickr.com/5140/5514826712_5a99157811_b.jpg" username="scpgt" views="56" />
<photo  date_taken="2007-01-09 16:26:25" description="Rialto Bridge." id="384021655" latitude="45.438114" license="3" longitude="12.335844" nbComments="0" rank="134" tags="venice italy rialto venezia" title="v115" url_b="http://static.flickr.com/175/384021655_f9d677f5f4_b.jpg" username="dvdbramhall" views="50" />
<photo  date_taken="2006-11-25 20:19:34" description="" id="312786027" latitude="45.437956" license="3" longitude="12.33594" nbComments="0" rank="135" tags="november 2006 november2006 venice blackandwhite rialtobridge night" title="IMG_2947" url_b="http://static.flickr.com/104/312786027_e5ef031060_b.jpg" username="psmorrison" views="1" />
<photo  date_taken="2006-11-25 20:19:22" description="" id="312785682" latitude="45.437956" license="3" longitude="12.33594" nbComments="0" rank="136" tags="november 2006 november2006 venice blackandwhite rialtobridge night" title="IMG_2946" url_b="http://static.flickr.com/108/312785682_2f9f6ad803_b.jpg" username="psmorrison" views="1" />
<photo  date_taken="2006-06-04 18:00:43" description="" id="170306911" latitude="45.437956" license="3" longitude="12.33594" nbComments="0" rank="137" tags="contiki venice europe 2006 europeanhorizon june june2006 rialtobridge" title="Venice" url_b="http://static.flickr.com/73/170306911_d6a50e9bbb_b.jpg" username="psmorrison" views="8" />
<photo  date_taken="2006-11-28 15:22:51" description="" id="313366858" latitude="45.437956" license="3" longitude="12.33594" nbComments="0" rank="138" tags="november 2006 november2006 venice rialtobridge" title="IMG_3189" url_b="http://static.flickr.com/122/313366858_ba027cbf49_b.jpg" username="psmorrison" views="1" />
<photo  date_taken="2006-11-28 15:22:59" description="" id="313368224" latitude="45.437956" license="3" longitude="12.33594" nbComments="0" rank="139" tags="november 2006 november2006 venice rialtobridge" title="IMG_3190" url_b="http://static.flickr.com/116/313368224_0cba492282_b.jpg" username="psmorrison" views="1" />
<photo  date_taken="2006-11-28 12:16:16" description="" id="313327687" latitude="45.437956" license="3" longitude="12.33594" nbComments="0" rank="140" tags="november 2006 november2006 venice rialtobridge" title="IMG_3168" url_b="http://static.flickr.com/106/313327687_ca36bde8c4_b.jpg" username="psmorrison" views="5" />
<photo  date_taken="2006-11-28 12:16:34" description="" id="313342961" latitude="45.437956" license="3" longitude="12.33594" nbComments="0" rank="141" tags="november 2006 november2006 venice rialtobridge" title="IMG_3170" url_b="http://static.flickr.com/121/313342961_da4a2b7c30_b.jpg" username="psmorrison" views="0" />
<photo  date_taken="2006-11-25 20:20:31" description="" id="312788433" latitude="45.437956" license="3" longitude="12.33594" nbComments="0" rank="142" tags="november 2006 november2006 venice blackandwhite rialtobridge night" title="IMG_2951" url_b="http://static.flickr.com/111/312788433_774b3818f5_b.jpg" username="psmorrison" views="2" />
<photo  date_taken="2006-11-28 12:16:25" description="" id="313341751" latitude="45.437956" license="3" longitude="12.33594" nbComments="0" rank="143" tags="november 2006 november2006 venice rialtobridge" title="IMG_3169" url_b="http://static.flickr.com/107/313341751_bd02d2ee1d_b.jpg" username="psmorrison" views="0" />
<photo  date_taken="2006-11-25 20:20:11" description="" id="312786991" latitude="45.437956" license="3" longitude="12.33594" nbComments="0" rank="144" tags="november 2006 november2006 venice blackandwhite rialtobridge night" title="IMG_2949" url_b="http://static.flickr.com/122/312786991_09c0461a72_b.jpg" username="psmorrison" views="0" />
<photo  date_taken="2006-11-25 20:20:16" description="" id="312787478" latitude="45.437956" license="3" longitude="12.33594" nbComments="0" rank="145" tags="november 2006 november2006 venice blackandwhite rialtobridge night" title="IMG_2950" url_b="http://static.flickr.com/112/312787478_687e751997_b.jpg" username="psmorrison" views="0" />
<photo  date_taken="2006-11-25 20:20:44" description="" id="312789461" latitude="45.437956" license="3" longitude="12.33594" nbComments="0" rank="146" tags="november 2006 november2006 venice blackandwhite rialtobridge night" title="IMG_2952" url_b="http://static.flickr.com/120/312789461_fe3fc68e7a_b.jpg" username="psmorrison" views="0" />
<photo  date_taken="2010-06-28 13:40:39" description="from the rialto bridge" id="4834090761" latitude="45.437958" license="3" longitude="12.335846" nbComments="0" rank="147" tags="canal italy rialtobridge venezia venice water panoramic panorama" title="grand canal panoramic" url_b="http://static.flickr.com/4132/4834090761_de765c9974_b.jpg" username="scpgt" views="62" />
<photo  date_taken="2009-07-12 17:48:45" description="At the Grand Canal, Venice" id="3713657794" latitude="45.437949" license="5" longitude="12.335854" nbComments="0" rank="148" tags="venice italy holiday 2009 summer grandcanal canal rialtobridge" title="Rialto Bridge" url_b="http://static.flickr.com/2445/3713657794_ce7d2b6752_b.jpg" username="Mike_fleming" views="20" />
<photo  date_taken="2009-07-12 17:45:50" description="At the Grand Canal, Venice" id="3713648814" latitude="45.437949" license="5" longitude="12.335854" nbComments="0" rank="149" tags="venice italy holiday 2009 summer grandcanal canal rialtobridge" title="Rialto Bridge" url_b="http://static.flickr.com/2528/3713648814_e667271c92_b.jpg" username="Mike_fleming" views="11" />
<photo  date_taken="2009-07-12 17:50:04" description="" id="3713662096" latitude="45.437949" license="5" longitude="12.335854" nbComments="0" rank="150" tags="venice italy holiday 2009 summer canal rialtobridge" title="Rialto Bridge" url_b="http://static.flickr.com/2428/3713662096_fb689a7002_b.jpg" username="Mike_fleming" views="13" />
</photos>
