<?xml version="1.0" encoding="UTF-8" standalone="no"?>
<photos monument="Roman Forum">

<photo  date_taken="2008-01-16 09:25:00" description="Limax maximus (or great grey slug, or leopard slug) is one of the largest kinds of keeled air-breathing land slug in the world. This one is crawling on one of the Roman road in the Forum Magnum, in Rome, between the Temple of Antoninus and Faustina and the Arch of Septimius Severus. IMG_4651" id="2202913365" latitude="41.892534" license="5" longitude="12.485607" nbComments="0" rank="1" tags="italy rome slug limax maximus greatgreyslug limaxmaximus leopardslug forummagnum" title="Limax maximus forum magnum" url_b="http://static.flickr.com/2281/2202913365_a2cc2b3258_b.jpg" username="nojhan" views="152" />
<photo  date_taken="2009-03-19 06:25:34" description="" id="3494987932" latitude="41.892139" license="1" longitude="12.485747" nbComments="1" rank="2" tags="rome italy march2009 architecture forumromanum romanforum ancient ruins ancientrome" title="Forum Romanum, Rome" url_b="http://static.flickr.com/3573/3494987932_25ecac70d4_b.jpg" username="teachandlearn" views="106" />
<photo  date_taken="2006-11-03 14:56:52" description="" id="3394319506" latitude="41.892654" license="3" longitude="12.48535" nbComments="1" rank="3" tags="rome italy romanforum forum column scupture ancient" title="Column in the Roman Forum" url_b="http://static.flickr.com/3621/3394319506_97235a2a0b_b.jpg" username="longhighway" views="25" />
<photo  date_taken="2012-11-23 06:23:22" description="The site of Julius Caesar's cremation." id="8362487539" latitude="41.89207" license="2" longitude="12.485972" nbComments="0" rank="4" tags="rome eurotrip italy roman forum romanforum ruins archaeology temple julius caesar cremation templeofcaesar" title="Temple of Caesar" url_b="http://static.flickr.com/8359/8362487539_b8d3ffffde_b.jpg" username="Scott SM" views="6" />
<photo  date_taken="2012-05-24 09:45:00" description="For more about the Forum Romanum, have a look at &lt;a href=&quot;http://en.wikipedia.org/wiki/Forum_Romanum&quot; rel=&quot;nofollow&quot;&gt;en.wikipedia.org/wiki/Forum_Romanum&lt;/a&gt;" id="7170848565" latitude="41.89257" license="1" longitude="12.485233" nbComments="2" rank="5" tags="andantetravels columnphocae curiajulia forumromanum italy makingoftheromans rome tabularium templeofsaturn antiquity arch columns ruins lazio archofseptimiusseverus" title="Forum View" url_b="http://static.flickr.com/7241/7170848565_4663cd11c8_b.jpg" username="Bushtick" views="46" />
<photo  date_taken="2008-05-12 18:20:18" description="Map it: &lt;a href=&quot;http://www.robogeo.com/Flickr2Map/&quot;&gt;Google Earth&lt;/a&gt; | &lt;a href=&quot;http://www.robogeo.com/Flickr2Map/?type=map&quot; target=&quot;_blank&quot;&gt;Street&lt;/a&gt; | &lt;a href=&quot;http://www.robogeo.com/Flickr2Map/?type=map&amp;amp;view=satellite&quot; target=&quot;_blank&quot;&gt;Satellite&lt;/a&gt; | &lt;a href=&quot;http://www.robogeo.com/Flickr2Map/?type=map&amp;amp;view=hybrid&quot; target=&quot;_blank&quot;&gt;Hybrid&lt;/a&gt; | &lt;a href=&quot;http://www.robogeo.com/Flickr2Map/?type=nautical&quot; target=&quot;_blank&quot;&gt;Nautical&lt;/a&gt;" id="2700724790" latitude="41.892806" license="1" longitude="12.485233" nbComments="0" rank="6" tags="rome geotagged geo:lat=418928063687185 geo:lon=124852333215396 romanforum italy 10may2008 12may2008" title="Arch of Septimius Severus (Roman Forum)" url_b="http://static.flickr.com/3054/2700724790_c3b267d051_b.jpg" username="gorbulas_sandybanks" views="47" />
<photo  date_taken="2007-05-09 17:06:25" description="In the background: The arch of Septimius Severus, a triumphal arch erected in AD 205 to commemorate the Parthian victories of Emperor Septimius Severus and his two sons, Caracalla and Geta, in the two campaigns against the Parthians of 195 and 203." id="503325451" latitude="41.891879" license="1" longitude="12.48601" nbComments="0" rank="7" tags="rome italy ruins forum roman columns arch" title="Roman forum" url_b="http://static.flickr.com/208/503325451_d0c8c4935d_b.jpg" username="Josh Clark" views="99" />
<photo  date_taken="2007-05-09 17:02:13" description="The three columns are what remains of the temple of Castor and Pollux in the roman forum. In the background to the left is the Temple of Vesta. The temple was originally built in gratitude for victory at the battle of Lake Regillus (495 BC). Castor and Pollux (Greek Polydeuces) were the Dioscuri, the &amp;quot;twins&amp;quot; of Gemini, the twin sons of Zeus (Jupiter) and Leda. Their cult came to Rome from Greece via Magna Graecia and the Greek culture of Southern Italy." id="503271276" latitude="41.891879" license="1" longitude="12.48601" nbComments="4" rank="8" tags="rome italy ruins forum roman castor pollux columns temple" title="Temple of Castor and Pollux" url_b="http://static.flickr.com/189/503271276_3fedfa77a6_b.jpg" username="Josh Clark" views="350" />
<photo  date_taken="2007-09-16 10:21:30" description="" id="2383489123" latitude="41.892354" license="1" longitude="12.485736" nbComments="0" rank="9" tags="2007 italy rome romanforum" title="P1020436" url_b="http://static.flickr.com/2222/2383489123_9fd2aff79c_b.jpg" username="airminded" views="1" />
<photo  date_taken="2007-09-16 10:31:56" description="" id="2384324890" latitude="41.892354" license="1" longitude="12.485736" nbComments="0" rank="10" tags="2007 italy rome romanforum" title="P1020443" url_b="http://static.flickr.com/3276/2384324890_8de98aa4d3_b.jpg" username="airminded" views="3" />
<photo  date_taken="2007-09-16 11:00:06" description="" id="2383544431" latitude="41.892354" license="1" longitude="12.485736" nbComments="0" rank="11" tags="2007 italy rome romanforum" title="P1020480" url_b="http://static.flickr.com/2003/2383544431_4f96326024_b.jpg" username="airminded" views="4" />
<photo  date_taken="2007-09-16 11:14:49" description="" id="2383607481" latitude="41.892354" license="1" longitude="12.485736" nbComments="0" rank="12" tags="2007 italy rome romanforum" title="P1020497" url_b="http://static.flickr.com/2271/2383607481_3e3dfe5475_b.jpg" username="airminded" views="1" />
<photo  date_taken="2007-09-16 10:21:59" description="" id="2383491179" latitude="41.892354" license="1" longitude="12.485736" nbComments="0" rank="13" tags="2007 italy rome romanforum" title="P1020438" url_b="http://static.flickr.com/3082/2383491179_d1b7f350ed_b.jpg" username="airminded" views="2" />
<photo  date_taken="2007-09-16 10:20:58" description="" id="2383487351" latitude="41.892354" license="1" longitude="12.485736" nbComments="0" rank="14" tags="2007 italy rome romanforum" title="P1020434" url_b="http://static.flickr.com/3227/2383487351_b0c49e7fc7_b.jpg" username="airminded" views="3" />
<photo  date_taken="2007-09-16 10:19:28" description="" id="2383486077" latitude="41.892354" license="1" longitude="12.485736" nbComments="0" rank="15" tags="2007 italy rome romanforum" title="P1020433" url_b="http://static.flickr.com/3194/2383486077_2b75080636_b.jpg" username="airminded" views="1" />
<photo  date_taken="2007-09-16 10:51:57" description="" id="2383531059" latitude="41.892354" license="1" longitude="12.485736" nbComments="0" rank="16" tags="2007 italy rome romanforum" title="P1020468" url_b="http://static.flickr.com/3149/2383531059_5127dfa58f_b.jpg" username="airminded" views="2" />
<photo  date_taken="2007-09-16 10:59:45" description="" id="2384373012" latitude="41.892354" license="1" longitude="12.485736" nbComments="0" rank="17" tags="2007 italy rome romanforum" title="P1020479" url_b="http://static.flickr.com/2194/2384373012_65c8c09e54_b.jpg" username="airminded" views="1" />
<photo  date_taken="2007-09-16 10:50:16" description="" id="2384359106" latitude="41.892354" license="1" longitude="12.485736" nbComments="0" rank="18" tags="2007 italy rome romanforum" title="P1020466" url_b="http://static.flickr.com/2217/2384359106_e928444b93_b.jpg" username="airminded" views="3" />
<photo  date_taken="2007-09-16 10:28:29" description="" id="2384323954" latitude="41.892354" license="1" longitude="12.485736" nbComments="0" rank="19" tags="2007 italy rome romanforum" title="P1020441" url_b="http://static.flickr.com/3292/2384323954_af06723abf_b.jpg" username="airminded" views="3" />
<photo  date_taken="2007-09-16 10:49:51" description="" id="2383527905" latitude="41.892354" license="1" longitude="12.485736" nbComments="0" rank="20" tags="2007 italy rome romanforum" title="P1020465" url_b="http://static.flickr.com/2280/2383527905_3f6251e707_b.jpg" username="airminded" views="5" />
<photo  date_taken="2007-09-16 10:21:15" description="" id="2383488207" latitude="41.892354" license="1" longitude="12.485736" nbComments="0" rank="21" tags="2007 italy rome romanforum" title="P1020435" url_b="http://static.flickr.com/2250/2383488207_b0d6b6748d_b.jpg" username="airminded" views="4" />
<photo  date_taken="2007-09-16 11:01:41" description="" id="2384375324" latitude="41.892354" license="1" longitude="12.485736" nbComments="0" rank="22" tags="2007 italy rome romanforum" title="P1020481" url_b="http://static.flickr.com/3050/2384375324_53dc249ddd_b.jpg" username="airminded" views="6" />
<photo  date_taken="2007-09-16 10:05:02" description="" id="2384216276" latitude="41.892354" license="1" longitude="12.485736" nbComments="0" rank="23" tags="2007 italy rome romanforum" title="P1020424" url_b="http://static.flickr.com/3225/2384216276_007f6b6786_b.jpg" username="airminded" views="1" />
<photo  date_taken="2007-09-16 10:52:37" description="" id="2383532373" latitude="41.892354" license="1" longitude="12.485736" nbComments="0" rank="24" tags="2007 italy rome romanforum" title="P1020469" url_b="http://static.flickr.com/2246/2383532373_3320869e28_b.jpg" username="airminded" views="1" />
<photo  date_taken="2007-09-16 10:32:04" description="" id="2383495407" latitude="41.892354" license="1" longitude="12.485736" nbComments="0" rank="25" tags="2007 italy rome romanforum" title="P1020444" url_b="http://static.flickr.com/3224/2383495407_019c90f746_b.jpg" username="airminded" views="1" />
<photo  date_taken="2007-09-16 10:33:15" description="" id="2383500801" latitude="41.892354" license="1" longitude="12.485736" nbComments="0" rank="26" tags="2007 italy rome romanforum" title="P1020445" url_b="http://static.flickr.com/2135/2383500801_e0b12af256_b.jpg" username="airminded" views="1" />
<photo  date_taken="2007-09-16 10:51:09" description="" id="2384360144" latitude="41.892354" license="1" longitude="12.485736" nbComments="0" rank="27" tags="2007 italy rome romanforum" title="P1020467" url_b="http://static.flickr.com/2143/2384360144_afec1f251c_b.jpg" username="airminded" views="1" />
<photo  date_taken="2002-12-20 15:58:29" description="" id="612555427" latitude="41.892334" license="1" longitude="12.485677" nbComments="0" rank="28" tags="italy rome romanforum iphoto:rating=4 iphoto:id=2390 dc:audience=public" title="202.romanforum14" url_b="http://static.flickr.com/1152/612555427_f706cea22d_b.jpg" username="liquidx" views="3" />
<photo  date_taken="2010-09-27 11:14:28" description="" id="5042749624" latitude="41.8925" license="4" longitude="12.485669" nbComments="0" rank="29" tags="rome italy" title="Temples of the Roman Forum" url_b="http://static.flickr.com/4131/5042749624_b355fcc7a3_b.jpg" username="Rene Cunningham" views="42" />
<photo  date_taken="2009-08-11 14:00:43" description="" id="3871246215" latitude="41.8925" license="4" longitude="12.485666" nbComments="0" rank="30" tags="colosseum romanforum rome forum" title="Colosseum from the Roman Forum" url_b="http://static.flickr.com/2496/3871246215_f177690f35_b.jpg" username="computerjoe" views="30" />
<photo  date_taken="2009-08-11 13:23:49" description="" id="3871243441" latitude="41.8925" license="4" longitude="12.485666" nbComments="0" rank="31" tags="romanforum rome forum" title="At the Roman Forum" url_b="http://static.flickr.com/3522/3871243441_49033d7eee_b.jpg" username="computerjoe" views="5" />
<photo  date_taken="2009-08-11 13:50:29" description="I believe this is a view of St Peter's Basilica from the Roman Forum" id="3872027146" latitude="41.8925" license="4" longitude="12.485666" nbComments="0" rank="32" tags="romanforum rome forum vatican stpetersbasillica" title="The Vatican from the Forum" url_b="http://static.flickr.com/3483/3872027146_0b68f6ac2b_b.jpg" username="computerjoe" views="6" />
<photo  date_taken="2009-08-11 13:20:51" description="" id="3872024946" latitude="41.8925" license="4" longitude="12.485666" nbComments="0" rank="33" tags="romanforum rome forum" title="The Roman Forum" url_b="http://static.flickr.com/3536/3872024946_de5e2d29f7_b.jpg" username="computerjoe" views="3" />
<photo  date_taken="2009-08-11 14:03:43" description="" id="3871247569" latitude="41.8925" license="4" longitude="12.485666" nbComments="0" rank="34" tags="romanforum rome forum" title="Roman Forum" url_b="http://static.flickr.com/2514/3871247569_ef033f2164_b.jpg" username="computerjoe" views="5" />
<photo  date_taken="2009-08-11 13:58:14" description="" id="3871245539" latitude="41.8925" license="4" longitude="12.485666" nbComments="0" rank="35" tags="romanforum rome forum arch gateway" title="" url_b="http://static.flickr.com/3525/3871245539_e68273c64d_b.jpg" username="computerjoe" views="5" />
<photo  date_taken="2009-08-11 13:28:01" description="" id="3871244199" latitude="41.8925" license="4" longitude="12.485666" nbComments="0" rank="36" tags="romanforum rome forum tree" title="A lone tree" url_b="http://static.flickr.com/2456/3871244199_d188305a46_b.jpg" username="computerjoe" views="20" />
<photo  date_taken="2008-05-12 18:11:58" description="Map it: &lt;a href=&quot;http://www.robogeo.com/Flickr2Map/&quot;&gt;Google Earth&lt;/a&gt; | &lt;a href=&quot;http://www.robogeo.com/Flickr2Map/?type=map&quot; target=&quot;_blank&quot;&gt;Street&lt;/a&gt; | &lt;a href=&quot;http://www.robogeo.com/Flickr2Map/?type=map&amp;amp;view=satellite&quot; target=&quot;_blank&quot;&gt;Satellite&lt;/a&gt; | &lt;a href=&quot;http://www.robogeo.com/Flickr2Map/?type=map&amp;amp;view=hybrid&quot; target=&quot;_blank&quot;&gt;Hybrid&lt;/a&gt; | &lt;a href=&quot;http://www.robogeo.com/Flickr2Map/?type=nautical&quot; target=&quot;_blank&quot;&gt;Nautical&lt;/a&gt;" id="2699908289" latitude="41.892454" license="1" longitude="12.485804" nbComments="0" rank="37" tags="geotagged geo:lat=418924541930026 geo:lon=124858041601359 romanforum italy 10may2008 12may2008" title="Roman Forum" url_b="http://static.flickr.com/3061/2699908289_e7d3bab87f_b.jpg" username="gorbulas_sandybanks" views="5" />
<photo  date_taken="2006-11-16 10:43:39" description="&lt;a href=&quot;http://maps.google.com?q=41.89253022412745,12.485623955726624(Column in the Forum)&amp;amp;t=h&quot;&gt;See where this picture was taken.&lt;/a&gt; &lt;a href=&quot;http://www.flickr.com/groups/geotagging/discuss/72157594165549916/&quot;&gt;[?]&lt;/a&gt;" id="307934934" latitude="41.89253" license="4" longitude="12.485624" nbComments="0" rank="38" tags="rome italy romanruins geo:lat=4189253 geo:lon=12485624 geotagged" title="Column in the Forum" url_b="http://static.flickr.com/113/307934934_5f42288d24_b.jpg" username="GOC53" views="16" />
<photo  date_taken="2006-05-01 06:14:49" description="The most famous street in Ancient Rome." id="297100597" latitude="41.892526" license="3" longitude="12.485575" nbComments="0" rank="39" tags="travel europe rome italy forum fororomano ruins roman" title="Via Sacra" url_b="http://static.flickr.com/114/297100597_0863d43c0f_b.jpg" username="IceNineJon" views="68" />
<photo  date_taken="2005-05-16 05:06:42" description="Fragment from the roman forum" id="4694792224" latitude="41.892518" license="1" longitude="12.485532" nbComments="0" rank="40" tags="italy rome trips" title="Fragment" url_b="http://static.flickr.com/4026/4694792224_50c1eb3cb4_b.jpg" username="Badger416" views="4" />
<photo  date_taken="2005-06-05 05:34:57" description="" id="50028177" latitude="41.892334" license="3" longitude="12.485854" nbComments="0" rank="41" tags="italy forum ruins columns rome roma" title="Roman Forum" url_b="http://static.flickr.com/26/50028177_2d9797737f_b.jpg" username="Tjflex2" views="74" />
<photo  date_taken="2005-06-05 05:33:12" description="" id="50028175" latitude="41.892334" license="3" longitude="12.485854" nbComments="0" rank="42" tags="italy forum ruins rome roma" title="Roman Forum" url_b="http://static.flickr.com/33/50028175_e1bc286f6c_b.jpg" username="Tjflex2" views="50" />
<photo  date_taken="2005-06-05 05:33:00" description="" id="50028174" latitude="41.892334" license="3" longitude="12.485854" nbComments="0" rank="43" tags="italy forum ruins rome roma" title="Roman Forum" url_b="http://static.flickr.com/31/50028174_57af499e15_b.jpg" username="Tjflex2" views="61" />
<photo  date_taken="2005-06-05 05:35:49" description="" id="50028178" latitude="41.892334" license="3" longitude="12.485854" nbComments="0" rank="44" tags="italy forum ruins rome roma" title="Roman Forum" url_b="http://static.flickr.com/28/50028178_07287e5363_b.jpg" username="Tjflex2" views="66" />
<photo  date_taken="2010-09-27 11:03:21" description="This is one of the first pieces we saw as we entered the Roman Forum." id="5042113499" latitude="41.892625" license="4" longitude="12.485722" nbComments="0" rank="45" tags="rome italy" title="Entering the Roman Forum" url_b="http://static.flickr.com/4129/5042113499_7f8915c16f_b.jpg" username="Rene Cunningham" views="37" />
<photo  date_taken="2009-03-19 07:25:33" description="" id="3495072864" latitude="41.892295" license="1" longitude="12.48587" nbComments="0" rank="46" tags="rome italy march2009 architecture ancient ruins ancientrome forumromanum romanforum" title="Forum Romanum, Rome" url_b="http://static.flickr.com/3389/3495072864_33983e2cd8_b.jpg" username="teachandlearn" views="95" />
<photo  date_taken="2011-06-05 17:03:54" description="Roman Forum" id="5869081770" latitude="41.892461" license="1" longitude="12.485905" nbComments="0" rank="47" tags="rome" title="Foro Romano フォロ・ロマーノ" url_b="http://static.flickr.com/5030/5869081770_90146e61b8_b.jpg" username="nekotank" views="9" />
<photo  date_taken="2009-03-19 06:26:26" description="" id="3495003842" latitude="41.892196" license="1" longitude="12.485784" nbComments="0" rank="48" tags="rome italy march2009 architecture forumromanum romanforum ancient ruins ancientrome" title="Forum Romanum, Rome" url_b="http://static.flickr.com/3623/3495003842_7e42f1657e_b.jpg" username="teachandlearn" views="109" />
<photo  date_taken="2006-05-03 14:55:44" description="In its current state, remains from several centuries are shown together, due to the Roman practice of building over earlier ruins." id="292322768" latitude="41.892194" license="4" longitude="12.485811" nbComments="0" rank="49" tags="architecture monument rome italy" title="Roman Forum (2006-05-138)" url_b="http://static.flickr.com/103/292322768_80914c28c5_b.jpg" username="Argenberg" views="100" />
<photo  date_taken="2009-03-19 06:54:34" description="" id="3495118484" latitude="41.89223" license="1" longitude="12.485865" nbComments="0" rank="50" tags="rome italy march2009 architecture ancient ruins ancientrome forumromanum romanforum" title="Forum Romanum, Rome" url_b="http://static.flickr.com/3363/3495118484_03c20eab13_b.jpg" username="teachandlearn" views="104" />
<photo  date_taken="2008-05-12 18:08:57" description="Map it: &lt;a href=&quot;http://www.robogeo.com/Flickr2Map/&quot;&gt;Google Earth&lt;/a&gt; | &lt;a href=&quot;http://www.robogeo.com/Flickr2Map/?type=map&quot; target=&quot;_blank&quot;&gt;Street&lt;/a&gt; | &lt;a href=&quot;http://www.robogeo.com/Flickr2Map/?type=map&amp;amp;view=satellite&quot; target=&quot;_blank&quot;&gt;Satellite&lt;/a&gt; | &lt;a href=&quot;http://www.robogeo.com/Flickr2Map/?type=map&amp;amp;view=hybrid&quot; target=&quot;_blank&quot;&gt;Hybrid&lt;/a&gt; | &lt;a href=&quot;http://www.robogeo.com/Flickr2Map/?type=nautical&quot; target=&quot;_blank&quot;&gt;Nautical&lt;/a&gt;" id="2700722980" latitude="41.892163" license="1" longitude="12.485836" nbComments="0" rank="51" tags="rome geotagged geo:lat=418921631373962 geo:lon=124858369725487 romanforum italy 10may2008 12may2008" title="Roman Forum" url_b="http://static.flickr.com/3148/2700722980_fb60ca23e2_b.jpg" username="gorbulas_sandybanks" views="16" />
<photo  date_taken="2009-03-19 07:05:42" description="" id="3494318391" latitude="41.892173" license="1" longitude="12.485865" nbComments="0" rank="52" tags="rome italy march2009 architecture ancient ruins ancientrome forumromanum romanforum" title="Forum Romanum, Rome" url_b="http://static.flickr.com/3359/3494318391_758e50b78b_b.jpg" username="teachandlearn" views="129" />
<photo  date_taken="2008-03-09 10:54:42" description="" id="2366344391" latitude="41.892141" license="1" longitude="12.485838" nbComments="0" rank="53" tags="italy rome autostitch" title="Roman Forum - Main Square" url_b="http://static.flickr.com/2381/2366344391_28a612cae1_b.jpg" username="Kwong Yee Cheng" views="26" />
<photo  date_taken="2009-01-13 12:17:49" description="&lt;a href=&quot;http://en.wikipedia.org/wiki/Roman_forum&quot;&gt;en.wikipedia.org/wiki/Roman_forum&lt;/a&gt; &lt;a href=&quot;http://en.wikipedia.org/wiki/Arch_of_Septimius_Severus&quot;&gt;en.wikipedia.org/wiki/Arch_of_Septimius_Severus&lt;/a&gt;" id="3209959186" latitude="41.89208" license="5" longitude="12.485677" nbComments="0" rank="54" tags="rome roma italy italia ruins romanforum roman forum marble carvings latin arch archofseptimusseverus" title="Ruins" url_b="http://static.flickr.com/3262/3209959186_6b3d6658d0_b.jpg" username="Hello, I am Bruce" views="78" />
<photo  date_taken="2003-12-04 14:43:42" description="The Roman Forum (it's much more impressive in person)." id="4676830697" latitude="41.892142" license="3" longitude="12.485468" nbComments="0" rank="55" tags="italy rome viasacra romanforum lyle" title="The Via Sacra" url_b="http://static.flickr.com/4047/4676830697_c304e21770_b.jpg" username="lbarbato" views="3" />
<photo  date_taken="2009-02-11 17:48:02" description="Forum Romanum" id="3296890037" latitude="41.89263" license="1" longitude="12.485404" nbComments="0" rank="56" tags="foro romano roman forum romanum rom rome roma italien italia italy forumromanum engelsburg tiber vatikan petersdom petersplatz colosseum kolosseum fontanaditrevi pantheon viadelcorso piazzadelpopolo vatikanischemuseen museivaticani piazzanavona piazzavenezia ewigestadt trastevere tevere ladolcevita cittàdelvaticano michelangelo bernini raffael latium lazio romulus remus illuminati spqr" title="Rom 2009" url_b="http://static.flickr.com/3642/3296890037_08bd7a908d_b.jpg" username="Martin Wippel" views="15" />
<photo  date_taken="2009-02-11 18:07:09" description="Forum Romanum" id="3297715548" latitude="41.89263" license="1" longitude="12.485404" nbComments="0" rank="57" tags="rom rome roma italien italia italy foro romano forum romanum roman engelsburg tiber vatikan petersdom petersplatz colosseum kolosseum fontanaditrevi pantheon viadelcorso piazzadelpopolo vatikanischemuseen museivaticani piazzanavona piazzavenezia ewigestadt trastevere tevere ladolcevita cittàdelvaticano michelangelo bernini raffael latium lazio romulus remus illuminati spqr" title="Rom 2009" url_b="http://static.flickr.com/3594/3297715548_70476b163d_b.jpg" username="Martin Wippel" views="11" />
<photo  date_taken="2009-02-12 13:34:49" description="Forum Romanum" id="3296895371" latitude="41.89263" license="1" longitude="12.485404" nbComments="0" rank="58" tags="roman forum romanum foro romano rom rome roma italien italia italy forumromanum engelsburg tiber vatikan petersdom petersplatz colosseum kolosseum fontanaditrevi pantheon viadelcorso piazzadelpopolo vatikanischemuseen museivaticani piazzanavona piazzavenezia ewigestadt trastevere tevere ladolcevita cittàdelvaticano michelangelo bernini raffael latium lazio romulus remus illuminati spqr" title="Rom 2009" url_b="http://static.flickr.com/3327/3296895371_2e071a1d5c_b.jpg" username="Martin Wippel" views="45" />
<photo  date_taken="2009-02-12 13:50:35" description="Forum Romanum" id="3296897643" latitude="41.89263" license="1" longitude="12.485404" nbComments="0" rank="59" tags="foro romano roman forum romanum rom rome roma italien italia italy forumromanum engelsburg tiber vatikan petersdom petersplatz colosseum kolosseum fontanaditrevi pantheon viadelcorso piazzadelpopolo vatikanischemuseen museivaticani piazzanavona piazzavenezia ewigestadt trastevere tevere ladolcevita cittàdelvaticano michelangelo bernini raffael latium lazio romulus remus illuminati spqr" title="Rom 2009" url_b="http://static.flickr.com/3475/3296897643_f301dffcd3_b.jpg" username="Martin Wippel" views="27" />
<photo  date_taken="2009-02-12 14:26:03" description="Forum Romanum" id="3296901503" latitude="41.89263" license="1" longitude="12.485404" nbComments="0" rank="60" tags="roman forum romanum foro romano rom rome roma italien italia italy forumromanum engelsburg tiber vatikan petersdom petersplatz colosseum kolosseum fontanaditrevi pantheon viadelcorso piazzadelpopolo vatikanischemuseen museivaticani piazzanavona piazzavenezia ewigestadt trastevere tevere ladolcevita cittàdelvaticano michelangelo bernini raffael latium lazio romulus remus illuminati spqr" title="Rom 2009" url_b="http://static.flickr.com/3548/3296901503_504ce6cd87_b.jpg" username="Martin Wippel" views="27" />
<photo  date_taken="2009-02-11 17:15:03" description="Forum Romanum" id="3296888425" latitude="41.89263" license="1" longitude="12.485404" nbComments="0" rank="61" tags="rom rome roma italien italia italy roman forum foro romano romanum engelsburg tiber vatikan petersdom petersplatz colosseum kolosseum fontanaditrevi pantheon viadelcorso piazzadelpopolo vatikanischemuseen museivaticani piazzanavona piazzavenezia ewigestadt trastevere tevere ladolcevita cittàdelvaticano michelangelo bernini raffael latium lazio romulus remus illuminati spqr" title="Rom 2009" url_b="http://static.flickr.com/3579/3296888425_b794c6c752_b.jpg" username="Martin Wippel" views="17" />
<photo  date_taken="2009-02-12 13:36:14" description="Forum Romanum" id="3297721356" latitude="41.89263" license="1" longitude="12.485404" nbComments="0" rank="62" tags="foro romano roman forum romanum rom rome roma italien italia italy forumromanum engelsburg tiber vatikan petersdom petersplatz colosseum kolosseum fontanaditrevi pantheon viadelcorso piazzadelpopolo vatikanischemuseen museivaticani piazzanavona piazzavenezia ewigestadt trastevere tevere ladolcevita cittàdelvaticano michelangelo bernini raffael latium lazio romulus remus illuminati spqr" title="Rom 2009" url_b="http://static.flickr.com/3354/3297721356_bda786e9b0_b.jpg" username="Martin Wippel" views="16" />
<photo  date_taken="2009-02-12 14:01:16" description="Forum Romanum" id="3297724430" latitude="41.89263" license="1" longitude="12.485404" nbComments="0" rank="63" tags="roman forum romanum foro romano rom rome roma italien italia italy engelsburg tiber vatikan petersdom petersplatz colosseum kolosseum fontanaditrevi pantheon viadelcorso piazzadelpopolo vatikanischemuseen museivaticani piazzanavona piazzavenezia ewigestadt trastevere tevere ladolcevita cittàdelvaticano michelangelo bernini raffael latium lazio romulus remus illuminati spqr" title="Rom 2009" url_b="http://static.flickr.com/3389/3297724430_27cb1d8964_b.jpg" username="Martin Wippel" views="8" />
<photo  date_taken="2009-02-12 14:16:45" description="Forum Romanum" id="3297725716" latitude="41.89263" license="1" longitude="12.485404" nbComments="0" rank="64" tags="roman forum romanum foro romano rom rome roma italien italia italy forumromanum engelsburg tiber vatikan petersdom petersplatz colosseum kolosseum fontanaditrevi pantheon viadelcorso piazzadelpopolo vatikanischemuseen museivaticani piazzanavona piazzavenezia ewigestadt trastevere tevere ladolcevita cittàdelvaticano michelangelo bernini raffael latium lazio romulus remus illuminati spqr" title="Rom 2009" url_b="http://static.flickr.com/3524/3297725716_041a6932c8_b.jpg" username="Martin Wippel" views="12" />
<photo  date_taken="2009-02-12 14:15:26" description="Forum Romanum" id="3297725162" latitude="41.89263" license="1" longitude="12.485404" nbComments="0" rank="65" tags="roman forum romanum foro romano rom rome roma italien italia italy forumromanum engelsburg tiber vatikan petersdom petersplatz colosseum kolosseum fontanaditrevi pantheon viadelcorso piazzadelpopolo vatikanischemuseen museivaticani piazzanavona piazzavenezia ewigestadt trastevere tevere ladolcevita cittàdelvaticano michelangelo bernini raffael latium lazio romulus remus illuminati spqr" title="Rom 2009" url_b="http://static.flickr.com/3165/3297725162_ea43bc5875_b.jpg" username="Martin Wippel" views="13" />
<photo  date_taken="2009-02-12 13:35:38" description="Forum Romanum" id="3296895601" latitude="41.89263" license="1" longitude="12.485404" nbComments="0" rank="66" tags="rom rome roma italien italia italy roman forum foro romano romanum engelsburg tiber vatikan petersdom petersplatz colosseum kolosseum fontanaditrevi pantheon viadelcorso piazzadelpopolo vatikanischemuseen museivaticani piazzanavona piazzavenezia ewigestadt trastevere tevere ladolcevita cittàdelvaticano michelangelo bernini raffael latium lazio romulus remus illuminati spqr" title="Rom 2009" url_b="http://static.flickr.com/3353/3296895601_6600a3fe5c_b.jpg" username="Martin Wippel" views="82" />
<photo  date_taken="2009-02-12 13:36:43" description="Forum Romanum" id="3297721978" latitude="41.89263" license="1" longitude="12.485404" nbComments="0" rank="67" tags="foro romano roman forum romanum rom rome roma italien italia italy forumromanum engelsburg tiber vatikan petersdom petersplatz colosseum kolosseum fontanaditrevi pantheon viadelcorso piazzadelpopolo vatikanischemuseen museivaticani piazzanavona piazzavenezia ewigestadt trastevere tevere ladolcevita cittàdelvaticano michelangelo bernini raffael latium lazio romulus remus illuminati spqr" title="Rom 2009" url_b="http://static.flickr.com/3520/3297721978_2588174b57_b.jpg" username="Martin Wippel" views="47" />
<photo  date_taken="2009-02-12 13:48:00" description="Forum Romanum" id="3296897383" latitude="41.89263" license="1" longitude="12.485404" nbComments="0" rank="68" tags="foro romano roman forum romanum rom rome roma italien italia italy forumromanum engelsburg tiber vatikan petersdom petersplatz colosseum kolosseum fontanaditrevi pantheon viadelcorso piazzadelpopolo vatikanischemuseen museivaticani piazzanavona piazzavenezia ewigestadt trastevere tevere ladolcevita cittàdelvaticano michelangelo bernini raffael latium lazio romulus remus illuminati spqr" title="Rom 2009" url_b="http://static.flickr.com/3616/3296897383_e8db73feb3_b.jpg" username="Martin Wippel" views="33" />
<photo  date_taken="2009-02-12 14:37:49" description="Forum Romanum" id="3297727282" latitude="41.89263" license="1" longitude="12.485404" nbComments="0" rank="69" tags="foro romano roman forum romanum rom rome roma italien italia italy forumromanum engelsburg tiber vatikan petersdom petersplatz colosseum kolosseum fontanaditrevi pantheon viadelcorso piazzadelpopolo vatikanischemuseen museivaticani piazzanavona piazzavenezia ewigestadt trastevere tevere ladolcevita cittàdelvaticano michelangelo bernini raffael latium lazio romulus remus illuminati spqr" title="Rom 2009" url_b="http://static.flickr.com/3451/3297727282_bb7c3c3fe7_b.jpg" username="Martin Wippel" views="28" />
<photo  date_taken="2009-02-12 13:42:33" description="Forum Romanum" id="3296896859" latitude="41.89263" license="1" longitude="12.485404" nbComments="0" rank="70" tags="foro romano roman forum romanum rom rome roma italien italia italy engelsburg tiber vatikan petersdom petersplatz colosseum kolosseum fontanaditrevi pantheon viadelcorso piazzadelpopolo vatikanischemuseen museivaticani piazzanavona piazzavenezia ewigestadt trastevere tevere ladolcevita cittàdelvaticano michelangelo bernini raffael latium lazio romulus remus illuminati spqr" title="Rom 2009" url_b="http://static.flickr.com/3447/3296896859_2f61db51ec_b.jpg" username="Martin Wippel" views="8" />
<photo  date_taken="2009-02-12 14:42:03" description="Forum Romanum" id="3296902573" latitude="41.89263" license="1" longitude="12.485404" nbComments="0" rank="71" tags="roman forum romanum foro romano rom rome roma italien italia italy forumromanum engelsburg tiber vatikan petersdom petersplatz colosseum kolosseum fontanaditrevi pantheon viadelcorso piazzadelpopolo vatikanischemuseen museivaticani piazzanavona piazzavenezia ewigestadt trastevere tevere ladolcevita cittàdelvaticano michelangelo bernini raffael latium lazio romulus remus illuminati spqr" title="Rom 2009" url_b="http://static.flickr.com/3525/3296902573_d8997b01e8_b.jpg" username="Martin Wippel" views="44" />
<photo  date_taken="2009-02-12 14:15:46" description="Forum Romanum" id="3297725438" latitude="41.89263" license="1" longitude="12.485404" nbComments="0" rank="72" tags="roman forum romanum foro romano rom rome roma italien italia italy forumromanum engelsburg tiber vatikan petersdom petersplatz colosseum kolosseum fontanaditrevi pantheon viadelcorso piazzadelpopolo vatikanischemuseen museivaticani piazzanavona piazzavenezia ewigestadt trastevere tevere ladolcevita cittàdelvaticano michelangelo bernini raffael latium lazio romulus remus illuminati spqr" title="Rom 2009" url_b="http://static.flickr.com/3527/3297725438_ebe33199ea_b.jpg" username="Martin Wippel" views="15" />
<photo  date_taken="2009-02-12 14:38:05" description="Forum Romanum" id="3296902275" latitude="41.89263" license="1" longitude="12.485404" nbComments="0" rank="73" tags="forum romanum roman foro romano rom rome roma italien italia italy forumromanum engelsburg tiber vatikan petersdom petersplatz colosseum kolosseum fontanaditrevi pantheon viadelcorso piazzadelpopolo vatikanischemuseen museivaticani piazzanavona piazzavenezia ewigestadt trastevere tevere ladolcevita cittàdelvaticano michelangelo bernini raffael latium lazio romulus remus illuminati spqr" title="Rom 2009" url_b="http://static.flickr.com/3376/3296902275_516797cd9b_b.jpg" username="Martin Wippel" views="47" />
<photo  date_taken="2009-02-12 14:20:29" description="Forum Romanum" id="3297726528" latitude="41.89263" license="1" longitude="12.485404" nbComments="0" rank="74" tags="foro romano roman forum romanum rom rome roma italien italia italy forumromanum engelsburg tiber vatikan petersdom petersplatz colosseum kolosseum fontanaditrevi pantheon viadelcorso piazzadelpopolo vatikanischemuseen museivaticani piazzanavona piazzavenezia ewigestadt trastevere tevere ladolcevita cittàdelvaticano michelangelo bernini raffael latium lazio romulus remus illuminati spqr" title="Rom 2009" url_b="http://static.flickr.com/3570/3297726528_8bace31fe5_b.jpg" username="Martin Wippel" views="18" />
<photo  date_taken="2009-02-12 13:34:38" description="Forum Romanum" id="3297720630" latitude="41.89263" license="1" longitude="12.485404" nbComments="0" rank="75" tags="foro romano roman forum romanum rom rome roma italien italia italy forumromanum engelsburg tiber vatikan petersdom petersplatz colosseum kolosseum fontanaditrevi pantheon viadelcorso piazzadelpopolo vatikanischemuseen museivaticani piazzanavona piazzavenezia ewigestadt trastevere tevere ladolcevita cittàdelvaticano michelangelo bernini raffael latium lazio romulus remus illuminati spqr" title="Rom 2009" url_b="http://static.flickr.com/3524/3297720630_8728e90bfe_b.jpg" username="Martin Wippel" views="37" />
<photo  date_taken="2009-02-12 13:53:33" description="Forum Romanum" id="3297723414" latitude="41.89263" license="1" longitude="12.485404" nbComments="0" rank="76" tags="foro romano roman forum romanum rom rome roma italien italia italy forumromanum engelsburg tiber vatikan petersdom petersplatz colosseum kolosseum fontanaditrevi pantheon viadelcorso piazzadelpopolo vatikanischemuseen museivaticani piazzanavona piazzavenezia ewigestadt trastevere tevere ladolcevita cittàdelvaticano michelangelo bernini raffael latium lazio romulus remus illuminati spqr" title="Rom 2009" url_b="http://static.flickr.com/3570/3297723414_da087f24ba_b.jpg" username="Martin Wippel" views="5" />
<photo  date_taken="2009-02-12 13:56:09" description="Forum Romanum" id="3297723958" latitude="41.89263" license="1" longitude="12.485404" nbComments="0" rank="77" tags="foro romano roman forum romanum rom rome roma italien italia italy forumromanum engelsburg tiber vatikan petersdom petersplatz colosseum kolosseum fontanaditrevi pantheon viadelcorso piazzadelpopolo vatikanischemuseen museivaticani piazzanavona piazzavenezia ewigestadt trastevere tevere ladolcevita cittàdelvaticano michelangelo bernini raffael latium lazio romulus remus illuminati spqr" title="Rom 2009" url_b="http://static.flickr.com/3617/3297723958_9431d76e18_b.jpg" username="Martin Wippel" views="8" />
<photo  date_taken="2009-02-11 17:15:56" description="Forum Romanum" id="3296888639" latitude="41.89263" license="1" longitude="12.485404" nbComments="0" rank="78" tags="rom rome roma italien italia italy roman forum foro romano romanum engelsburg tiber vatikan petersdom petersplatz colosseum kolosseum fontanaditrevi pantheon viadelcorso piazzadelpopolo vatikanischemuseen museivaticani piazzanavona piazzavenezia ewigestadt trastevere tevere ladolcevita cittàdelvaticano michelangelo bernini raffael latium lazio romulus remus illuminati spqr" title="Rom 2009" url_b="http://static.flickr.com/3492/3296888639_e3f96513d1_b.jpg" username="Martin Wippel" views="13" />
<photo  date_taken="2009-02-12 13:44:18" description="Kolosseum, Forum Romanum" id="3296897175" latitude="41.89263" license="1" longitude="12.485404" nbComments="0" rank="79" tags="foro romano roman forum romanum rom rome roma italien italia italy forumromanum engelsburg tiber vatikan petersdom petersplatz colosseum kolosseum fontanaditrevi pantheon viadelcorso piazzadelpopolo vatikanischemuseen museivaticani piazzanavona piazzavenezia ewigestadt trastevere tevere ladolcevita cittàdelvaticano michelangelo bernini raffael latium lazio romulus remus illuminati spqr" title="Rom 2009" url_b="http://static.flickr.com/3336/3296897175_c0408ab868_b.jpg" username="Martin Wippel" views="11" />
<photo  date_taken="2009-02-12 13:36:24" description="Forum Romanum" id="3297721650" latitude="41.89263" license="1" longitude="12.485404" nbComments="0" rank="80" tags="foro romano roman forum romanum rom rome roma italien italia italy forumromanum engelsburg tiber vatikan petersdom petersplatz colosseum kolosseum fontanaditrevi pantheon viadelcorso piazzadelpopolo vatikanischemuseen museivaticani piazzanavona piazzavenezia ewigestadt trastevere tevere ladolcevita cittàdelvaticano michelangelo bernini raffael latium lazio romulus remus illuminati spqr" title="Rom 2009" url_b="http://static.flickr.com/3606/3297721650_25fd2c2d07_b.jpg" username="Martin Wippel" views="9" />
<photo  date_taken="2009-02-12 14:19:37" description="Forum Romanum" id="3297726288" latitude="41.89263" license="1" longitude="12.485404" nbComments="0" rank="81" tags="foro romano roman forum romanum rom rome roma italien italia italy forumromanum engelsburg tiber vatikan petersdom petersplatz colosseum kolosseum fontanaditrevi pantheon viadelcorso piazzadelpopolo vatikanischemuseen museivaticani piazzanavona piazzavenezia ewigestadt trastevere tevere ladolcevita cittàdelvaticano michelangelo bernini raffael latium lazio romulus remus illuminati spqr" title="Rom 2009" url_b="http://static.flickr.com/3589/3297726288_b66320013d_b.jpg" username="Martin Wippel" views="18" />
<photo  date_taken="2009-02-12 13:56:52" description="Forum Romanum" id="3297724174" latitude="41.89263" license="1" longitude="12.485404" nbComments="0" rank="82" tags="roman forum romanum foro romano rom rome roma italien italia italy forumromanum engelsburg tiber vatikan petersdom petersplatz colosseum kolosseum fontanaditrevi pantheon viadelcorso piazzadelpopolo vatikanischemuseen museivaticani piazzanavona piazzavenezia ewigestadt trastevere tevere ladolcevita cittàdelvaticano michelangelo bernini raffael latium lazio romulus remus illuminati spqr" title="Rom 2009" url_b="http://static.flickr.com/3357/3297724174_bbcd23c991_b.jpg" username="Martin Wippel" views="4" />
<photo  date_taken="2009-03-19 06:28:10" description="" id="3494206209" latitude="41.892265" license="1" longitude="12.486004" nbComments="0" rank="83" tags="rome italy march2009 architecture forumromanum romanforum ancient ruins ancientrome" title="Forum Romanum, Rome" url_b="http://static.flickr.com/3603/3494206209_87ff0446c1_b.jpg" username="teachandlearn" views="108" />
<photo  date_taken="2011-04-11 10:08:26" description="Jag och brorsan var där 2007." id="5608787069" latitude="41.892078" license="1" longitude="12.485564" nbComments="0" rank="84" tags="panorama utsikt view rome rom romanforum forumromanum" title="Forum Romanum 2007 2" url_b="http://static.flickr.com/5269/5608787069_8474c560ee_b.jpg" username="Johnny Söderbergs nya" views="20" />
<photo  date_taken="2008-04-23 13:34:52" description="Arch of Septimius Severus at Forum Romanum (The Roman Forum) Wikipedia: &lt;a href=&quot;http://en.wikipedia.org/wiki/Roman_forum&quot;&gt;Forum Romanum&lt;/a&gt; Wikipedia: &lt;a href=&quot;http://en.wikipedia.org/wiki/Arch_of_Septimius_Severus&quot;&gt;Arch of Septimius Severus&lt;/a&gt;" id="2461010949" latitude="41.89211" license="3" longitude="12.485886" nbComments="0" rank="85" tags="rome vacation holiday italy romanforum forumromanum archofseptimiusseverus" title="Arch of Septimius Severus" url_b="http://static.flickr.com/2099/2461010949_367e8fce9f_b.jpg" username="Søren Hugger Møller" views="115" />
<photo  date_taken="2008-04-23 13:28:52" description="The Roman Forum &lt;a href=&quot;http://en.wikipedia.org/wiki/Roman_forum&quot;&gt;Wikipedia&lt;/a&gt;" id="2461844414" latitude="41.89211" license="3" longitude="12.485886" nbComments="0" rank="86" tags="rome vacation holiday italy romanforum forumromanum" title="Forum Romanum" url_b="http://static.flickr.com/2264/2461844414_37dded23c2_b.jpg" username="Søren Hugger Møller" views="68" />
<photo  date_taken="2008-03-09 11:20:01" description="" id="2367190890" latitude="41.892552" license="1" longitude="12.485344" nbComments="0" rank="87" tags="italy rome" title="Roman Forum - Arch of Septimius Severus" url_b="http://static.flickr.com/2076/2367190890_c459dc626b_b.jpg" username="Kwong Yee Cheng" views="43" />
<photo  date_taken="2008-05-12 18:14:10" description="Map it: &lt;a href=&quot;http://www.robogeo.com/Flickr2Map/&quot;&gt;Google Earth&lt;/a&gt; | &lt;a href=&quot;http://www.robogeo.com/Flickr2Map/?type=map&quot; target=&quot;_blank&quot;&gt;Street&lt;/a&gt; | &lt;a href=&quot;http://www.robogeo.com/Flickr2Map/?type=map&amp;amp;view=satellite&quot; target=&quot;_blank&quot;&gt;Satellite&lt;/a&gt; | &lt;a href=&quot;http://www.robogeo.com/Flickr2Map/?type=map&amp;amp;view=hybrid&quot; target=&quot;_blank&quot;&gt;Hybrid&lt;/a&gt; | &lt;a href=&quot;http://www.robogeo.com/Flickr2Map/?type=nautical&quot; target=&quot;_blank&quot;&gt;Nautical&lt;/a&gt;" id="2700723750" latitude="41.89278" license="1" longitude="12.485851" nbComments="0" rank="88" tags="rome geotagged geo:lat=418927806934714 geo:lon=124858514913441 romanforum italy 10may2008 12may2008" title="Roman Forum" url_b="http://static.flickr.com/3140/2700723750_8f8e031f85_b.jpg" username="gorbulas_sandybanks" views="26" />
<photo  date_taken="2011-01-31 11:25:31" description="" id="5407209134" latitude="41.892" license="1" longitude="12.485666" nbComments="0" rank="89" tags="europe holiday italy pantheon romanforum rome" title="2011-01-31 at 11-25-31" url_b="http://static.flickr.com/5259/5407209134_1d13d48c79_b.jpg" username="Andrew Scott" views="31" />
<photo  date_taken="2008-07-10 14:21:54" description="Is that marble? I loved the veins and the cracks in the brick. I have no idea who the woman on the left of the photo is, she just wandered into my shot. How inconsiderate." id="2747637542" latitude="41.892011" license="1" longitude="12.485802" nbComments="0" rank="90" tags="rome italy romanforum" title="Piece of Rock" url_b="http://static.flickr.com/3268/2747637542_fc60d66802_b.jpg" username="Mushkush" views="121" />
<photo  date_taken="2008-03-09 10:55:06" description="" id="2366351279" latitude="41.892077" license="1" longitude="12.485969" nbComments="0" rank="91" tags="italy rome" title="Roman Forum - Temple of Julius Caesar" url_b="http://static.flickr.com/2397/2366351279_b96c5dc93c_b.jpg" username="Kwong Yee Cheng" views="58" />
<photo  date_taken="2008-03-09 10:56:02" description="" id="2366354289" latitude="41.892077" license="1" longitude="12.485969" nbComments="0" rank="92" tags="italy rome" title="Roman Forum - Temple of Julius Caesar" url_b="http://static.flickr.com/2341/2366354289_4269982d7e_b.jpg" username="Kwong Yee Cheng" views="63" />
<photo  date_taken="2007-04-10 10:12:32" description="" id="2442930758" latitude="41.89265" license="3" longitude="12.485307" nbComments="0" rank="93" tags="" title="Wisteria in bloom, Roman Forum" url_b="http://static.flickr.com/2385/2442930758_4945ae8b53_b.jpg" username="Jorge del Valle" views="15" />
<photo  date_taken="2007-04-10 10:01:55" description="" id="2442929266" latitude="41.89265" license="3" longitude="12.485307" nbComments="0" rank="94" tags="" title="Temple of the Vestal Virgins, Roman Forum" url_b="http://static.flickr.com/2121/2442929266_08525a44f0_b.jpg" username="Jorge del Valle" views="11" />
<photo  date_taken="2007-04-10 09:45:12" description="" id="2442927886" latitude="41.89265" license="3" longitude="12.485307" nbComments="0" rank="95" tags="" title="Roman Forum" url_b="http://static.flickr.com/3256/2442927886_169b950d73_b.jpg" username="Jorge del Valle" views="2" />
<photo  date_taken="2007-04-10 09:17:38" description="" id="2442926864" latitude="41.89265" license="3" longitude="12.485307" nbComments="0" rank="96" tags="" title="Roman Forum" url_b="http://static.flickr.com/3080/2442926864_f637aa4ecc_b.jpg" username="Jorge del Valle" views="2" />
<photo  date_taken="2007-04-10 09:45:39" description="" id="2442928424" latitude="41.89265" license="3" longitude="12.485307" nbComments="0" rank="97" tags="" title="Roman Forum" url_b="http://static.flickr.com/2041/2442928424_a92e2c5699_b.jpg" username="Jorge del Valle" views="4" />
<photo  date_taken="2007-04-10 09:43:37" description="" id="2442927416" latitude="41.89265" license="3" longitude="12.485307" nbComments="0" rank="98" tags="" title="Arch of Septimus Severus, Roman Forum" url_b="http://static.flickr.com/2189/2442927416_f6cf045fc8_b.jpg" username="Jorge del Valle" views="2" />
<photo  date_taken="2007-04-10 09:53:42" description="" id="2442928944" latitude="41.89265" license="3" longitude="12.485307" nbComments="1" rank="99" tags="" title="Arch of Septimus Severus, Roman Forum" url_b="http://static.flickr.com/3024/2442928944_6cce44b138_b.jpg" username="Jorge del Valle" views="8" />
<photo  date_taken="2007-04-10 10:12:22" description="" id="2442100919" latitude="41.89265" license="3" longitude="12.485307" nbComments="1" rank="100" tags="" title="Wisteria in bloom, Roman Forum" url_b="http://static.flickr.com/2224/2442100919_ec2defbcc6_b.jpg" username="Jorge del Valle" views="7" />
<photo  date_taken="2007-08-03 15:11:12" description="Road by the temple of Castor and Pollux in the Roman Forum, Roma." id="1267948639" latitude="41.892442" license="6" longitude="12.485232" nbComments="0" rank="101" tags="italy roadtrip2007 03082007 rome summer" title="P8047258" url_b="http://static.flickr.com/1352/1267948639_68ae25ffd6_b.jpg" username="taver" views="33" />
<photo  date_taken="2007-08-03 15:10:29" description="View of the Roman forum with part of the Arch of Septimius Severus and the Curia Julia, Roma." id="1267943135" latitude="41.892442" license="6" longitude="12.485232" nbComments="0" rank="102" tags="italy roadtrip2007 03082007 rome summer" title="P8047253" url_b="http://static.flickr.com/1056/1267943135_e86b5c0ceb_b.jpg" username="taver" views="40" />
<photo  date_taken="2007-08-03 15:13:38" description="View of the Roman forum with the Column of Phocas, Roma." id="1267953717" latitude="41.892442" license="6" longitude="12.485232" nbComments="0" rank="103" tags="italy roadtrip2007 03082007 rome summer" title="P8047264" url_b="http://static.flickr.com/1061/1267953717_d4ef97d189_b.jpg" username="taver" views="20" />
<photo  date_taken="2007-08-03 14:53:34" description="Temple of Antoninus and Faustina, Roman Forum, Roma." id="1267923901" latitude="41.892442" license="6" longitude="12.485232" nbComments="0" rank="104" tags="italy roadtrip2007 03082007 rome summer" title="P8047225" url_b="http://static.flickr.com/1371/1267923901_e3504a6515_b.jpg" username="taver" views="33" />
<photo  date_taken="2007-08-03 15:25:44" description="The Basilica Julia, the Temple of Saturn and the Temple of Vespasian and Titus in the Roman Forum, Roma." id="1268820082" latitude="41.892442" license="6" longitude="12.485232" nbComments="0" rank="105" tags="italy roadtrip2007 03082007 rome summer" title="P8047277" url_b="http://static.flickr.com/1379/1268820082_4cbabeb40b_b.jpg" username="taver" views="56" />
<photo  date_taken="2007-08-03 15:10:59" description="Temple of Castor and Pollux in the Roman Forum, Roma." id="1268807132" latitude="41.892442" license="6" longitude="12.485232" nbComments="0" rank="106" tags="italy roadtrip2007 03082007 rome summer" title="P8047256" url_b="http://static.flickr.com/1148/1268807132_9c8d75a9c6_b.jpg" username="taver" views="19" />
<photo  date_taken="2007-08-03 15:08:27" description="View of the Roman forum, Roma." id="1268198969" latitude="41.892442" license="6" longitude="12.485232" nbComments="0" rank="107" tags="italy roadtrip2007 03082007 rome summer" title="P8047246" url_b="http://static.flickr.com/1129/1268198969_d0ae96e726_b.jpg" username="taver" views="14" />
<photo  date_taken="2007-08-03 15:15:08" description="Temple of Saturn, Roman forum, Roma." id="1268201375" latitude="41.892442" license="6" longitude="12.485232" nbComments="0" rank="108" tags="italy roadtrip2007 03082007 rome summer" title="P8047272" url_b="http://static.flickr.com/1335/1268201375_845c002fc3_b.jpg" username="taver" views="20" />
<photo  date_taken="2007-08-03 15:07:55" description="In front of the Temple of Vesta, Roman forum, Roma." id="1268796334" latitude="41.892442" license="6" longitude="12.485232" nbComments="0" rank="109" tags="italy roadtrip2007 03082007 rome summer theofilos" title="P8047244" url_b="http://static.flickr.com/1361/1268796334_f8c08619bd_b.jpg" username="taver" views="15" />
<photo  date_taken="2007-08-03 15:11:45" description="Temple of Vespasian and Titus and the Temple of Saturn in the Roman Forum, Roma." id="1267951371" latitude="41.892442" license="6" longitude="12.485232" nbComments="0" rank="110" tags="italy roadtrip2007 03082007 rome summer" title="P8047259" url_b="http://static.flickr.com/1011/1267951371_3ac6815213_b.jpg" username="taver" views="31" />
<photo  date_taken="2007-08-03 15:02:35" description="View of the Roman forum, Roma." id="1268793454" latitude="41.892442" license="6" longitude="12.485232" nbComments="0" rank="111" tags="italy roadtrip2007 03082007 rome summer" title="P8047236" url_b="http://static.flickr.com/1411/1268793454_69ec02ea55_b.jpg" username="taver" views="20" />
<photo  date_taken="2007-08-03 15:25:49" description="Part of the Arch of Septimius Severus, the Temple of Castor and Pollux, and the Basilica Julia in the Roman Forum, Roma." id="1267961849" latitude="41.892442" license="6" longitude="12.485232" nbComments="0" rank="112" tags="italy roadtrip2007 03082007 rome summer" title="P8047279" url_b="http://static.flickr.com/1429/1267961849_98400ee65c_b.jpg" username="taver" views="36" />
<photo  date_taken="2007-08-03 14:52:00" description="View of the Roman forum, Roma." id="1268782462" latitude="41.892442" license="6" longitude="12.485232" nbComments="0" rank="113" tags="italy roadtrip2007 03082007 rome summer" title="P8047220" url_b="http://static.flickr.com/1355/1268782462_1c133c7747_b.jpg" username="taver" views="16" />
<photo  date_taken="2007-08-03 15:10:01" description="View of the Roman forum, Roma." id="1267940095" latitude="41.892442" license="6" longitude="12.485232" nbComments="0" rank="114" tags="italy roadtrip2007 03082007 rome summer" title="P8047252" url_b="http://static.flickr.com/1081/1267940095_21390f9c7f_b.jpg" username="taver" views="19" />
<photo  date_taken="2007-08-03 14:54:21" description="Temple of Vesta, Roman Forum, Roma." id="1268787954" latitude="41.892442" license="6" longitude="12.485232" nbComments="0" rank="115" tags="italy roadtrip2007 03082007 rome summer" title="P8047228" url_b="http://static.flickr.com/1354/1268787954_5169598638_b.jpg" username="taver" views="40" />
<photo  date_taken="2007-08-03 15:01:38" description="Temple of Vesta, Roman forum, Roma." id="1268790672" latitude="41.892442" license="6" longitude="12.485232" nbComments="0" rank="116" tags="italy roadtrip2007 03082007 rome summer" title="P8047233" url_b="http://static.flickr.com/1260/1268790672_bbd58db302_b.jpg" username="taver" views="19" />
<photo  date_taken="2008-03-09 10:58:17" description="" id="2367179326" latitude="41.892169" license="1" longitude="12.486066" nbComments="0" rank="117" tags="italy rome autostitch" title="Roman Forum - Temple of Antoninus Pius and Faustina" url_b="http://static.flickr.com/3110/2367179326_701508bb8f_b.jpg" username="Kwong Yee Cheng" views="17" />
<photo  date_taken="2008-07-10 14:21:43" description="A 1930s reconstruction of the Temple of Vesta, Not so eternal now, are you, flame? Eh? Eh?" id="2746805257" latitude="41.891987" license="1" longitude="12.485855" nbComments="0" rank="118" tags="rome italy templeofvesta romanforum" title="Temple of Vesta" url_b="http://static.flickr.com/3050/2746805257_4e02dda50d_b.jpg" username="Mushkush" views="87" />
<photo  date_taken="2009-01-14 17:31:03" description="View of the Roman Forum from the Capitoline Museums. &lt;a href=&quot;http://en.wikipedia.org/wiki/Capitoline_Museums&quot;&gt;en.wikipedia.org/wiki/Capitoline_Museums&lt;/a&gt; &lt;a href=&quot;http://en.wikipedia.org/wiki/Roman_forum&quot;&gt;en.wikipedia.org/wiki/Roman_forum&lt;/a&gt;" id="3211762633" latitude="41.892094" license="5" longitude="12.485349" nbComments="0" rank="119" tags="rome roma italy italia capitolinemuseums capitolene museacapitolina museum forum romanforum night dark" title="Night Scene" url_b="http://static.flickr.com/3314/3211762633_02eb58237e_b.jpg" username="Hello, I am Bruce" views="60" />
<photo  date_taken="2012-11-23 05:12:25" description="" id="8362497097" latitude="41.892206" license="2" longitude="12.485243" nbComments="0" rank="120" tags="rome eurotrip italy roman forum romanforum ruins archaeology basilica aemilia basilicaaemilia columns writing latin" title="Basilica Aemilia" url_b="http://static.flickr.com/8049/8362497097_31d315d351_b.jpg" username="Scott SM" views="6" />
<photo  date_taken="2005-05-16 05:07:05" description="Arch of Septimus Severus in the foreground and the Tabularium in the back with the remains of the Temple of Vespasian" id="4694792922" latitude="41.892662" license="1" longitude="12.485253" nbComments="0" rank="121" tags="italy rome trips tabularium archofseptimiusseverus romanforum mamertineprison templeofsaturn tgamphotodeskarchitecture" title="Roman Forum, Rome, Italy" url_b="http://static.flickr.com/4038/4694792922_61d6dab288_b.jpg" username="Badger416" views="40" />
<photo  date_taken="2011-06-05 17:27:49" description="Roman Forum" id="5868526801" latitude="41.891913" license="1" longitude="12.485544" nbComments="0" rank="122" tags="rome" title="Foro Romano フォロ・ロマーノ" url_b="http://static.flickr.com/5024/5868526801_069d15b266_b.jpg" username="nekotank" views="5" />
<photo  date_taken="2005-05-16 05:10:56" description="" id="4694792342" latitude="41.891943" license="1" longitude="12.485908" nbComments="0" rank="123" tags="italy rome trips romanforum templeofcastorandpollux" title="Temple of Castor and Pollux" url_b="http://static.flickr.com/4023/4694792342_735f111b15_b.jpg" username="Badger416" views="33" />
<photo  date_taken="2012-11-19 18:45:14" description="" id="8310043248" latitude="41.8925" license="1" longitude="12.485153" nbComments="0" rank="124" tags="sigma1770mmf2845dcmacro" title="Roman Forum" url_b="http://static.flickr.com/8071/8310043248_4307bdc778_b.jpg" username="francis.norman" views="2" />
<photo  date_taken="2012-11-19 18:52:07" description="" id="8310057702" latitude="41.8925" license="1" longitude="12.485153" nbComments="0" rank="125" tags="sigma1770mmf2845dcmacro" title="Roman Forum" url_b="http://static.flickr.com/8083/8310057702_07941c5de1_b.jpg" username="francis.norman" views="2" />
<photo  date_taken="2012-11-19 19:02:48" description="" id="8310069992" latitude="41.8925" license="1" longitude="12.485153" nbComments="0" rank="126" tags="sigma1770mmf2845dcmacro" title="Roman Forum" url_b="http://static.flickr.com/8493/8310069992_cbfc090f53_b.jpg" username="francis.norman" views="2" />
<photo  date_taken="2009-10-05 17:16:27" description="" id="4754698954" latitude="41.891983" license="1" longitude="12.486004" nbComments="2" rank="127" tags="erroma foroa foro romano roman forum roma rome italia italy" title="Forum Romanum" url_b="http://static.flickr.com/4139/4754698954_660683d652_b.jpg" username="AMGPG" views="13" />
<photo  date_taken="2008-10-25 15:44:22" description="Much of the Forum lays in ruins. Will and I followed along with our walk (both audio and in the guidebook - thanks Rick Steves!) and tried to imagine how it was during the height of the Roman Empire." id="3007700662" latitude="41.892216" license="1" longitude="12.485167" nbComments="0" rank="128" tags="rome italy" title="The Forum" url_b="http://static.flickr.com/3224/3007700662_2e94773ea0_b.jpg" username="wfbakker2" views="28" />
<photo  date_taken="2008-02-27 11:10:54" description="This lovely little room is in a grotto on the stairway from the Palantine Hill to the Roman forum. We loved it." id="2314872130" latitude="41.891863" license="2" longitude="12.485736" nbComments="1" rank="129" tags="grotto rome forum" title="Ancient statue in a Grotto above the Roman Forum" url_b="http://static.flickr.com/2054/2314872130_8b1f650cbb_b.jpg" username="Mat Booth" views="77" />
<photo  date_taken="2011-06-05 17:13:00" description="Roman Forum" id="5869084762" latitude="41.892872" license="1" longitude="12.485366" nbComments="0" rank="130" tags="rome" title="Foro Romano フォロ・ロマーノ" url_b="http://static.flickr.com/3224/5869084762_7c83596d61_b.jpg" username="nekotank" views="5" />
<photo  date_taken="2011-06-05 17:11:08" description="Roman Forum" id="5869084140" latitude="41.892872" license="1" longitude="12.485366" nbComments="0" rank="131" tags="rome" title="Foro Romano フォロ・ロマーノ" url_b="http://static.flickr.com/3006/5869084140_1862c2dab5_b.jpg" username="nekotank" views="8" />
<photo  date_taken="2011-06-29 17:23:44" description="Torso from a cuirassed statue of Nero. Marble. Neronian period. From the area of the Roman theater (Piazze dei Celestini), Bologna. Bologna, Museo Civico Archeologico. On display at the Curia for the &lt;a href=&quot;http://archeoroma.beniculturali.it/en/exhibition/nero&quot; rel=&quot;nofollow&quot;&gt;Nero exhibition&lt;/a&gt; in Rome." id="7769103476" latitude="41.892911" license="1" longitude="12.485416" nbComments="0" rank="132" tags="ancient antico curia exhibit exhibition forumromanum mostra nero nerone roma roman romano rome pleiades:findspot=393421 sculpture statue carving scultura statua marble marmo stone pietra loricatus loricato cuirass corazza lorica armor musculata nereid nereide hippocamp ippocampo relief pteruges bologna bononia theater teatro neroniano imperial imperiale 1stcce 50sce 60sce" title="Nero loricatus (detail)" url_b="http://static.flickr.com/8444/7769103476_908fa31028_b.jpg" username="diffendale" views="74" />
<photo  date_taken="2011-06-29 17:22:12" description="Marble. From the forum of Roselle, Claudian period. Grosseto, Museo Archeologico e d'Arte della Maremma On display at the Curia for the &lt;a href=&quot;http://archeoroma.beniculturali.it/en/exhibition/nero&quot; rel=&quot;nofollow&quot;&gt;Nero exhibition&lt;/a&gt; in Rome." id="7769100694" latitude="41.892911" license="1" longitude="12.485416" nbComments="0" rank="133" tags="ancient antico curia exhibit exhibition forumromanum mostra nero nerone roma roman romano rome pleiades:findspot=413288 sculpture statue carving scultura statua marble marmo stone pietra claudiaoctavia principessa togato toga togate roselle rusellae forum foro claudian claudio grosseto tuscany etruria portrait ritratto 40sce 50sce 1stcce" title="Togate statue with portrait of a princess (Claudia Octavia?)" url_b="http://static.flickr.com/8290/7769100694_4ff9a2833d_b.jpg" username="diffendale" views="59" />
<photo  date_taken="2011-06-29 17:22:31" description="Marble. From the forum of Roselle, Claudian period (41-54 CE). Grosseto, Museo Archeologico e d'Arte della Maremma On display at the Curia for the &lt;a href=&quot;http://archeoroma.beniculturali.it/en/exhibition/nero&quot; rel=&quot;nofollow&quot;&gt;Nero exhibition&lt;/a&gt; in Rome." id="7769101304" latitude="41.892911" license="1" longitude="12.485416" nbComments="0" rank="134" tags="ancient antico curia exhibit exhibition forumromanum mostra nero nerone roma roman romano rome pleiades:findspot=413288 sculpture statue carving scultura statua marble marmo stone pietra claudiaoctavia principessa togato toga togate roselle rusellae forum foro claudian claudio grosseto tuscany etruria portrait ritratto 40sce 50sce 1stcce" title="Togate statue with portrait of a princess (Claudia Octavia?)" url_b="http://static.flickr.com/8438/7769101304_dba065e473_b.jpg" username="diffendale" views="78" />
<photo  date_taken="2011-06-29 17:23:50" description="Torso from a cuirassed statue of Nero. Marble. Neronian period. From the area of the Roman theater (Piazze dei Celestini), Bologna. Bologna, Museo Civico Archeologico. On display at the Curia for the &lt;a href=&quot;http://archeoroma.beniculturali.it/en/exhibition/nero&quot; rel=&quot;nofollow&quot;&gt;Nero exhibition&lt;/a&gt; in Rome." id="7769104082" latitude="41.892911" license="1" longitude="12.485416" nbComments="0" rank="135" tags="ancient antico curia exhibit exhibition forumromanum mostra nero nerone roma roman romano rome pleiades:findspot=393421 sculpture statue carving scultura statua marble marmo stone pietra loricatus loricato cuirass corazza lorica armor musculata nereid nereide hippocamp ippocampo relief pteruges bologna bononia theater teatro neroniano imperial imperiale 1stcce 50sce 60sce gorgoneion gorgon gorgone medusa" title="Nero loricatus (detail)" url_b="http://static.flickr.com/8291/7769104082_a70aac25df_b.jpg" username="diffendale" views="146" />
<photo  date_taken="2011-06-29 17:22:36" description="Perhaps recut from a statue of Messalina. Marble. From Herculaneum, 41-59 CE. Naples, Museo Archeologico Nazionale On display at the Curia for the &lt;a href=&quot;http://archeoroma.beniculturali.it/en/exhibition/nero&quot; rel=&quot;nofollow&quot;&gt;Nero exhibition&lt;/a&gt; in Rome." id="7769100112" latitude="41.892911" license="1" longitude="12.485416" nbComments="0" rank="136" tags="ancient antico curia exhibit exhibition forumromanum mostra nero nerone roma roman romano rome pleiades:findspot=432873 sculpture statue carving scultura statua marble marmo stone pietra agrippinaminor messalina herculaneum ercolano naples napoli 40sce 50sce 1stcce" title="Statue of Agrippina Minor" url_b="http://static.flickr.com/8447/7769100112_6d3f538a5a_b.jpg" username="diffendale" views="91" />
<photo  date_taken="2011-06-29 17:23:38" description="Torso from a cuirassed statue of Nero. Marble. Neronian period (54-68 CE). From the area of the Roman theater (Piazze dei Celestini), Bologna. Bologna, Museo Civico Archeologico. On display at the Curia for the &lt;a href=&quot;http://archeoroma.beniculturali.it/en/exhibition/nero&quot; rel=&quot;nofollow&quot;&gt;Nero exhibition&lt;/a&gt; in Rome." id="7769102800" latitude="41.892911" license="1" longitude="12.485416" nbComments="0" rank="137" tags="ancient antico curia exhibit exhibition forumromanum mostra nero nerone roma roman romano rome pleiades:findspot=393421 sculpture statue carving scultura statua marble marmo stone pietra loricatus loricato cuirass corazza lorica armor musculata nereid nereide hippocamp ippocampo relief pteruges bologna bononia theater teatro neroniano imperial imperiale gorgoneion gorgon gorgone medusa 1stcce 50sce 60sce" title="Nero loricatus" url_b="http://static.flickr.com/8295/7769102800_61d2296b51_b.jpg" username="diffendale" views="130" />
<photo  date_taken="2011-06-29 17:22:05" description="Perhaps recut from a statue of Messalina. Marble. From Herculaneum, 41-59 CE. Naples, Museo Archeologico Nazionale On display at the Curia for the &lt;a href=&quot;http://archeoroma.beniculturali.it/en/exhibition/nero&quot; rel=&quot;nofollow&quot;&gt;Nero exhibition&lt;/a&gt; in Rome." id="7769099564" latitude="41.892911" license="1" longitude="12.485416" nbComments="0" rank="138" tags="ancient antico curia exhibit exhibition forumromanum mostra nero nerone roma roman romano rome pleiades:findspot=432873 sculpture statue carving scultura statua marble marmo stone pietra agrippinaminor messalina herculaneum ercolano naples napoli 40sce 50sce 1stcce" title="Statue of Agrippina Minor" url_b="http://static.flickr.com/8285/7769099564_1baba518c3_b.jpg" username="diffendale" views="82" />
<photo  date_taken="2011-06-29 17:23:07" description="Bust of Luna marble, Herm of Africano marble. Neronian period (54-68 CE). From the &lt;i&gt;sacellum Herculis&lt;/i&gt; on the Viale Trastevere, Rome (1889). Rome, Museo Nazionale Romano, Palazzo Massimo alle Terme. On display at the Curia for the &lt;a href=&quot;http://archeoroma.beniculturali.it/en/exhibition/nero&quot; rel=&quot;nofollow&quot;&gt;Nero exhibition&lt;/a&gt; in Rome." id="7769102110" latitude="41.892911" license="1" longitude="12.485416" nbComments="0" rank="139" tags="ancient antico curia exhibit exhibition forumromanum mostra nero nerone roma roman romano rome pleiades:findspot=423025 sculpture statue carving scultura statua marble marmo stone pietra herm erme bust busto luna carrara africano neroniano auriga sacellumherculis sacello ercole hercules herakles 1stcce 50sce 60sce" title="Herm of a Charioteer" url_b="http://static.flickr.com/8305/7769102110_c0dc6f0000_b.jpg" username="diffendale" views="65" />
<photo  date_taken="2007-05-09 17:03:07" description="Rome, Italy." id="503293902" latitude="41.892206" license="1" longitude="12.486214" nbComments="0" rank="140" tags="rome italy ruins forum roman" title="Forum Romanum" url_b="http://static.flickr.com/191/503293902_bf61a72304_b.jpg" username="Josh Clark" views="75" />
<photo  date_taken="2012-05-24 09:36:17" description="A panel of carvings in the Curia Julia. These are the Plutei Traiani, a set of carved stone balustrades built by Trajan. They are on display inside the Curia Julia on the Forum Romanum today, but are not part of the original structure. More about this can be found at &lt;a href=&quot;http://en.wikipedia.org/wiki/Plutei_of_Trajan&quot; rel=&quot;nofollow&quot;&gt;en.wikipedia.org/wiki/Plutei_of_Trajan&lt;/a&gt; For more about the Curia Julia (the Roman Senate House) have a look at &lt;a href=&quot;http://en.wikipedia.org/wiki/Curia_Julia&quot; rel=&quot;nofollow&quot;&gt;en.wikipedia.org/wiki/Curia_Julia&lt;/a&gt;" id="7170808003" latitude="41.892886" license="1" longitude="12.48535" nbComments="0" rank="141" tags="andantetravels curiajulia italy makingoftheromans pluteitraiani rome antiquity ruins lazio" title="Curia Carvings" url_b="http://static.flickr.com/7084/7170808003_f0a55e74e7_b.jpg" username="Bushtick" views="37" />
<photo  date_taken="2012-09-09 09:05:29" description="Je suis à Rome. Je vais visiter le forum. C'est obligé." id="8012663565" latitude="41.891927" license="5" longitude="12.486015" nbComments="0" rank="142" tags="rome roma forum forumromain romanforum forumromanum temple castoretpollux castorandpollux" title="Castor et Pollux" url_b="http://static.flickr.com/8304/8012663565_d5630c7ffc_b.jpg" username="Groume" views="8" />
<photo  date_taken="2008-05-12 18:14:22" description="Map it: &lt;a href=&quot;http://www.robogeo.com/Flickr2Map/&quot;&gt;Google Earth&lt;/a&gt; | &lt;a href=&quot;http://www.robogeo.com/Flickr2Map/?type=map&quot; target=&quot;_blank&quot;&gt;Street&lt;/a&gt; | &lt;a href=&quot;http://www.robogeo.com/Flickr2Map/?type=map&amp;amp;view=satellite&quot; target=&quot;_blank&quot;&gt;Satellite&lt;/a&gt; | &lt;a href=&quot;http://www.robogeo.com/Flickr2Map/?type=map&amp;amp;view=hybrid&quot; target=&quot;_blank&quot;&gt;Hybrid&lt;/a&gt; | &lt;a href=&quot;http://www.robogeo.com/Flickr2Map/?type=nautical&quot; target=&quot;_blank&quot;&gt;Nautical&lt;/a&gt;" id="2699909101" latitude="41.892801" license="1" longitude="12.485234" nbComments="0" rank="143" tags="geotagged geo:lat=418928012140592 geo:lon=12485234569903 romanforum italy 10may2008 12may2008" title="Roman Forum" url_b="http://static.flickr.com/3244/2699909101_e59a437639_b.jpg" username="gorbulas_sandybanks" views="11" />
<photo  date_taken="2007-09-16 23:43:41" description="Rome, Italy" id="1723558898" latitude="41.891919" license="3" longitude="12.486015" nbComments="0" rank="144" tags="italy honeymoon panorama rome" title="Roman Forum" url_b="http://static.flickr.com/2410/1723558898_0e49907f9a_b.jpg" username="armstrks" views="14" />
<photo  date_taken="2009-12-29 14:06:59" description="Temple of Castor" id="4226255906" latitude="41.891878" license="5" longitude="12.485946" nbComments="0" rank="145" tags="rome slide 2002" title="Roman Forum" url_b="http://static.flickr.com/2617/4226255906_7c78d6f541_b.jpg" username="gregw66" views="90" />
<photo  date_taken="2006-05-30 11:15:58" description="Arch of Septimius Severus on the right and Musei Captionlini in the background." id="160031312" latitude="41.891863" license="3" longitude="12.485409" nbComments="0" rank="146" tags="italy ef28135is rome vacation 10d" title="Northwest of Roman Forum" url_b="http://static.flickr.com/57/160031312_7dea5ad282_b.jpg" username="alexhung" views="20" />
<photo  date_taken="2007-05-09 17:05:34" description="The three columns are what remains of the temple of Castor and Pollux in the roman forum. The temple was originally built in gratitude for victory at the battle of Lake Regillus (495 BC). Castor and Pollux (Greek Polydeuces) were the Dioscuri, the &amp;quot;twins&amp;quot; of Gemini, the twin sons of Zeus (Jupiter) and Leda. Their cult came to Rome from Greece via Magna Graecia and the Greek culture of Southern Italy." id="503282904" latitude="41.891879" license="1" longitude="12.48601" nbComments="0" rank="147" tags="rome italy ruins forum roman columns temple castor pollux" title="Temple of Castor and Pollux" url_b="http://static.flickr.com/198/503282904_a3f9717a86_b.jpg" username="Josh Clark" views="100" />
<photo  date_taken="2007-05-09 17:07:05" description="In the background: The arch of Septimius Severus, a triumphal arch erected in AD 205 to commemorate the Parthian victories of Emperor Septimius Severus and his two sons, Caracalla and Geta, in the two campaigns against the Parthians of 195 and 203." id="503326207" latitude="41.891879" license="1" longitude="12.48601" nbComments="0" rank="148" tags="rome italy ruins forum roman columns arch" title="Roman forum" url_b="http://static.flickr.com/201/503326207_e7b86eaaed_b.jpg" username="Josh Clark" views="80" />
<photo  date_taken="2008-05-12 18:06:51" description="Map it: &lt;a href=&quot;http://www.robogeo.com/Flickr2Map/&quot;&gt;Google Earth&lt;/a&gt; | &lt;a href=&quot;http://www.robogeo.com/Flickr2Map/?type=map&quot; target=&quot;_blank&quot;&gt;Street&lt;/a&gt; | &lt;a href=&quot;http://www.robogeo.com/Flickr2Map/?type=map&amp;amp;view=satellite&quot; target=&quot;_blank&quot;&gt;Satellite&lt;/a&gt; | &lt;a href=&quot;http://www.robogeo.com/Flickr2Map/?type=map&amp;amp;view=hybrid&quot; target=&quot;_blank&quot;&gt;Hybrid&lt;/a&gt; | &lt;a href=&quot;http://www.robogeo.com/Flickr2Map/?type=nautical&quot; target=&quot;_blank&quot;&gt;Nautical&lt;/a&gt;" id="2699907377" latitude="41.891934" license="1" longitude="12.486087" nbComments="0" rank="149" tags="geotagged geo:lat=418919343566563 geo:lon=124860877923564 romanforum italy 10may2008 12may2008" title="Temple of Vesta (Roman Forum)" url_b="http://static.flickr.com/3123/2699907377_da2158fdfd_b.jpg" username="gorbulas_sandybanks" views="65" />
<photo  date_taken="2008-05-12 18:07:24" description="Map it: &lt;a href=&quot;http://www.robogeo.com/Flickr2Map/&quot;&gt;Google Earth&lt;/a&gt; | &lt;a href=&quot;http://www.robogeo.com/Flickr2Map/?type=map&quot; target=&quot;_blank&quot;&gt;Street&lt;/a&gt; | &lt;a href=&quot;http://www.robogeo.com/Flickr2Map/?type=map&amp;amp;view=satellite&quot; target=&quot;_blank&quot;&gt;Satellite&lt;/a&gt; | &lt;a href=&quot;http://www.robogeo.com/Flickr2Map/?type=map&amp;amp;view=hybrid&quot; target=&quot;_blank&quot;&gt;Hybrid&lt;/a&gt; | &lt;a href=&quot;http://www.robogeo.com/Flickr2Map/?type=nautical&quot; target=&quot;_blank&quot;&gt;Nautical&lt;/a&gt;" id="2699907639" latitude="41.891934" license="1" longitude="12.486087" nbComments="0" rank="150" tags="geotagged geo:lat=418919343566563 geo:lon=124860877923564 romanforum italy 10may2008 12may2008" title="Roman Forum" url_b="http://static.flickr.com/3182/2699907639_b69de9a205_b.jpg" username="gorbulas_sandybanks" views="9" />
</photos>
