<?xml version="1.0" encoding="UTF-8" standalone="no"?>
<photos monument="Schonbrunn Palace">

<photo  date_taken="2011-08-01 00:00:00" description="--Great Parterre-- A summer day view of the Great Parterre... The sculptered garden space between the palace and the Sun Fountain is called the Great Parterre. The French garden, a big part of the area, was planned by Jean Trehet in 1695. It contains, among other things, a maze. Lining the Great Parterre are 32 sculptures, which represent deities and virtues. The garden axis points towards a 60 meters higher hill, which since 1775 has been crowned by the Gloriette structure (Fischer von Erlach had initially planned to erect the main palace on the top of this hill)." id="8358009705" latitude="48.184601" license="2" longitude="16.311521" nbComments="2" rank="1" tags="greatparterre design garden magnificent axis symmetry orthogonal diagonal sand passafeways schlossschonbrunn schonbrunnpalace hietzing vienna viena wien osterreich austria europa europe palace impressive baroque symbol power influence habsburg history palacio gesamtkunstwerk art imperial capital summer residence building monument landmark unesco empire austrohungarianempire architecture photography nikon nikond3100 1683 1880 sissi franciscojosei gloriette franzjosef kaiser jeantrehet 1695 fountain hill fischervonerlach millionseven" title="Schloss Schönbrunn - Hietzing -Vienna- (3)" url_b="http://static.flickr.com/8047/8358009705_1d7bc7271c_b.jpg" username="Million Seven" views="61" />
<photo  date_taken="2009-05-05 10:40:00" description="" id="3831777606" latitude="48.184644" license="3" longitude="16.312213" nbComments="1" rank="2" tags="18105mmf3556gvr austria d90 europe gloriette nikkor nikon nikond90 oesterreich osterreich palace schloss schlossschönbrunn schoenbrunn schoenbrunnpalace schonbrunn schonbrunnpalace schönbrunn schönbrunnpalace travel vienna wien österreich" title="" url_b="http://static.flickr.com/2561/3831777606_22678f0f77_b.jpg" username="wenzday01" views="32" />
<photo  date_taken="2009-05-05 10:45:58" description="" id="3956612121" latitude="48.184644" license="3" longitude="16.312213" nbComments="1" rank="3" tags="18105mmf3556gvr austria d90 details europe nikkor nikon nikond90 oesterreich osterreich palace schloss schlossschönbrunn schoenbrunn schoenbrunnpalace schonbrunn schonbrunnpalace schönbrunn schönbrunnpalace travel vienna wien österreich" title="" url_b="http://static.flickr.com/2592/3956612121_a15991b5a0_b.jpg" username="wenzday01" views="44" />
<photo  date_taken="2009-05-05 10:48:57" description="" id="4083985336" latitude="48.184644" license="3" longitude="16.312213" nbComments="1" rank="4" tags="18105mmf3556gvr austria d90 europe nikkor nikon nikond90 oesterreich osterreich palace schloss schlossschönbrunn schoenbrunn schoenbrunnpalace schonbrunn schonbrunnpalace schönbrunn schönbrunnpalace travel vienna wien österreich" title="The Schönbrunn Palace" url_b="http://static.flickr.com/2765/4083985336_234bbe3b7b_b.jpg" username="wenzday01" views="183" />
<photo  date_taken="2007-10-16 13:19:26" description="" id="1784987974" latitude="48.184837" license="3" longitude="16.312261" nbComments="0" rank="5" tags="vienna wien austria eu europe vacation österreich oesterreich schönbrunn palace schonbrunn" title="Schönbrunn Palace" url_b="http://static.flickr.com/2270/1784987974_1a7228d016_b.jpg" username="khoogheem" views="19" />
<photo  date_taken="2007-10-16 12:46:25" description="" id="1784801441" latitude="48.18478" license="3" longitude="16.31231" nbComments="0" rank="6" tags="vienna wien austria eu europe vacation österreich oesterreich nophotos schönbrunn palace schonbrunn" title="Schönbrunn Palace" url_b="http://static.flickr.com/2132/1784801441_9c95d17fe0_b.jpg" username="khoogheem" views="96" />
<photo  date_taken="2007-10-16 13:19:56" description="" id="1784158235" latitude="48.18375" license="3" longitude="16.312535" nbComments="0" rank="7" tags="vienna wien austria eu europe vacation österreich oesterreich schönbrunn palace schonbrunn statue angerona" title="Angerona" url_b="http://static.flickr.com/2193/1784158235_bd841b31fe_b.jpg" username="khoogheem" views="217" />
<photo  date_taken="2007-10-16 13:20:50" description="" id="1784221691" latitude="48.183356" license="3" longitude="16.312363" nbComments="0" rank="8" tags="vienna wien austria eu europe vacation österreich oesterreich schönbrunn palace schonbrunn statue" title="Aspasia, Greek Philosopher" url_b="http://static.flickr.com/2416/1784221691_13b8a7e2a3_b.jpg" username="khoogheem" views="55" />
<photo  date_taken="2007-10-16 14:13:41" description="" id="1784319003" latitude="48.183149" license="3" longitude="16.312256" nbComments="0" rank="9" tags="vienna wien austria eu europe vacation österreich oesterreich omphale schönbrunn palace schonbrunn statue" title="Omphale" url_b="http://static.flickr.com/2104/1784319003_844573a5f2_b.jpg" username="khoogheem" views="65" />
<photo  date_taken="2009-05-05 11:39:01" description="" id="4073018025" latitude="48.185713" license="3" longitude="16.310915" nbComments="1" rank="10" tags="18105mmf3556gvr austria d90 europe garden nikkor nikon nikond90 oesterreich osterreich palace schloss schlossschönbrunn schoenbrunn schoenbrunnpalace schonbrunn schonbrunnpalace schönbrunn schönbrunnpalace travel vienna walkway wien österreich" title="Garden Path" url_b="http://static.flickr.com/3484/4073018025_f296208270_b.jpg" username="wenzday01" views="71" />
<photo  date_taken="2007-10-16 12:21:14" description="" id="1784046109" latitude="48.185996" license="3" longitude="16.312267" nbComments="0" rank="11" tags="vienna wien austria eu europe vacation österreich oesterreich schönbrunn palace schonbrunn fountain" title="Schönbrunn Palace" url_b="http://static.flickr.com/2147/1784046109_298a838cc1_b.jpg" username="khoogheem" views="62" />
<photo  date_taken="2007-10-16 14:14:48" description="" id="1784354989" latitude="48.182648" license="3" longitude="16.311934" nbComments="0" rank="12" tags="vienna wien austria eu europe vacation österreich oesterreich bacchante schönbrunn palace schonbrunn statue" title="Bacchante" url_b="http://static.flickr.com/2360/1784354989_c0b4e8fbfe_b.jpg" username="khoogheem" views="39" />
<photo  date_taken="2007-10-16 12:21:01" description="Maybe it is a language barrier?" id="1784876744" latitude="48.185749" license="3" longitude="16.313318" nbComments="0" rank="13" tags="vienna wien austria eu europe vacation österreich oesterreich schönbrunn palace schonbrunn sign" title="Schönbrunn Palace" url_b="http://static.flickr.com/2291/1784876744_8091dcefbe_b.jpg" username="khoogheem" views="10" />
<photo  date_taken="2008-10-30 11:32:02" description="I thought to 2 different titles (and songs) for this picture, but couldn't decide between them... So I mixed them up. J'ai pensé à deux titres (et deux morceaux) différents pour cette photo, prise à Schonbrunn (Vienne). Mais je ne pouvais trancher entre les deux. D'où ce titre un peu obscur... Polythene Pam : a song by the Beatles from Abbey Road album (a favorite of mine) : &lt;a href=&quot;http://www.youtube.com/watch?v=Cg6ZskHcPfE&quot;&gt;www.youtube.com/watch?v=Cg6ZskHcPfE&lt;/a&gt; The Girl with the Sun In Her Hair : a theme by John Barry (created for a Shampoo commercial ?) : &lt;a href=&quot;http://www.youtube.com/watch?v=ykWEEFE9b_w&quot;&gt;www.youtube.com/watch?v=ykWEEFE9b_w&lt;/a&gt; I think they match together... &lt;a href=&quot;http://bighugelabs.com/flickr/onblack.php?id=3521059237&quot;&gt;View On Black&lt;/a&gt;" id="3521059237" latitude="48.186207" license="3" longitude="16.312808" nbComments="34" rank="14" tags="austria vienna wien vienne schonbrunn schloss castle palace palais chateau tourist girl woman camera sky gold hair shadow sun polythene bizarre strange song music barry beatles illustration panasonic lumix dmctz4 people architecture light autumn visit city art culture europe" title="Polythene Pam, the Girl with the Sun in Her Hair" url_b="http://static.flickr.com/3656/3521059237_c6f8f283ca_b.jpg" username="Gilderic Photography" views="501" />
<photo  date_taken="2011-08-01 00:00:00" description="--The Complex-- -The site of the Palace and Gardens of Schönbrunn is outstanding as one of the most impressive and well preserved Baroque ensembles of its kind in Europe. Additionally, it is a potent material symbol of the power and influence of the House of Habsburg over a long period of European history, from the end of the 17th to the early 20th century. It is impossible to separate the gardens from the palace, of which they form an organic extension: this is an excellent example of the concept of Gesamtkunstwerk, a masterly fusion of many art forms. A small hunting lodge and later summer residence of the Habsburg family was rebuilt after total destruction during the last Turkish attack in 1683. During construction work the project was expanded into an Imperial summer residence of the court. As such it represents the ascent and the splendour of the Habsburg Empire. At the peak of Habsburg power at the beginning of the 18th century, when imperial Vienna following the Turkish reflected its regained significance in spectacular examples of newly developing Baroque art, Schönbrunn was one of the most important building projects of the capital and residency. The ample Baroque gardens with their buildings (Gloriette, Roman ruins etc.) and statuary testify to the palace's imperial dimensions and functions. The original intention, when they were laid out in the 18th century, was to combine the glorification of the House of Habsburg with a homage to nature. The Orangery on the east side of the main palace building is, at 186 m, the longest in the world. The Great Palm House is an impressive iron-framed structure, 114 m long and divided into three Sections, erected in 1880 using technology developed in England." id="8311583070" latitude="48.186146" license="2" longitude="16.31298" nbComments="2" rank="15" tags="schlossschonbrunn schonbrunnpalace hietzing vienna viena wien osterreich austria europa europe palace impressive baroque symbol power influence habsburg history palacio gesamtkunstwerk art imperial capital summer residence building monument landmark unesco empire austrohungarianempire architecture photography nikon nikond3100 1683 1880 sissi franciscojosei franzjosef kaiser millionseven" title="Schloss Schönbrunn - Hietzing -Vienna-" url_b="http://static.flickr.com/8213/8311583070_6c85bfa338_b.jpg" username="Million Seven" views="78" />
<photo  date_taken="2007-10-16 14:16:24" description="" id="1785264502" latitude="48.18224" license="3" longitude="16.31172" nbComments="0" rank="16" tags="vienna wien austria eu europe vacation österreich oesterreich vestal virgin schönbrunn palace schonbrunn statue" title="Vestal Virgin" url_b="http://static.flickr.com/2220/1785264502_16001a35d5_b.jpg" username="khoogheem" views="38" />
<photo  date_taken="2007-10-16 14:16:04" description="" id="1784397559" latitude="48.18224" license="3" longitude="16.31172" nbComments="0" rank="17" tags="vienna wien austria eu europe vacation österreich oesterreich hygieia schönbrunn palace schonbrunn statue" title="Hygieia godness of health" url_b="http://static.flickr.com/2150/1784397559_18b8ff1e34_b.jpg" username="khoogheem" views="71" />
<photo  date_taken="2007-10-16 14:17:01" description="" id="1784439139" latitude="48.181926" license="3" longitude="16.311569" nbComments="0" rank="18" tags="vienna wien austria eu europe vacation österreich oesterreich paris schönbrunn palace schonbrunn statue" title="Paris" url_b="http://static.flickr.com/2214/1784439139_0cf4c6f65e_b.jpg" username="khoogheem" views="30" />
<photo  date_taken="2007-10-16 14:17:26" description="" id="1785303870" latitude="48.181621" license="3" longitude="16.311473" nbComments="0" rank="19" tags="vienna wien austria eu europe vacation österreich oesterreich hannibal schönbrunn palace schonbrunn statue" title="Hannibal" url_b="http://static.flickr.com/2300/1785303870_06491a16c7_b.jpg" username="khoogheem" views="41" />
<photo  date_taken="2007-10-16 12:16:01" description="" id="1783947945" latitude="48.18719" license="3" longitude="16.313436" nbComments="0" rank="20" tags="vienna wien austria eu europe vacation österreich oesterreich schönbrunn palace schonbrunn statue" title="Schönbrunn Palace" url_b="http://static.flickr.com/2062/1783947945_1cfca8c68d_b.jpg" username="khoogheem" views="58" />
<photo  date_taken="2009-09-26 13:17:27" description="At the Schönbrunn Palace" id="3993547133" latitude="48.181688" license="1" longitude="16.310355" nbComments="3" rank="21" tags="2009 viena schonbrunn" title="Magic Gate" url_b="http://static.flickr.com/2641/3993547133_e64efd77ea_b.jpg" username="ἀλέξ" views="35" />
<photo  date_taken="2011-08-01 00:00:00" description="-The beautiful gardens of Schonbrunn..." id="8386832912" latitude="48.182154" license="2" longitude="16.314268" nbComments="2" rank="22" tags="garten wilhelmbeyer dinasty habsburg mariatheresa johannferdinandhetzendorfvonhohenberg design garden magnificent symmetry sand passafeways schlossschonbrunn schonbrunnpalace hietzing vienna viena wien osterreich austria europa europe palace suit structure 19thcentury 18thcentury 1918 park gesamtkunstwerk furnishings spatial visual apartments authentic facades impressive baroque symbol power influence history palacio art imperial capital summer monument landmark unesco empire austrohungarianempire architecture photography nikon nikond3100 1683 sissi franciscojosei franzjosef kaiser jeantrehet 1695 fountain hill fischervonerlach millionseven" title="Schloss Schönbrunn - Hietzing -Vienna- (7)" url_b="http://static.flickr.com/8474/8386832912_51c3f5f56b_b.jpg" username="Million Seven" views="72" />
<photo  date_taken="2007-10-16 14:29:07" description="" id="1785498746" latitude="48.179447" license="3" longitude="16.309295" nbComments="0" rank="23" tags="vienna wien austria eu europe vacation österreich oesterreich schönbrunn palace schonbrunn" title="Schönbrunn Palace" url_b="http://static.flickr.com/2005/1785498746_528664388e_b.jpg" username="khoogheem" views="19" />
<photo  date_taken="2007-10-16 14:28:47" description="" id="1785468024" latitude="48.179447" license="3" longitude="16.309295" nbComments="0" rank="24" tags="vienna wien austria eu europe vacation österreich oesterreich schönbrunn palace schonbrunn" title="Schönbrunn Palace" url_b="http://static.flickr.com/2153/1785468024_eb2a4c6566_b.jpg" username="khoogheem" views="57" />
<photo  date_taken="2007-10-16 14:29:20" description="" id="1784669331" latitude="48.179447" license="3" longitude="16.309295" nbComments="0" rank="25" tags="vienna wien austria eu europe vacation österreich oesterreich schönbrunn palace schonbrunn" title="Schönbrunn Palace" url_b="http://static.flickr.com/2332/1784669331_7ac87fd4db_b.jpg" username="khoogheem" views="69" />
<photo  date_taken="2005-09-28 16:50:09" description="" id="51252144" latitude="48.181275" license="3" longitude="16.306146" nbComments="0" rank="26" tags="austria vienna schonbrunn palace tiergarten zoo zoological garden polar bear" title="Urso polar no Tiergarten (jardim zoológico) em Schonbrunn" url_b="http://static.flickr.com/30/51252144_85fc9819c2_b.jpg" username="NunoCardoso" views="69" />
<photo  date_taken="2005-09-28 16:50:43" description="" id="51252146" latitude="48.181275" license="3" longitude="16.306146" nbComments="0" rank="27" tags="austria vienna schonbrunn palace tiergarten zoo zoological garden polar bear" title="Local do urso polar no Tiergarten (jardim zoológico) em Schonbrunn" url_b="http://static.flickr.com/29/51252146_331e9aa525_b.jpg" username="NunoCardoso" views="101" />
<photo  date_taken="2005-09-28 16:58:28" description="" id="51253431" latitude="48.181275" license="3" longitude="16.306146" nbComments="0" rank="28" tags="austria vienna schonbrunn palace tiergarten zoo zoological garden polar bear" title="Urso polar no Tiergarten (jardim zoológico) em Schonbrunn" url_b="http://static.flickr.com/26/51253431_b8d44e4e9a_b.jpg" username="NunoCardoso" views="271" />
<photo  date_taken="2007-10-16 14:35:12" description="" id="1785583750" latitude="48.178492" license="3" longitude="16.308833" nbComments="0" rank="29" tags="vienna wien austria eu europe vacation österreich oesterreich gloriette schönbrunn palace schonbrunn" title="Schönbrunn Palace Gloriette" url_b="http://static.flickr.com/2393/1785583750_758c101968_b.jpg" username="khoogheem" views="27" />
<photo  date_taken="2007-10-16 14:35:27" description="" id="1785623002" latitude="48.178492" license="3" longitude="16.308833" nbComments="0" rank="30" tags="vienna wien austria eu europe vacation österreich oesterreich gloriette schönbrunn palace schonbrunn" title="Schönbrunn Palace" url_b="http://static.flickr.com/2044/1785623002_8ad936985d_b.jpg" username="khoogheem" views="35" />
<photo  date_taken="2008-10-30 15:10:16" description="Enter into the labyrinth in the park of the Schonbrunn Castle in Vienna. Entrez dans le labyrinthe du parc du Chateau de Sconbrunn, à Vienne. &lt;a href=&quot;http://bighugelabs.com/flickr/onblack.php?id=3441839494&quot;&gt;View On Black&lt;/a&gt; Video : &lt;a href=&quot;http://www.youtube.com/watch?v=cVwFiGeHc_s&quot;&gt;www.youtube.com/watch?v=cVwFiGeHc_s&lt;/a&gt; Music : Dead Cand Dance - &lt;a href=&quot;http://www.youtube.com/watch?v=LtNFQ7RJbaQ&quot;&gt;www.youtube.com/watch?v=LtNFQ7RJbaQ&lt;/a&gt;" id="3441839494" latitude="48.185395" license="3" longitude="16.304676" nbComments="38" rank="31" tags="vienna austria wien vienne schonbrunn castle palace schloss chateau palais garden park jardin labyrinth stoned sacred people autumn light monochrome gold pansonic lumix dmctz4 sepia mono europe" title="Into the Labyrinth" url_b="http://static.flickr.com/3560/3441839494_06eb160a2f_b.jpg" username="Gilderic Photography" views="287" />
<photo  date_taken="2007-10-24 11:53:15" description="" id="2072539806" latitude="48.184594" license="1" longitude="16.312041" nbComments="0" rank="32" tags="vienna kwong palace austria autostitch" title="View from the back of the Schonbrunn Palace" url_b="http://static.flickr.com/2339/2072539806_bb8cc1738b_b.jpg" username="Kwong Yee Cheng" views="9" />
<photo  date_taken="2007-10-24 11:56:03" description="" id="2071746803" latitude="48.184608" license="1" longitude="16.311672" nbComments="0" rank="33" tags="vienna kwong palace austria autostitch" title="View from the back of Schonbrunn Palace" url_b="http://static.flickr.com/2038/2071746803_1294828d5a_b.jpg" username="Kwong Yee Cheng" views="13" />
<photo  date_taken="2009-05-05 10:20:50" description="" id="3887920910" latitude="48.184644" license="3" longitude="16.312213" nbComments="0" rank="34" tags="18105mmf3556gvr austria d90 europe nikkor nikon nikond90 oesterreich osterreich palace schloss schlossschönbrunn schoenbrunn schoenbrunnpalace schonbrunn schonbrunnpalace schönbrunn schönbrunnpalace travel vienna wien österreich" title="" url_b="http://static.flickr.com/3509/3887920910_c284138e28_b.jpg" username="wenzday01" views="32" />
<photo  date_taken="2009-05-05 10:39:38" description="" id="3859672903" latitude="48.184644" license="3" longitude="16.312213" nbComments="1" rank="35" tags="18105mmf3556gvr austria d90 europe gloriette nikkor nikon nikond90 oesterreich osterreich palace schloss schlossschönbrunn schoenbrunn schoenbrunnpalace schonbrunn schonbrunnpalace schönbrunn schönbrunnpalace travel vienna wien österreich" title="Direction" url_b="http://static.flickr.com/3432/3859672903_6dec0eddfe_b.jpg" username="wenzday01" views="18" />
<photo  date_taken="2009-05-05 11:04:01" description="" id="4073017149" latitude="48.184644" license="3" longitude="16.312213" nbComments="1" rank="36" tags="18105mmf3556gvr panorama austria autostitch d90 europe gloriette hill nikkor nikon nikond90 oesterreich osterreich palace schloss schlossschönbrunn schoenbrunn schoenbrunnpalace schonbrunn schonbrunnpalace schönbrunn schönbrunnpalace travel vienna wien österreich" title="City of Vienna" url_b="http://static.flickr.com/2522/4073017149_21d35a78a1_b.jpg" username="wenzday01" views="92" />
<photo  date_taken="2009-05-05 10:44:42" description="" id="4073016851" latitude="48.184644" license="3" longitude="16.312213" nbComments="0" rank="37" tags="18105mmf3556gvr austria d90 europe nikkor nikon nikond90 oesterreich osterreich palace schloss schlossschönbrunn schoenbrunn schoenbrunnpalace schonbrunn schonbrunnpalace schönbrunn schönbrunnpalace travel vienna wien österreich" title="" url_b="http://static.flickr.com/2724/4073016851_25a2f7a760_b.jpg" username="wenzday01" views="32" />
<photo  date_taken="2011-08-15 12:15:46" description="" id="6096929771" latitude="48.184063" license="1" longitude="16.311775" nbComments="0" rank="38" tags="austria europe flowers fountain jphoto schonbrunnpalace vienna" title="IMG_0161" url_b="http://static.flickr.com/6076/6096929771_82849cfa2c_b.jpg" username="Chasing Donguri" views="62" />
<photo  date_taken="2007-10-16 12:47:45" description="" id="1784059725" latitude="48.18478" license="3" longitude="16.31231" nbComments="0" rank="39" tags="vienna wien austria eu europe vacation österreich oesterreich nophotos schönbrunn palace schonbrunn" title="Schönbrunn Palace" url_b="http://static.flickr.com/2346/1784059725_fa07983bd4_b.jpg" username="khoogheem" views="205" />
<photo  date_taken="2007-12-10 17:49:55" description="Schönbrunn is the former summer residence of the Habsburgs, and is considered one of the most beautiful baroque palaces in Europe." id="2101279811" latitude="48.18473" license="4" longitude="16.312347" nbComments="0" rank="40" tags="vienna austria schonbrunn osterreich wien" title="Schonbrunn Palace, Vienna" url_b="http://static.flickr.com/2325/2101279811_fabd89deea_b.jpg" username="jay8085" views="124" />
<photo  date_taken="2007-06-16 20:55:07" description="" id="2139412646" latitude="48.184637" license="4" longitude="16.312401" nbComments="0" rank="41" tags="schonbrunn palace vienna wien austria" title="Schonbrunn Palace, Vienna" url_b="http://static.flickr.com/2229/2139412646_3805cb09fa_b.jpg" username="jay8085" views="105" />
<photo  date_taken="2011-08-15 12:13:02" description="" id="6097473914" latitude="48.183877" license="1" longitude="16.311452" nbComments="0" rank="42" tags="austria europe jphoto jumping marisa schonbrunnpalace umbrella vienna" title="Jumping in Vienna" url_b="http://static.flickr.com/6184/6097473914_e484901f23_b.jpg" username="Chasing Donguri" views="18" />
<photo  date_taken="2007-10-16 13:17:38" description="" id="1784074547" latitude="48.184308" license="3" longitude="16.312599" nbComments="0" rank="43" tags="vienna wien austria eu europe vacation österreich oesterreich schönbrunn palace schonbrunn" title="Schönbrunn Palace" url_b="http://static.flickr.com/2371/1784074547_40d00aad14_b.jpg" username="khoogheem" views="5" />
<photo  date_taken="2007-10-16 13:17:49" description="" id="1784936436" latitude="48.184308" license="3" longitude="16.312599" nbComments="0" rank="44" tags="vienna wien austria eu europe vacation österreich oesterreich schönbrunn palace schonbrunn" title="Schönbrunn Palace" url_b="http://static.flickr.com/2281/1784936436_924e86ab44_b.jpg" username="khoogheem" views="4" />
<photo  date_taken="2011-08-15 12:12:56" description="" id="6097473152" latitude="48.183872" license="1" longitude="16.311441" nbComments="0" rank="45" tags="austria europe fountain jphoto marisa schonbrunnpalace umbrella vienna" title="IMG_0152" url_b="http://static.flickr.com/6207/6097473152_e11768cb4e_b.jpg" username="Chasing Donguri" views="31" />
<photo  date_taken="2011-08-15 12:12:40" description="" id="6096927325" latitude="48.183855" license="1" longitude="16.311419" nbComments="0" rank="46" tags="austria europe fountain jphoto schonbrunnpalace vienna" title="IMG_0151" url_b="http://static.flickr.com/6141/6096927325_133a68b2e7_b.jpg" username="Chasing Donguri" views="12" />
<photo  date_taken="2007-10-16 13:19:20" description="" id="1784127373" latitude="48.183846" license="3" longitude="16.312567" nbComments="0" rank="47" tags="vienna wien austria eu europe vacation österreich oesterreich schönbrunn palace schonbrunn" title="Schönbrunn Palace" url_b="http://static.flickr.com/2091/1784127373_beeacae037_b.jpg" username="khoogheem" views="22" />
<photo  date_taken="2007-10-16 13:19:08" description="" id="1784110447" latitude="48.184089" license="3" longitude="16.312814" nbComments="0" rank="48" tags="vienna wien austria eu europe vacation österreich oesterreich schönbrunn palace schonbrunn statue" title="Aeneas escape from Troy" url_b="http://static.flickr.com/2329/1784110447_471e63016f_b.jpg" username="khoogheem" views="49" />
<photo  date_taken="2007-10-16 13:48:47" description="" id="1784279165" latitude="48.183542" license="3" longitude="16.312417" nbComments="0" rank="49" tags="vienna wien austria eu europe vacation österreich oesterreich schönbrunn palace schonbrunn" title="Schönbrunn Palace" url_b="http://static.flickr.com/2409/1784279165_da1d235299_b.jpg" username="khoogheem" views="8" />
<photo  date_taken="2007-10-16 13:48:10" description="" id="1785115774" latitude="48.183542" license="3" longitude="16.312417" nbComments="0" rank="50" tags="vienna wien austria eu europe vacation österreich oesterreich schönbrunn palace schonbrunn" title="Schönbrunn Palace" url_b="http://static.flickr.com/2138/1785115774_a43fab7fb8_b.jpg" username="khoogheem" views="9" />
<photo  date_taken="2007-10-16 13:46:52" description="" id="1785101640" latitude="48.183542" license="3" longitude="16.312417" nbComments="0" rank="51" tags="vienna wien austria eu europe vacation österreich oesterreich schönbrunn palace schonbrunn" title="Schönbrunn Palace" url_b="http://static.flickr.com/2201/1785101640_67eed7d282_b.jpg" username="khoogheem" views="4" />
<photo  date_taken="2007-10-16 13:46:24" description="" id="1784238917" latitude="48.183542" license="3" longitude="16.312417" nbComments="0" rank="52" tags="vienna wien austria eu europe vacation österreich oesterreich schönbrunn palace schonbrunn" title="Schönbrunn Palace" url_b="http://static.flickr.com/2202/1784238917_e707034551_b.jpg" username="khoogheem" views="10" />
<photo  date_taken="2007-10-24 11:18:06" description="" id="2072536606" latitude="48.184638" license="1" longitude="16.310733" nbComments="0" rank="53" tags="vienna kwong palace austria" title="Back of Schonbrunn Palace" url_b="http://static.flickr.com/2046/2072536606_56e7971c29_b.jpg" username="Kwong Yee Cheng" views="12" />
<photo  date_taken="2007-10-16 13:20:18" description="" id="1785021748" latitude="48.183506" license="3" longitude="16.31246" nbComments="0" rank="54" tags="vienna wien austria eu europe vacation österreich oesterreich schönbrunn palace schonbrunn statue" title="Jason, robbed the Golden Fleece with the Argonautes" url_b="http://static.flickr.com/2350/1785021748_12d3036cb4_b.jpg" username="khoogheem" views="84" />
<photo  date_taken="2006-12-03 15:49:48" description="" id="315200304" latitude="48.185388" license="3" longitude="16.312658" nbComments="0" rank="55" tags="schonbrunn vienna christmas winter light palace europe" title="Schonbrunn" url_b="http://static.flickr.com/117/315200304_58d755ce4b_b.jpg" username="Swiv" views="192" />
<photo  date_taken="2007-10-16 13:49:13" description="" id="1784298617" latitude="48.183303" license="3" longitude="16.311891" nbComments="0" rank="56" tags="vienna wien austria eu europe vacation österreich oesterreich schönbrunn palace schonbrunn" title="Schönbrunn Palace" url_b="http://static.flickr.com/2101/1784298617_16ae9932c1_b.jpg" username="khoogheem" views="11" />
<photo  date_taken="2007-10-16 13:20:32" description="" id="1785048140" latitude="48.183614" license="3" longitude="16.312685" nbComments="0" rank="57" tags="vienna wien austria eu europe vacation österreich oesterreich schönbrunn palace schonbrunn" title="Schönbrunn Palace" url_b="http://static.flickr.com/2354/1785048140_c41d95b7be_b.jpg" username="khoogheem" views="37" />
<photo  date_taken="2011-04-10 13:08:05" description="Wiedeń, 10 kwietnia 2011 r. Pałac zbudowany w XVII-XVIII w. dla niemieckiego cesarza Leopolda I. Otoczony ogrodem w stylu francuskim, z Palmiarnią i fontanną Neptuna. Wewnątrz znajduje się 1441 komnat. ** Vienna, April 10, 2011 The palace built in 17th-18th centuries for German emperor Leopold I. It is surrounded by the French garden, with a palm house and the Neptune fountain. Inside the palace there are 1441 rooms. ** &lt;i&gt;Photo featured in a &lt;a href=&quot;http://www.simplyvoyage.com/&quot; rel=&quot;nofollow&quot;&gt;Simply Voyage&lt;/a&gt; &lt;a href=&quot;http://www.simplyvoyage.com/vienne/vienne-le-chateau-de-schonbrunn-le-versailles-autrichien_art820.html&quot; rel=&quot;nofollow&quot;&gt;article&lt;/a&gt;.&lt;/i&gt;" id="5627216890" latitude="48.183127" license="3" longitude="16.312165" nbComments="5" rank="58" tags="wiedeń wieden wien vienna austria österreich oesterreich osterreich pałac palac park ogród ogrod budynek architektura palace garden building architecture" title="Schönbrunn" url_b="http://static.flickr.com/5186/5627216890_b8b3decc78_b.jpg" username="magro_kr" views="149" />
<photo  date_taken="2005-09-28 12:22:31" description="" id="51127920" latitude="48.185971" license="3" longitude="16.312197" nbComments="0" rank="59" tags="austria vienna schonbrunn palace strudel statue fountain" title="Estátua à entrada do Schonbrunn" url_b="http://static.flickr.com/29/51127920_d9a08fbc53_b.jpg" username="NunoCardoso" views="166" />
<photo  date_taken="2005-09-28 09:09:38" description="" id="51125100" latitude="48.185795" license="3" longitude="16.312733" nbComments="0" rank="60" tags="austria vienna schonbrunn palace cecilia fog morning" title="Cecília de manhã no Schonbrunn" url_b="http://static.flickr.com/31/51125100_9a3ba43518_b.jpg" username="NunoCardoso" views="29" />
<photo  date_taken="2005-09-28 09:10:26" description="" id="51125102" latitude="48.185795" license="3" longitude="16.312733" nbComments="0" rank="61" tags="austria vienna schonbrunn palace" title="Fachada central de Schonbrunn" url_b="http://static.flickr.com/26/51125102_1dbffc6e9c_b.jpg" username="NunoCardoso" views="47" />
<photo  date_taken="2009-05-05 10:31:42" description="" id="4081215525" latitude="48.183628" license="3" longitude="16.313168" nbComments="0" rank="62" tags="18105mmf3556gvr austria d90 europe garden nikkor nikon nikond90 oesterreich osterreich palace schloss schlossschönbrunn schoenbrunn schoenbrunnpalace schonbrunn schonbrunnpalace schönbrunn schönbrunnpalace travel vienna wien österreich" title="Tree-Lined" url_b="http://static.flickr.com/2666/4081215525_ac9d26989d_b.jpg" username="wenzday01" views="55" />
<photo  date_taken="2011-06-28 13:22:58" description="" id="5882047697" latitude="48.183183" license="4" longitude="16.311001" nbComments="0" rank="63" tags="vienna" title="Schonbrunn Palace" url_b="http://static.flickr.com/5023/5882047697_813f972566_b.jpg" username="Fearless Fred" views="17" />
<photo  date_taken="2007-10-16 14:14:23" description="" id="1785183188" latitude="48.182898" license="3" longitude="16.312074" nbComments="0" rank="64" tags="vienna wien austria eu europe vacation österreich oesterreich nymph schönbrunn palace schonbrunn statue" title="Flora's Nymph" url_b="http://static.flickr.com/2155/1785183188_56a48bef68_b.jpg" username="khoogheem" views="26" />
<photo  date_taken="2007-10-24 11:27:36" description="" id="2072536874" latitude="48.184391" license="1" longitude="16.310213" nbComments="0" rank="65" tags="vienna kwong palace austria" title="Gardens in Schonbrunn Palace" url_b="http://static.flickr.com/2408/2072536874_4fe5b0e0c4_b.jpg" username="Kwong Yee Cheng" views="9" />
<photo  date_taken="2011-08-15 10:03:11" description="" id="6097466612" latitude="48.185624" license="1" longitude="16.313133" nbComments="0" rank="66" tags="austria europe jphoto marisa schonbrunnpalace umbrella vienna" title="IMG_0105" url_b="http://static.flickr.com/6021/6097466612_2cba2faa68_b.jpg" username="Chasing Donguri" views="21" />
<photo  date_taken="2011-08-15 10:11:17" description="" id="6097467450" latitude="48.185275" license="1" longitude="16.310316" nbComments="0" rank="67" tags="austria europe fountain jphoto marisa schonbrunnpalace umbrella vienna" title="IMG_0109" url_b="http://static.flickr.com/6022/6097467450_ce975bfb83_b.jpg" username="Chasing Donguri" views="6" />
<photo  date_taken="2009-05-05 10:37:38" description="&lt;a href=&quot;http://bighugelabs.com/flickr/onblack.php?id=3619001933&quot; rel=&quot;nofollow&quot;&gt;View On Black&lt;/a&gt;" id="3619001933" latitude="48.182884" license="3" longitude="16.311269" nbComments="2" rank="68" tags="travel austria österreich oesterreich osterreich vienna wien schönbrunnpalace schönbrunn palace schoenbrunnpalace schoenbrunn schonbrunnpalace schonbrunn gloriette sky clouds bw monotone adobe lightroom nikon d90 nikond90 nikkor 18105mmf3556gvr" title="" url_b="http://static.flickr.com/2459/3619001933_32872b6367_b.jpg" username="wenzday01" views="103" />
<photo  date_taken="2007-10-24 11:17:54" description="" id="2072542552" latitude="48.185452" license="1" longitude="16.310377" nbComments="0" rank="69" tags="naomi vienna palace austria" title="Garden in Schonbrunn Palace" url_b="http://static.flickr.com/2220/2072542552_6f901199e5_b.jpg" username="Kwong Yee Cheng" views="16" />
<photo  date_taken="2007-10-24 11:22:29" description="" id="2072536748" latitude="48.185236" license="1" longitude="16.31025" nbComments="0" rank="70" tags="vienna kwong palace austria" title="Gardens in Schonbrunn Palace" url_b="http://static.flickr.com/2014/2072536748_be0b0285d4_b.jpg" username="Kwong Yee Cheng" views="8" />
<photo  date_taken="2007-10-24 10:05:57" description="" id="2071746543" latitude="48.186222" license="1" longitude="16.31248" nbComments="0" rank="71" tags="vienna kwong palace austria autostitch" title="Courtyard of Schonbrunn Palace" url_b="http://static.flickr.com/2037/2071746543_2b75669d3f_b.jpg" username="Kwong Yee Cheng" views="13" />
<photo  date_taken="2008-10-30 14:51:24" description="Can you guess what this is... A- A golden parachute waiting to be used; B- a giant condom; C- a piece of contemporary art D- your suggestion... Devinez ce que ça peut être : A : un parachute doré en suspens; B : un préservatif géant; C : une oeuvre d'art contemporain; D : votre suggestion... &lt;a href=&quot;http://bighugelabs.com/flickr/onblack.php?id=3408503821&quot;&gt;View On Black&lt;/a&gt; Music : Alain Souchon, Parachute doré (Golden parachute) : &lt;a href=&quot;http://www.youtube.com/watch?v=7fGTpks6LCs&quot;&gt;www.youtube.com/watch?v=7fGTpks6LCs&lt;/a&gt; -------------- And the winner is... dolbi303 (http://www.flickr.com/photos/14133331@N08/). He guessed right : it's one of the statues in the park of the Schonbrunn Palace, covered for winter." id="3408503821" latitude="48.184211" license="3" longitude="16.309955" nbComments="36" rank="72" tags="austria vienna wien vienne schonbrunn schloss castle palace sky gold mystery architecture art platinumheartaward city pansonic lumix dmctz4 sepia monochrome mono europe" title="The golden... mystery" url_b="http://static.flickr.com/3590/3408503821_643f0d272a_b.jpg" username="Gilderic Photography" views="205" />
<photo  date_taken="2007-10-16 14:15:27" description="" id="1785221964" latitude="48.182448" license="3" longitude="16.311848" nbComments="0" rank="73" tags="vienna wien austria eu europe vacation österreich oesterreich apollo schönbrunn palace schonbrunn statue" title="Apollo" url_b="http://static.flickr.com/2174/1785221964_51d3709183_b.jpg" username="khoogheem" views="51" />
<photo  date_taken="2007-10-24 11:37:18" description="" id="2071746649" latitude="48.183308" license="1" longitude="16.310072" nbComments="0" rank="74" tags="vienna kwong palace austria autostitch" title="Gardens in Schonbrunn Palace" url_b="http://static.flickr.com/2341/2071746649_957ccc8c9f_b.jpg" username="Kwong Yee Cheng" views="13" />
<photo  date_taken="2009-05-05 11:22:49" description="" id="3959728400" latitude="48.182505" license="3" longitude="16.310657" nbComments="0" rank="75" tags="18105mmf3556gvr austria d90 europe garden nikkor nikon nikond90 oesterreich osterreich palace schloss schlossschönbrunn schoenbrunn schoenbrunnpalace schonbrunn schonbrunnpalace schönbrunn schönbrunnpalace travel vienna wien österreich" title="Schönbrunn Gardens" url_b="http://static.flickr.com/3430/3959728400_ee5fdf3785_b.jpg" username="wenzday01" views="43" />
<photo  date_taken="2007-10-16 12:18:21" description="" id="1784855524" latitude="48.186579" license="3" longitude="16.313146" nbComments="0" rank="76" tags="vienna wien austria eu europe vacation österreich oesterreich schönbrunn palace schonbrunn" title="Schönbrunn Palace" url_b="http://static.flickr.com/2369/1784855524_e029829e13_b.jpg" username="khoogheem" views="5" />
<photo  date_taken="2007-10-16 12:15:38" description="" id="1783924777" latitude="48.186579" license="3" longitude="16.313146" nbComments="0" rank="77" tags="vienna wien austria eu europe vacation österreich oesterreich schönbrunn palace schonbrunn" title="Schönbrunn Palace" url_b="http://static.flickr.com/2143/1783924777_82cae2ca09_b.jpg" username="khoogheem" views="8" />
<photo  date_taken="2007-10-16 12:17:53" description="Invisible People Ok, No Dogs with Red Noses, Bikes with NO Riders are Ok." id="1784842744" latitude="48.186564" license="3" longitude="16.313307" nbComments="0" rank="78" tags="vienna wien austria eu europe vacation österreich oesterreich schönbrunn palace schonbrunn sign" title="Schönbrunn Palace" url_b="http://static.flickr.com/2282/1784842744_6ae63a4df2_b.jpg" username="khoogheem" views="15" />
<photo  date_taken="2011-08-15 10:13:00" description="" id="6097468210" latitude="48.185605" license="1" longitude="16.309441" nbComments="0" rank="79" tags="austria europe fountain jphoto schonbrunnpalace vienna" title="IMG_0111" url_b="http://static.flickr.com/6181/6097468210_0f82c48afe_b.jpg" username="Chasing Donguri" views="6" />
<photo  date_taken="2010-04-17 04:07:40" description="" id="4547167681" latitude="48.182503" license="2" longitude="16.31012" nbComments="0" rank="80" tags="vienna austria april europe" title="Schonbrunn Palace Palm House" url_b="http://static.flickr.com/4032/4547167681_c1a4ff07fc_b.jpg" username="awluter" views="3" />
<photo  date_taken="2007-10-24 11:30:25" description="" id="2072537004" latitude="48.183363" license="1" longitude="16.309438" nbComments="0" rank="81" tags="vienna kwong palace austria" title="Gardens in Schonbrunn Palace" url_b="http://static.flickr.com/2081/2072537004_ff7fa391d8_b.jpg" username="Kwong Yee Cheng" views="20" />
<photo  date_taken="2010-04-17 04:10:01" description="" id="4547802990" latitude="48.182453" license="2" longitude="16.30995" nbComments="1" rank="82" tags="vienna austria april europe" title="Schonbrunn Palace Palm House" url_b="http://static.flickr.com/4003/4547802990_b43ef3faa1_b.jpg" username="awluter" views="2" />
<photo  date_taken="2005-09-28 11:48:04" description="" id="51127918" latitude="48.18532" license="3" longitude="16.314579" nbComments="0" rank="83" tags="austria vienna schonbrunn palace strudel cooking" title="Como fazer strudels austríacos" url_b="http://static.flickr.com/28/51127918_9a201ffd1a_b.jpg" username="NunoCardoso" views="44" />
<photo  date_taken="2005-09-28 11:47:52" description="" id="51127917" latitude="48.18532" license="3" longitude="16.314579" nbComments="0" rank="84" tags="austria vienna schonbrunn palace strudel cooking" title="Como fazer strudels austríacos" url_b="http://static.flickr.com/24/51127917_de1e114d3a_b.jpg" username="NunoCardoso" views="27" />
<photo  date_taken="2005-09-28 12:20:17" description="An obcession by strudels..." id="51127919" latitude="48.18532" license="3" longitude="16.314579" nbComments="0" rank="85" tags="austria vienna schonbrunn palace strudel cooker" title="A cozinheira" url_b="http://static.flickr.com/32/51127919_5d2f786bcf_b.jpg" username="NunoCardoso" views="77" />
<photo  date_taken="2005-09-28 11:37:08" description="" id="51127499" latitude="48.18532" license="3" longitude="16.314579" nbComments="0" rank="86" tags="vienna austria schonbrunn palace" title="Fachada de Schonbrunn" url_b="http://static.flickr.com/31/51127499_7b5729fadb_b.jpg" username="NunoCardoso" views="59" />
<photo  date_taken="2005-09-28 11:40:22" description="" id="51127500" latitude="48.18532" license="3" longitude="16.314579" nbComments="0" rank="87" tags="vienna austria schonbrunn palace cake" title="Bolos austríacos" url_b="http://static.flickr.com/29/51127500_4d2d320dd1_b.jpg" username="NunoCardoso" views="52" />
<photo  date_taken="2011-08-15 10:14:10" description="" id="6097468938" latitude="48.185713" license="1" longitude="16.309222" nbComments="0" rank="88" tags="austria europe fountain jordan jphoto marisa schonbrunnpalace vienna" title="IMG_0116" url_b="http://static.flickr.com/6082/6097468938_e9b4d6bab1_b.jpg" username="Chasing Donguri" views="6" />
<photo  date_taken="2005-09-28 12:40:38" description="" id="51128540" latitude="48.186353" license="3" longitude="16.30945" nbComments="0" rank="89" tags="austria vienna schonbrunn palace wagon wagenburg napoleon" title="Coche que levou Napoleão, no Wagenburg de Schonbrunn" url_b="http://static.flickr.com/24/51128540_1c927b7938_b.jpg" username="NunoCardoso" views="283" />
<photo  date_taken="2005-09-28 12:55:37" description="" id="51128541" latitude="48.186353" license="3" longitude="16.30945" nbComments="0" rank="90" tags="austria vienna schonbrunn palace funeral wagon wagenburg" title="Coche funerário no Wagenburg de Schonbrunn" url_b="http://static.flickr.com/28/51128541_f08915ca95_b.jpg" username="NunoCardoso" views="305" />
<photo  date_taken="2005-09-28 12:35:27" description="" id="51127921" latitude="48.186353" license="3" longitude="16.30945" nbComments="0" rank="91" tags="austria vienna schonbrunn palace wagenburg cecilia wagon" title="Cecília no Wagenburg de Schonbrunn" url_b="http://static.flickr.com/31/51127921_7ed88a782a_b.jpg" username="NunoCardoso" views="144" />
<photo  date_taken="2005-09-28 12:56:36" description="" id="51128542" latitude="48.186353" license="3" longitude="16.30945" nbComments="0" rank="92" tags="austria vienna schonbrunn palace royal wagon wagenburg" title="Coche real no Wagenburg de Schonbrunn" url_b="http://static.flickr.com/27/51128542_334e127f0f_b.jpg" username="NunoCardoso" views="264" />
<photo  date_taken="2005-09-28 13:15:58" description="E esta, hein?" id="51128544" latitude="48.186353" license="3" longitude="16.30945" nbComments="0" rank="93" tags="austria vienna schonbrunn palace portugal wagon museums" title="Propaganda aos museus de coches portugueses em Wagenburg, Schonbrunn" url_b="http://static.flickr.com/24/51128544_f07b600c63_b.jpg" username="NunoCardoso" views="82" />
<photo  date_taken="2005-09-28 12:38:48" description="This one drove Napoleon" id="51127922" latitude="48.186353" license="3" longitude="16.30945" nbComments="0" rank="94" tags="austria vienna schonbrunn palace wagenburg napoleon wagon" title="Coche que levou Napoleão, no Wagenburg de Schonbrunn" url_b="http://static.flickr.com/24/51127922_d5e7df73aa_b.jpg" username="NunoCardoso" views="216" />
<photo  date_taken="2005-09-28 13:05:16" description="" id="51128543" latitude="48.186353" license="3" longitude="16.30945" nbComments="0" rank="95" tags="austria vienna schonbrunn palace wagenburg" title="Wagenburg de Schonbrunn" url_b="http://static.flickr.com/24/51128543_10c8bb8cde_b.jpg" username="NunoCardoso" views="236" />
<photo  date_taken="2012-12-22 18:03:27" description="A scene of historical momentousness, an excellent if expensive market, a large tree, an oompah band, mulled wine, potatoes and brief encounters." id="8323807414" latitude="48.187092" license="6" longitude="16.313495" nbComments="0" rank="96" tags="vienna christmas lights markets austria schonbrunn palace tree evening pillars" title="Schonbrunn" url_b="http://static.flickr.com/8211/8323807414_06d1caaf38_b.jpg" username="zaza_bj" views="40" />
<photo  date_taken="2007-10-16 12:16:42" description="" id="1784830836" latitude="48.18719" license="3" longitude="16.313436" nbComments="0" rank="97" tags="vienna wien austria eu europe vacation österreich oesterreich schönbrunn palace schonbrunn statue" title="Schönbrunn Palace" url_b="http://static.flickr.com/2172/1784830836_7704a4c5e3_b.jpg" username="khoogheem" views="21" />
<photo  date_taken="2007-10-16 14:19:51" description="" id="1785411522" latitude="48.1817" license="3" longitude="16.310561" nbComments="0" rank="98" tags="vienna wien austria eu europe vacation österreich oesterreich schönbrunn palace schonbrunn thebill" title="Schönbrunn Palace" url_b="http://static.flickr.com/2146/1785411522_b94ed19c18_b.jpg" username="khoogheem" views="15" />
<photo  date_taken="2007-10-16 14:19:31" description="" id="1784517479" latitude="48.1817" license="3" longitude="16.310561" nbComments="0" rank="99" tags="vienna wien austria eu europe vacation österreich oesterreich schönbrunn palace schonbrunn" title="Schönbrunn Palace" url_b="http://static.flickr.com/2330/1784517479_1751436357_b.jpg" username="khoogheem" views="16" />
<photo  date_taken="2007-10-16 14:18:04" description="" id="1785317554" latitude="48.1817" license="3" longitude="16.310561" nbComments="0" rank="100" tags="vienna wien austria eu europe vacation österreich oesterreich schönbrunn palace schonbrunn" title="Schönbrunn Palace" url_b="http://static.flickr.com/2405/1785317554_87275b5b88_b.jpg" username="khoogheem" views="5" />
<photo  date_taken="2007-10-16 14:18:34" description="" id="1784486975" latitude="48.1817" license="3" longitude="16.310561" nbComments="0" rank="101" tags="vienna wien austria eu europe vacation österreich oesterreich schönbrunn palace schonbrunn" title="Schönbrunn Palace" url_b="http://static.flickr.com/2305/1784486975_422729e3d4_b.jpg" username="khoogheem" views="10" />
<photo  date_taken="2007-10-16 14:20:08" description="" id="1784532855" latitude="48.1817" license="3" longitude="16.310561" nbComments="0" rank="102" tags="vienna wien austria eu europe vacation österreich oesterreich schönbrunn palace schonbrunn" title="Schönbrunn Palace" url_b="http://static.flickr.com/2333/1784532855_2c1fe04222_b.jpg" username="khoogheem" views="18" />
<photo  date_taken="2007-10-16 14:19:11" description="" id="1784501443" latitude="48.1817" license="3" longitude="16.310561" nbComments="0" rank="103" tags="vienna wien austria eu europe vacation österreich oesterreich schönbrunn palace schonbrunn" title="Schönbrunn Palace" url_b="http://static.flickr.com/2342/1784501443_9e61955ee8_b.jpg" username="khoogheem" views="12" />
<photo  date_taken="2007-10-16 14:20:56" description="" id="1785395404" latitude="48.1817" license="3" longitude="16.310561" nbComments="0" rank="104" tags="vienna wien austria eu europe vacation österreich oesterreich schönbrunn palace schonbrunn" title="Schönbrunn Palace" url_b="http://static.flickr.com/2034/1785395404_38fa5a5564_b.jpg" username="khoogheem" views="9" />
<photo  date_taken="2011-08-15 11:46:39" description="" id="6097471826" latitude="48.18185" license="1" longitude="16.310152" nbComments="0" rank="105" tags="austria europe fountain jphoto marisa schonbrunnpalace umbrella vienna" title="IMG_0147" url_b="http://static.flickr.com/6006/6097471826_087f5ba2c4_b.jpg" username="Chasing Donguri" views="6" />
<photo  date_taken="2009-09-26 10:47:48" description="At the Schönbrunn Palace" id="3994301768" latitude="48.181688" license="1" longitude="16.310355" nbComments="0" rank="106" tags="2009 viena schonbrunn" title="Green passage" url_b="http://static.flickr.com/2627/3994301768_315f0f248e_b.jpg" username="ἀλέξ" views="18" />
<photo  date_taken="2009-09-26 11:13:59" description="At the Schönbrunn Palace" id="3994303274" latitude="48.181688" license="1" longitude="16.310355" nbComments="0" rank="107" tags="2009 viena schonbrunn reflection" title="Gloriette" url_b="http://static.flickr.com/3506/3994303274_c7407f0607_b.jpg" username="ἀλέξ" views="14" />
<photo  date_taken="2009-09-26 11:41:38" description="At the Schönbrunn Palace" id="3993543809" latitude="48.181688" license="1" longitude="16.310355" nbComments="1" rank="108" tags="2009 viena schonbrunn" title="My little garden..." url_b="http://static.flickr.com/2572/3993543809_1f26abcd72_b.jpg" username="ἀλέξ" views="21" />
<photo  date_taken="2007-10-16 12:16:09" description="" id="1783963167" latitude="48.187376" license="3" longitude="16.313672" nbComments="0" rank="109" tags="vienna wien austria eu europe vacation österreich oesterreich schönbrunn palace schonbrunn" title="Schönbrunn Palace" url_b="http://static.flickr.com/2377/1783963167_5a3ecc2c52_b.jpg" username="khoogheem" views="11" />
<photo  date_taken="2010-04-17 03:59:11" description="" id="4547168967" latitude="48.184303" license="2" longitude="16.315413" nbComments="0" rank="110" tags="vienna austria april europe" title="Schonbrunn Palace Gardens" url_b="http://static.flickr.com/4035/4547168967_32c6c50bb3_b.jpg" username="awluter" views="2" />
<photo  date_taken="2009-05-05 10:54:29" description="" id="4069884971" latitude="48.181253" license="3" longitude="16.310421" nbComments="0" rank="111" tags="18105mmf3556gvr austria d90 europe fountain nikkor nikon nikond90 oesterreich osterreich palace schloss schlossschönbrunn schoenbrunn schoenbrunnpalace schonbrunn schonbrunnpalace schönbrunn schönbrunnpalace travel vienna waterfountain wien österreich" title="The Schönbrunn Fountain" url_b="http://static.flickr.com/2800/4069884971_70581a796c_b.jpg" username="wenzday01" views="23" />
<photo  date_taken="2011-06-28 13:39:30" description="" id="5882650222" latitude="48.181187" license="4" longitude="16.310475" nbComments="0" rank="112" tags="vienna" title="The Schonbrunn Palace" url_b="http://static.flickr.com/5309/5882650222_1ec5044b89_b.jpg" username="Fearless Fred" views="9" />
<photo  date_taken="2011-06-28 13:33:42" description="Seen from behind the Renaissance Fountain" id="5882629780" latitude="48.181223" license="4" longitude="16.31026" nbComments="0" rank="113" tags="vienna" title="Schonbrunn Palace" url_b="http://static.flickr.com/6010/5882629780_6bf2061511_b.jpg" username="Fearless Fred" views="14" />
<photo  date_taken="2011-06-28 13:12:40" description="" id="5882027195" latitude="48.18372" license="4" longitude="16.308286" nbComments="0" rank="114" tags="vienna" title="In the Schonbrunn Palace" url_b="http://static.flickr.com/5108/5882027195_7853e7da28_b.jpg" username="Fearless Fred" views="54" />
<photo  date_taken="2011-06-28 13:10:30" description="" id="5882015431" latitude="48.18372" license="4" longitude="16.308286" nbComments="0" rank="115" tags="vienna" title="In the Schonbrunn Palace" url_b="http://static.flickr.com/5316/5882015431_9806edb5bb_b.jpg" username="Fearless Fred" views="7" />
<photo  date_taken="2010-04-17 03:47:38" description="" id="4547170815" latitude="48.185928" license="2" longitude="16.315577" nbComments="0" rank="116" tags="vienna austria april europe" title="Schonbrunn Palace Fountain" url_b="http://static.flickr.com/4040/4547170815_f6c071bbd0_b.jpg" username="awluter" views="3" />
<photo  date_taken="2011-06-28 13:41:58" description="" id="5882100063" latitude="48.180608" license="4" longitude="16.310539" nbComments="0" rank="117" tags="vienna" title="Me, with the Schonbrunn Palace behind" url_b="http://static.flickr.com/5038/5882100063_73de0e52d6_b.jpg" username="Fearless Fred" views="11" />
<photo  date_taken="2007-10-16 14:27:23" description="" id="1784579615" latitude="48.179447" license="3" longitude="16.309295" nbComments="0" rank="118" tags="vienna wien austria eu europe vacation österreich oesterreich schönbrunn palace schonbrunn gloriette" title="Schönbrunn Palace Gloriette" url_b="http://static.flickr.com/2116/1784579615_d82f436a10_b.jpg" username="khoogheem" views="17" />
<photo  date_taken="2007-10-16 14:28:57" description="" id="1784640213" latitude="48.179447" license="3" longitude="16.309295" nbComments="0" rank="119" tags="vienna wien austria eu europe vacation österreich oesterreich schönbrunn palace schonbrunn" title="Schönbrunn Palace" url_b="http://static.flickr.com/2085/1784640213_516341b95f_b.jpg" username="khoogheem" views="16" />
<photo  date_taken="2007-10-16 14:28:09" description="" id="1784592863" latitude="48.179447" license="3" longitude="16.309295" nbComments="0" rank="120" tags="vienna wien austria eu europe vacation österreich oesterreich gloriette schönbrunn palace schonbrunn" title="Schönbrunn Palace Gloriette" url_b="http://static.flickr.com/2051/1784592863_0ac788bbe8_b.jpg" username="khoogheem" views="8" />
<photo  date_taken="2007-10-16 14:28:37" description="" id="1784608563" latitude="48.179447" license="3" longitude="16.309295" nbComments="0" rank="121" tags="vienna wien austria eu europe vacation österreich oesterreich schönbrunn palace schonbrunn" title="Schönbrunn Palace" url_b="http://static.flickr.com/2163/1784608563_62a0e20ae1_b.jpg" username="khoogheem" views="22" />
<photo  date_taken="2008-01-04 12:14:52" description="schonbrunn palace from the gloriet" id="2221181598" latitude="48.179393" license="1" longitude="16.309338" nbComments="0" rank="122" tags="vienna wien austria winter schonbrunn" title="" url_b="http://static.flickr.com/2222/2221181598_96e96b8437_b.jpg" username="Soft Relaunch" views="53" />
<photo  date_taken="2007-10-16 14:31:12" description="" id="1785528468" latitude="48.179586" license="3" longitude="16.308544" nbComments="0" rank="123" tags="vienna wien austria eu europe vacation österreich oesterreich gloriette schönbrunn palace schonbrunn" title="Schönbrunn Palace Gloriette" url_b="http://static.flickr.com/2033/1785528468_8f7a5880ef_b.jpg" username="khoogheem" views="17" />
<photo  date_taken="2007-10-16 14:31:46" description="" id="1784696351" latitude="48.179032" license="3" longitude="16.308394" nbComments="0" rank="124" tags="vienna wien austria eu europe vacation österreich oesterreich gloriette schönbrunn palace schonbrunn water female bench blonde gwc" title="Schönbrunn Palace Gloriette" url_b="http://static.flickr.com/2273/1784696351_01c537ea35_b.jpg" username="khoogheem" views="54" />
<photo  date_taken="2005-09-28 16:50:22" description="" id="51252145" latitude="48.181275" license="3" longitude="16.306146" nbComments="0" rank="125" tags="austria vienna schonbrunn palace tiergarten zoo zoological garden" title="Vista no Tiergarten (jardim zoológico) em Schonbrunn" url_b="http://static.flickr.com/27/51252145_a1231b5451_b.jpg" username="NunoCardoso" views="75" />
<photo  date_taken="2005-09-28 16:38:16" description="" id="51250274" latitude="48.181275" license="3" longitude="16.306146" nbComments="0" rank="126" tags="austria vienna schonbrunn palace tiergarten zoo zoological garden bat" title="Morcego no Tiergarten (jardim zoológico) em Schonbrunn" url_b="http://static.flickr.com/24/51250274_1f47930687_b.jpg" username="NunoCardoso" views="37" />
<photo  date_taken="2005-09-28 16:57:07" description="" id="51252149" latitude="48.181275" license="3" longitude="16.306146" nbComments="0" rank="127" tags="austria vienna schonbrunn palace tiergarten zoo zoological garden penguin" title="Pinguins no Tiergarten (jardim zoológico) em Schonbrunn" url_b="http://static.flickr.com/24/51252149_b306cff768_b.jpg" username="NunoCardoso" views="128" />
<photo  date_taken="2005-09-28 16:31:32" description="" id="51250272" latitude="48.181275" license="3" longitude="16.306146" nbComments="0" rank="128" tags="austria vienna schonbrunn palace tiergarten zoo zoological garden fish shadow" title="Peixes a nadar numa plataforma no tecto de um pavilhão do Tiergarten (jardim zoológico) em Schonbrunn" url_b="http://static.flickr.com/31/51250272_b8230bb6f8_b.jpg" username="NunoCardoso" views="83" />
<photo  date_taken="2005-09-28 16:38:51" description="" id="51250275" latitude="48.181275" license="3" longitude="16.306146" nbComments="2" rank="129" tags="austria vienna schonbrunn palace tiergarten zoo zoological garden bat" title="Morcegos no Tiergarten (jardim zoológico) em Schonbrunn" url_b="http://static.flickr.com/31/51250275_96cfacb153_b.jpg" username="NunoCardoso" views="65" />
<photo  date_taken="2005-09-28 16:03:21" description="" id="51250265" latitude="48.181275" license="3" longitude="16.306146" nbComments="0" rank="130" tags="austria vienna schonbrunn palace tiergarten zoo zoological garden pelican" title="Pelicano no Tiergarten (jardim zoológico) em Schonbrunn" url_b="http://static.flickr.com/24/51250265_8d7c72cb19_b.jpg" username="NunoCardoso" views="52" />
<photo  date_taken="2005-09-28 16:55:43" description="Lunix Rules! :P" id="51252148" latitude="48.181275" license="3" longitude="16.306146" nbComments="0" rank="131" tags="austria vienna schonbrunn palace tiergarten zoo zoological garden penguin" title="Pinguins no Tiergarten (jardim zoológico) em Schonbrunn" url_b="http://static.flickr.com/26/51252148_50f2f97ae3_b.jpg" username="NunoCardoso" views="95" />
<photo  date_taken="2005-09-28 16:26:58" description="" id="51250267" latitude="48.181275" license="3" longitude="16.306146" nbComments="0" rank="132" tags="austria vienna schonbrunn palace tiergarten zoo zoological garden sea otter" title="Lontras no Tiergarten (jardim zoológico) em Schonbrunn" url_b="http://static.flickr.com/29/51250267_9c01bf095f_b.jpg" username="NunoCardoso" views="52" />
<photo  date_taken="2005-09-28 16:51:10" description="" id="51252147" latitude="48.181275" license="3" longitude="16.306146" nbComments="0" rank="133" tags="austria vienna schonbrunn palace tiergarten zoo zoological garden pavillion" title="Vista de um pavilhão do Tiergarten (jardim zoológico) em Schonbrunn" url_b="http://static.flickr.com/32/51252147_160bd87694_b.jpg" username="NunoCardoso" views="67" />
<photo  date_taken="2005-09-28 17:04:32" description="" id="51253432" latitude="48.181275" license="3" longitude="16.306146" nbComments="0" rank="134" tags="austria vienna schonbrunn palace tiergarten zoo zoological garden penguin" title="Pingunis no Tiergarten (jardin zoológico), em Schonbrunn" url_b="http://static.flickr.com/24/51253432_7bdebec52d_b.jpg" username="NunoCardoso" views="84" />
<photo  date_taken="2007-10-16 14:35:17" description="" id="1784764127" latitude="48.178492" license="3" longitude="16.308833" nbComments="0" rank="135" tags="vienna wien austria eu europe vacation österreich oesterreich gloriette schönbrunn palace schonbrunn" title="Schönbrunn Palace" url_b="http://static.flickr.com/2159/1784764127_5433baa27d_b.jpg" username="khoogheem" views="25" />
<photo  date_taken="2007-10-16 14:29:42" description="" id="1785596720" latitude="48.178492" license="3" longitude="16.308833" nbComments="0" rank="136" tags="vienna wien austria eu europe vacation österreich oesterreich schönbrunn palace schonbrunn" title="Schönbrunn Palace" url_b="http://static.flickr.com/2287/1785596720_eefafe8888_b.jpg" username="khoogheem" views="21" />
<photo  date_taken="2007-10-16 14:32:52" description="" id="1784726961" latitude="48.178492" license="3" longitude="16.308833" nbComments="0" rank="137" tags="vienna wien austria eu europe vacation österreich oesterreich gloriette schönbrunn palace schonbrunn" title="Schönbrunn Palace Gloriette" url_b="http://static.flickr.com/2383/1784726961_c3408c7fdf_b.jpg" username="khoogheem" views="16" />
<photo  date_taken="2010-04-17 04:28:32" description="" id="4547160463" latitude="48.178223" license="2" longitude="16.309406" nbComments="0" rank="138" tags="vienna austria april europe" title="Schonbrunn Palace" url_b="http://static.flickr.com/4025/4547160463_065a875da2_b.jpg" username="awluter" views="1" />
<photo  date_taken="2010-04-17 04:24:16" description="" id="4547801010" latitude="48.178223" license="2" longitude="16.309406" nbComments="0" rank="139" tags="vienna austria april europe" title="Schonbrunn Palace" url_b="http://static.flickr.com/4062/4547801010_bf44fa14e1_b.jpg" username="awluter" views="22" />
<photo  date_taken="2010-04-17 04:24:51" description="" id="4547800288" latitude="48.178223" license="2" longitude="16.309406" nbComments="0" rank="140" tags="vienna austria april europe" title="Schonbrunn Palace Gardens" url_b="http://static.flickr.com/4054/4547800288_91df7f27f1_b.jpg" username="awluter" views="1" />
<photo  date_taken="2010-04-17 04:26:59" description="" id="4547799554" latitude="48.178223" license="2" longitude="16.309406" nbComments="0" rank="141" tags="vienna austria april europe" title="Schonbrunn Palace Gardens" url_b="http://static.flickr.com/4044/4547799554_a7a3ce105b_b.jpg" username="awluter" views="3" />
<photo  date_taken="2007-10-16 14:37:01" description="" id="1785633310" latitude="48.178091" license="3" longitude="16.309413" nbComments="0" rank="142" tags="vienna wien austria eu europe vacation österreich oesterreich gloriette schönbrunn palace schonbrunn statue" title="Schönbrunn Palace Gloriette" url_b="http://static.flickr.com/2414/1785633310_0d8702a8f5_b.jpg" username="khoogheem" views="35" />
<photo  date_taken="2010-06-07 09:08:00" description="Even on a gray day, this was a remarkable view of the city. Gloriette had excellent apple strudel, too." id="4678116079" latitude="48.178396" license="2" longitude="16.308581" nbComments="0" rank="143" tags="mobile palace schonbrunn vienna" title="Schonbrunn Palace from the Gloriette, Vienna" url_b="http://static.flickr.com/4072/4678116079_423fedef83_b.jpg" username="jamesmelzer" views="31" />
<photo  date_taken="2011-06-28 14:04:21" description="" id="5882682404" latitude="48.178261" license="4" longitude="16.308758" nbComments="0" rank="144" tags="vienna" title="Schonbrunn Palace" url_b="http://static.flickr.com/5154/5882682404_8712243eff_b.jpg" username="Fearless Fred" views="25" />
<photo  date_taken="2009-05-05 11:04:09" description="" id="3934308259" latitude="48.178227" license="3" longitude="16.308791" nbComments="1" rank="145" tags="18105mmf3556gvr austria d90 europe gloriette nikkor nikon nikond90 oesterreich osterreich palace pond reflection schloss schlossschönbrunn schoenbrunn schoenbrunnpalace schonbrunn schonbrunnpalace schönbrunn schönbrunnpalace travel vienna water wien österreich" title="Gloriette" url_b="http://static.flickr.com/2606/3934308259_bed65ab55a_b.jpg" username="wenzday01" views="30" />
<photo  date_taken="2009-05-05 10:38:06" description="" id="4079265814" latitude="48.178227" license="3" longitude="16.308791" nbComments="1" rank="146" tags="18105mmf3556gvr austria d90 europe gloriette nikkor nikon nikond90 oesterreich osterreich palace schloss schlossschönbrunn schoenbrunn schoenbrunnpalace schonbrunn schonbrunnpalace schönbrunn schönbrunnpalace travel vienna wien österreich" title="Glorious Gloriette" url_b="http://static.flickr.com/2773/4079265814_0599e57d4d_b.jpg" username="wenzday01" views="50" />
<photo  date_taken="2011-08-15 11:22:32" description="" id="6096924885" latitude="48.185669" license="1" longitude="16.304733" nbComments="0" rank="147" tags="austria building europe flowers jphoto schonbrunnpalace vienna" title="IMG_0119" url_b="http://static.flickr.com/6077/6096924885_62d14b15c4_b.jpg" username="Chasing Donguri" views="47" />
<photo  date_taken="2005-09-28 14:54:40" description="" id="51130347" latitude="48.1816" license="3" longitude="16.305009" nbComments="0" rank="148" tags="austria vienna schonbrunn palace palmenhouse greenhouse koala zoo" title="Koala no jardim zoológico de Schonbrunn" url_b="http://static.flickr.com/24/51130347_45b38f16c0_b.jpg" username="NunoCardoso" views="42" />
<photo  date_taken="2005-09-28 15:02:02" description="The real thing, not the anti-virus! Picking the teeth, I think..." id="51131154" latitude="48.1816" license="3" longitude="16.305009" nbComments="1" rank="149" tags="austria vienna schonbrunn palace tiergarten zoo zoological garden panda" title="Panda no jardim zoológico de Schonbrunn" url_b="http://static.flickr.com/27/51131154_8972dd8ac3_b.jpg" username="NunoCardoso" views="167" />
<photo  date_taken="2005-09-28 14:55:36" description="" id="51131152" latitude="48.1816" license="3" longitude="16.305009" nbComments="0" rank="150" tags="austria vienna schonbrunn palace tiergarten zoo zoological garden koala" title="Koala no jardim zoológico de Schonbrunn" url_b="http://static.flickr.com/25/51131152_e5ff246586_b.jpg" username="NunoCardoso" views="36" />
</photos>
