<?xml version="1.0" encoding="UTF-8" standalone="no"?>
<photos monument="Spanish Steps">

<photo  date_taken="2012-11-03 07:39:48" description="These children were standing near the bottom of the Spanish Steps -- though you'll just have to take my word for it, given the tightly-cropped nature of the photo. They look somewhat wistful and mournful, but they were just mesmerized by the water fountain located at the base of the Steps. Also, I think they were trying to ignore their parents, who were calling out to them repeatedly from a few feet away... ******************************** I've been lucky enough to visit Rome dozens of times since I first celebrated a solitary birthday there back in 1972. Since then, I've often come alone (usually on business trips to lecture about various aspects of software development), and I've sometimes managed to bring various children and/or my wife. This time, I had the pleasure of bringing along one of my sisters, as a birthday present to commemorate her own first visit to the Eternal City. Ironically, I've only been to a few of the museums and churches in Rome, so my sister had to organize her own visits to places like the Vatican and the Borghese museum -- as well as the Coliseum (which I have seen on a couple of occasions) and several other obligatory tourist sites. But I was able to take her to several of the outdoor &amp;quot;walking around&amp;quot; places that I know, like the Spanish Steps, and Piazza del Popolo, and Campo di'Fiori, and Piazza Navona, and the walk along the river past Castel Sant'Angelo. One reason for taking her to all of these places was their photographic appeal. My sister is a better photographer than I am, and she had a couple good cameras with her, so I wanted to make sure she would see some places that literally cry out to be photographed. Of course, &lt;i&gt;everything&lt;/i&gt; in Rome cries out to be photographed, so I knew that she would have no shortage of subjects to capture with her camera. As for me: well, I decided to leave my big, fancy DSLR at home so that I would not tune out, leave my sister in the lurch, and wander off on my own photographic expedition. Instead, I brought only my Nikon Coolpix P7700 -- which is somewhat bulky (about the size of the Canon G11 and G12, or the earlier Coolpix P7100 and P7000), but still technically a &amp;quot;pocket&amp;quot; camera. Because the camera was still relatively new on this trip, Apple had not yet updated its Aperture photo-processing program to support RAW images .. so I shot everything in JPEG format. I normally shoot &lt;i&gt;thousands&lt;/i&gt; of photos (hence my concern about &amp;quot;tuning out&amp;quot;), from which I select several dozen to upload to Flickr. This time, I shot only a few hundred … from which I selected these dozen for Flickr. Ironically, my two favorites are not the JPEG &amp;quot;still&amp;quot; photos, but rather the video clips that I shot of the starlings swarming above the Tiber River near Castel Sant'Angelo, and of the military marching band that played in the late-afternoon rain in Piazza del Popolo. Maybe I should just leave my camera in video mode on future visits, and see what I can find..." id="8247251212" latitude="41.905982" license="1" longitude="12.482678" nbComments="3" rank="1" tags="romeitaly" title="Rome, Nov 2012 - 01" url_b="http://static.flickr.com/8344/8247251212_9669c5be58_b.jpg" username="Ed Yourdon" views="374" />
<photo  date_taken="2013-02-08 23:57:44" description="So yeah, here is my lame try at street portraits... I don't really have much time to shoot on week days, not to mention sunlight time, so I decided to spend half an hour in the morning on my way to work and maybe half an hour on my lunch break to go shoot people and try to improve my technique. I work 2 minutes from Piazza di Spagna in Rome (Spanish steps) so I basically take advantage of the amount of circulating people there. We shall see what comes from this, can't harm to try. also as they say: if life gives you lemons, make lemonade :) Editing: - B&amp;amp;W conversion using Silver Efex Pro, blue filter on skin for extra texture. - Added structure and detail on face. - Contrast boost (mainly bringing in blacks) - Vignetting and grain. &lt;a href=&quot;http://www.danielezedda.com&quot; rel=&quot;nofollow&quot;&gt;www.danielezedda.com&lt;/a&gt; &lt;a href=&quot;http://www.facebook.com/pages/Daniele-Zedda/519196074777665&quot; rel=&quot;nofollow&quot;&gt;Facebook&lt;/a&gt; &lt;a href=&quot;https://plus.google.com/u/0/104338129408985381851/posts&quot; rel=&quot;nofollow&quot;&gt;Google+&lt;/a&gt; &lt;a href=&quot;https://twitter.com/DanieleZedda&quot; rel=&quot;nofollow&quot;&gt;Twitter&lt;/a&gt; &lt;a href=&quot;http://500px.com/Astragony&quot; rel=&quot;nofollow&quot;&gt;500px&lt;/a&gt; &lt;a href=&quot;http://pinterest.com/danielezedda/&quot; rel=&quot;nofollow&quot;&gt;Pinterest&lt;/a&gt;" id="8457302834" latitude="41.90595" license="4" longitude="12.482786" nbComments="10" rank="2" tags="nikon d600 50mm 18g street candid portrait grayscale rome barcaccia spagna spanish steps old man gray white hair face grin worry blur bokeh grain 3d" title="Bahamas" url_b="http://static.flickr.com/8517/8457302834_a032a8b5aa_b.jpg" username="Daniele Zedda" views="318" />
<photo  date_taken="2012-06-27 23:28:02" description="" id="7998366794" latitude="41.905997" license="2" longitude="12.4828" nbComments="0" rank="3" tags="taly rome 2012" title="Taking photos of people getting their photo taken on the Spanish Steps." url_b="http://static.flickr.com/8313/7998366794_ebe31be714_b.jpg" username="urban_lenny" views="6" />
<photo  date_taken="2009-10-04 09:36:15" description="" id="4036090904" latitude="41.905998" license="1" longitude="12.4828" nbComments="0" rank="4" tags="" title="Band at the Spanish Steps" url_b="http://static.flickr.com/2717/4036090904_e0f9b27abd_b.jpg" username="Graham Tait" views="1" />
<photo  date_taken="2010-05-03 12:16:09" description="Pictures taken in May 2010 @ Rome, IT. Near Spanish Steps (or on it)" id="4642720359" latitude="41.905998" license="4" longitude="12.4828" nbComments="0" rank="5" tags="europa europe ferias landscapes paisagem roma rome spanishsteps vacations villaborguese" title="" url_b="http://static.flickr.com/4003/4642720359_2856abdf66_b.jpg" username="@raulds" views="21" />
<photo  date_taken="2010-05-03 12:27:47" description="Pictures taken in May 2010 @ Rome, IT. Near Spanish Steps (or on it)" id="4643336072" latitude="41.905998" license="4" longitude="12.4828" nbComments="0" rank="6" tags="europa europe ferias landscapes paisagem roma rome spanishsteps vacations vilaborguese" title="" url_b="http://static.flickr.com/3378/4643336072_81dd61d98d_b.jpg" username="@raulds" views="11" />
<photo  date_taken="2010-05-03 12:25:26" description="Pictures taken in May 2010 @ Rome, IT. Near Spanish Steps (or on it)" id="4642722215" latitude="41.905998" license="4" longitude="12.4828" nbComments="0" rank="7" tags="europa europe ferias landscapes paisagem roma rome spanishsteps vacations vilaborguese" title="" url_b="http://static.flickr.com/4059/4642722215_cdcc2c9e2c_b.jpg" username="@raulds" views="24" />
<photo  date_taken="2010-05-03 12:12:01" description="Pictures taken in May 2010 @ Rome, IT. Near Spanish Steps (or on it)" id="4642719193" latitude="41.905998" license="4" longitude="12.4828" nbComments="0" rank="8" tags="europa europe ferias landscapes paisagem roma rome spanishsteps vacations villaborguese" title="" url_b="http://static.flickr.com/4050/4642719193_16d5a73358_b.jpg" username="@raulds" views="10" />
<photo  date_taken="2012-03-26 17:36:07" description="" id="7113433365" latitude="41.905998" license="4" longitude="12.4828" nbComments="0" rank="9" tags="" title="Rome   Spanish Steps" url_b="http://static.flickr.com/7133/7113433365_09aaa66f3f_b.jpg" username="Ladycliff" views="12" />
<photo  date_taken="2010-05-03 12:23:05" description="Pictures taken in May 2010 @ Rome, IT. Near Spanish Steps (or on it)" id="4643334976" latitude="41.905998" license="4" longitude="12.4828" nbComments="0" rank="10" tags="europa europe ferias landscapes paisagem roma rome spanishsteps vacations vilaborguese" title="" url_b="http://static.flickr.com/4014/4643334976_b11735a563_b.jpg" username="@raulds" views="11" />
<photo  date_taken="2009-07-26 01:55:33" description="[Lamppost Silhouette] A shot that caught my eye on the way to the top." id="3977958682" latitude="41.906081" license="3" longitude="12.482694" nbComments="2" rank="11" tags="denisgiles canon powershots3 rome roma lazio italy italia piazza spagna spanish steps church trinitàdeimonti stairs" title="lampione sagoma" url_b="http://static.flickr.com/2552/3977958682_39325131e7_b.jpg" username="DenisGiles" views="73" />
<photo  date_taken="2009-07-24 05:47:48" description="Although it's really just a huge staircase, the Spanish Steps is still a sight to be seen." id="3910758757" latitude="41.906081" license="3" longitude="12.482694" nbComments="1" rank="12" tags="denisgiles canon powershots3 rome roma lazio italy italia spanish steps travel tourism landmark" title="Spanish Steps Detail" url_b="http://static.flickr.com/2491/3910758757_bfac13090a_b.jpg" username="DenisGiles" views="40" />
<photo  date_taken="2011-03-11 08:25:09" description="" id="5529087466" latitude="41.906" license="4" longitude="12.482833" nbComments="0" rank="13" tags="march11th2011 piazzadispagna spanishsteps" title="" url_b="http://static.flickr.com/5296/5529087466_418df1ddf8_b.jpg" username="sunshinecity" views="46" />
<photo  date_taken="2007-09-01 10:02:54" description="" id="1335680681" latitude="41.906045" license="4" longitude="12.482603" nbComments="0" rank="14" tags="rome kim spanishsteps" title="Spanish Steps" url_b="http://static.flickr.com/1216/1335680681_62cbeee5b7_b.jpg" username="timatymusic" views="44" />
<photo  date_taken="2007-09-01 10:03:26" description="" id="1336560142" latitude="41.906045" license="4" longitude="12.482603" nbComments="0" rank="15" tags="rome tim spanishsteps rose" title="Spanish Steps" url_b="http://static.flickr.com/1154/1336560142_2422f5c279_b.jpg" username="timatymusic" views="40" />
<photo  date_taken="2007-09-01 10:00:50" description="" id="1335683719" latitude="41.906045" license="4" longitude="12.482603" nbComments="0" rank="16" tags="rome spanishsteps" title="Spanish Steps" url_b="http://static.flickr.com/1404/1335683719_66822ddef8_b.jpg" username="timatymusic" views="28" />
<photo  date_taken="2007-09-01 10:03:20" description="" id="1336562576" latitude="41.906045" license="4" longitude="12.482603" nbComments="0" rank="17" tags="rome tim spanishsteps" title="Spanish Steps" url_b="http://static.flickr.com/1404/1336562576_fea58c4889_b.jpg" username="timatymusic" views="38" />
<photo  date_taken="2011-06-09 10:15:25" description="Enjoying the beautiful sunshine.. people relaxing, laughing and having a good time.. a great place to be.. the whole world is around you here.." id="5883034558" latitude="41.906121" license="3" longitude="12.482764" nbComments="4" rank="18" tags="rome spanishsteps thespanishsteps piazzadispagna italy roma italia italie city urban stad stedelijke centrum people" title="The Spanish Steps" url_b="http://static.flickr.com/6044/5883034558_4ee2307043_b.jpg" username="caribb" views="143" />
<photo  date_taken="2008-10-26 16:42:19" description="" id="2994297265" latitude="41.906125" license="5" longitude="12.482786" nbComments="2" rank="19" tags="italy italia nikon d300 1755mm europe rome roma europa" title="Spanish Steps, Rome" url_b="http://static.flickr.com/3290/2994297265_8d8aa080ec_b.jpg" username="Michal Osmenda" views="112" />
<photo  date_taken="2008-04-19 09:22:08" description="" id="2460258444" latitude="41.905982" license="3" longitude="12.482721" nbComments="2" rank="20" tags="spanishsteps piazzadispagna rome italy flower" title="Spanish Steps" url_b="http://static.flickr.com/2245/2460258444_b3b8b3d187_b.jpg" username="Dmitry Shakin" views="40" />
<photo  date_taken="2011-08-09 12:33:29" description="" id="6053680991" latitude="41.90601" license="1" longitude="12.482743" nbComments="0" rank="21" tags="rome roma piazzadispagna spanishsteps francescodisanctis alessandrospecchi" title="rome - spanish steps" url_b="http://static.flickr.com/6065/6053680991_26b0643871_b.jpg" username="drencrome" views="7" />
<photo  date_taken="2009-04-07 15:04:34" description="" id="3475737113" latitude="41.905983" license="1" longitude="12.482683" nbComments="0" rank="22" tags="rome spanishsteps scalinatadellatrinitàdeimonti piazzadispagna" title="DSC00981" url_b="http://static.flickr.com/3342/3475737113_060fe9f3d7_b.jpg" username="garyjbath" views="10" />
<photo  date_taken="2002-01-19 16:09:38" description="&lt;a href=&quot;http://maps.google.com?q=41.906014057521375,12.482759356498718(DSC00227)&amp;amp;t=h&quot;&gt;Spanish Steps&lt;/a&gt; &lt;a href=&quot;http://www.flickr.com/groups/geotagging/discuss/72157594165549916/&quot;&gt;[?]&lt;/a&gt;" id="219341309" latitude="41.906014" license="1" longitude="12.482759" nbComments="0" rank="23" tags="italy rome geo:lat=41906014 geo:lon=12482759 geotagged" title="DSC00227" url_b="http://static.flickr.com/68/219341309_952773cade_b.jpg" username="moomoobloo" views="10" />
<photo  date_taken="2006-10-10 10:12:45" description="Rome, Italy" id="391347253" latitude="41.906014" license="3" longitude="12.48277" nbComments="8" rank="24" tags="italy travel roma rome spanishsteps italia bw blackandwhite canonef1740mmf4lusm canoneos5d flickrchallengegroup" title="Rome: Spanish Steps - BW" url_b="http://static.flickr.com/181/391347253_55e9cf6301_b.jpg" username="discopalace" views="134" />
<photo  date_taken="2006-10-10 10:12:08" description="Rome, Italy" id="391347225" latitude="41.906014" license="3" longitude="12.48277" nbComments="4" rank="25" tags="italy travel roma rome spanishsteps italia canonef1740mmf4lusm canoneos5d flickrchallengegroup flickrchallengewinner" title="Rome: Spanish Steps" url_b="http://static.flickr.com/115/391347225_5a9e59a9fe_b.jpg" username="discopalace" views="196" />
<photo  date_taken="2005-01-01 19:14:45" description="Spanish Steps" id="6660872825" latitude="41.905966" license="1" longitude="12.482775" nbComments="0" rank="26" tags="italy rome roma" title="Scalinata della Trinità dei Monti" url_b="http://static.flickr.com/7004/6660872825_530b8ca8df_b.jpg" username="JamesGWitman" views="9" />
<photo  date_taken="2011-04-01 23:46:16" description="" id="5588360252" latitude="41.906049" license="1" longitude="12.482727" nbComments="0" rank="27" tags="roma" title="Piazza di Spagna (Spanish steps)" url_b="http://static.flickr.com/5060/5588360252_4575c6ba6b_b.jpg" username="Steinar Johnsen" views="18" />
<photo  date_taken="2010-11-13 04:31:49" description="Sunset over Rome's Spanish Steps and Piazza di Spagna, with Michelangelo's dome of St Peter's providing the backdrop. Shot is straight out of the camera." id="5169926552" latitude="41.906041" license="4" longitude="12.482688" nbComments="5" rank="28" tags="canonef24105mmf4lisusm rome stpeters sunset canon spanishsteps 500d" title="Spanish Sunset" url_b="http://static.flickr.com/4149/5169926552_561ddafe46_b.jpg" username="Scott Cresswell" views="202" />
<photo  date_taken="2012-03-21 10:37:51" description="Rome" id="6856669536" latitude="41.905922" license="5" longitude="12.482732" nbComments="1" rank="29" tags="piazzadispagna roma rome thespanishsteps trinitàdeimonti" title="" url_b="http://static.flickr.com/6231/6856669536_f237c04693_b.jpg" username="Roberto_Ventre" views="63" />
<photo  date_taken="2010-05-04 16:09:39" description="Pictures taken in May 2010 @ Rome, IT. Near Spanish Steps (or on it)" id="4643346738" latitude="41.905998" license="4" longitude="12.4828" nbComments="0" rank="30" tags="europa europe ferias landscapes paisagem roma rome spanishsteps vacations villaborguese" title="" url_b="http://static.flickr.com/3345/4643346738_4eae155570_b.jpg" username="@raulds" views="18" />
<photo  date_taken="2010-05-03 12:18:28" description="Pictures taken in May 2010 @ Rome, IT. Near Spanish Steps (or on it)" id="4642720711" latitude="41.905998" license="4" longitude="12.4828" nbComments="0" rank="31" tags="europa europe ferias landscapes paisagem roma rome spanishsteps vacations vilaborguese" title="" url_b="http://static.flickr.com/3303/4642720711_e36334d207_b.jpg" username="@raulds" views="22" />
<photo  date_taken="2010-05-03 12:18:56" description="Pictures taken in May 2010 @ Rome, IT. Near Spanish Steps (or on it)" id="4642721113" latitude="41.905998" license="4" longitude="12.4828" nbComments="0" rank="32" tags="europa europe ferias landscapes paisagem roma rome spanishsteps vacations vilaborguese" title="" url_b="http://static.flickr.com/4053/4642721113_8edfb1c570_b.jpg" username="@raulds" views="17" />
<photo  date_taken="2008-09-22 13:17:23" description="" id="3078750295" latitude="41.905911" license="2" longitude="12.482737" nbComments="0" rank="33" tags="" title="Spanish Steps 25" url_b="http://static.flickr.com/3195/3078750295_5c5cc8059c_b.jpg" username="TechSavi" views="0" />
<photo  date_taken="2008-10-17 10:23:03" description="&lt;b&gt;Italy 2008, Day 21 of 21: Rome&lt;/b&gt;" id="3221829802" latitude="41.905922" license="1" longitude="12.482766" nbComments="0" rank="34" tags="d80 italy nikon roma rome tamron1750f28 vacation" title="spanish steps" url_b="http://static.flickr.com/3412/3221829802_163bc791e3_b.jpg" username="tonyduckles" views="10" />
<photo  date_taken="2005-05-18 15:40:48" description="" id="18150893" latitude="41.906069" license="3" longitude="12.482689" nbComments="0" rank="35" tags="italy europe aroundtheworld rome 2005 spanishsteps" title="Spanish Steps" url_b="http://static.flickr.com/13/18150893_e01c3d2b90_b.jpg" username="scot2342" views="50" />
<photo  date_taken="2005-05-18 15:40:20" description="" id="63700152" latitude="41.906069" license="3" longitude="12.482689" nbComments="0" rank="36" tags="italy europe rome aroundtheworld 2005" title="Spanish Steps" url_b="http://static.flickr.com/32/63700152_ec3bae5b05_b.jpg" username="scot2342" views="22" />
<photo  date_taken="2012-11-23 13:28:07" description="" id="8362410637" latitude="41.906069" license="2" longitude="12.482689" nbComments="0" rank="37" tags="rome eurotrip italy night spanishsteps spanish steps piazzadispagna piazza" title="Spanish Steps steps" url_b="http://static.flickr.com/8233/8362410637_a154b5393d_b.jpg" username="Scott SM" views="6" />
<photo  date_taken="2005-06-14 19:23:40" description="" id="19365761" latitude="41.906069" license="3" longitude="12.482689" nbComments="1" rank="38" tags="aroundtheworld europe panorama rome italy 2005" title="Spanish Steps" url_b="http://static.flickr.com/17/19365761_a98b5540d4_b.jpg" username="scot2342" views="60" />
<photo  date_taken="2011-10-17 14:53:06" description="" id="6714233739" latitude="41.90601" license="4" longitude="12.482635" nbComments="0" rank="39" tags="tourism population italy geography culture 365" title="Looking onto Piazza di Spagna from the 'Spanish Steps', Rome, Italy" url_b="http://static.flickr.com/7025/6714233739_661206676d_b.jpg" username="geographyalltheway.com" views="70" />
<photo  date_taken="2008-09-22 13:16:57" description="" id="3079584110" latitude="41.905903" license="2" longitude="12.482742" nbComments="0" rank="40" tags="" title="Spanish Steps 24" url_b="http://static.flickr.com/3137/3079584110_c58cacd88f_b.jpg" username="TechSavi" views="0" />
<photo  date_taken="2010-09-30 18:08:43" description="At dusk. Like I've been saying, feedback and tips appreciated, regarding the HDR." id="5086181324" latitude="41.906053" license="2" longitude="12.482786" nbComments="0" rank="41" tags="vacation trip rome italy roma italia hdr" title="On the top of the Spanish Steps (or Scalinata della Trinità dei Monti) [HDR]" url_b="http://static.flickr.com/4125/5086181324_24e472a45d_b.jpg" username="andré.luís" views="17" />
<photo  date_taken="2010-09-30 18:03:44" description="" id="5086181052" latitude="41.906053" license="2" longitude="12.482786" nbComments="0" rank="42" tags="vacation trip rome italy roma italia" title="View from the Spanish Steps (or Scalinata della Trinità dei Monti)" url_b="http://static.flickr.com/4153/5086181052_a23bdc6d40_b.jpg" username="andré.luís" views="15" />
<photo  date_taken="2010-09-30 17:59:45" description="The translation is a bit off, imho... but ok. :) Crowded as hell, pun intended." id="5086180666" latitude="41.906053" license="2" longitude="12.482786" nbComments="0" rank="43" tags="vacation trip rome italy roma italia" title="Spanish Steps (or Scalinata della Trinità dei Monti)" url_b="http://static.flickr.com/4107/5086180666_147cc10d59_b.jpg" username="andré.luís" views="11" />
<photo  date_taken="2008-10-17 10:25:43" description="&lt;b&gt;Italy 2008, Day 21 of 21: Rome&lt;/b&gt;" id="3221834956" latitude="41.905913" license="1" longitude="12.482772" nbComments="0" rank="44" tags="d80 italy nikon roma rome tamron1750f28 vacation" title="meg + spanish steps" url_b="http://static.flickr.com/3517/3221834956_f593b5e3bc_b.jpg" username="tonyduckles" views="16" />
<photo  date_taken="2008-09-21 12:40:07" description="" id="2910122256" latitude="41.906045" license="1" longitude="12.482646" nbComments="5" rank="45" tags="rome trinitàdeimonti pinciohill spanishsteps blackwhite romance pedestrianartist couple" title="Charm and Bold" url_b="http://static.flickr.com/3113/2910122256_75786f6dac_b.jpg" username="parseha" views="56" />
<photo  date_taken="2007-09-04 12:38:42" description="Spanish Steps" id="1420471717" latitude="41.906081" license="4" longitude="12.482742" nbComments="0" rank="46" tags="rome italy geotagged spanish steps" title="Rome, Italy" url_b="http://static.flickr.com/1220/1420471717_64d20466c8_b.jpg" username="BellaBim" views="38" />
<photo  date_taken="2008-10-17 10:23:53" description="&lt;b&gt;Italy 2008, Day 21 of 21: Rome&lt;/b&gt;" id="3220980153" latitude="41.90593" license="1" longitude="12.482794" nbComments="0" rank="47" tags="d80 italy nikon roma rome tamron1750f28 vacation" title="spanish steps" url_b="http://static.flickr.com/3485/3220980153_ddfefc5858_b.jpg" username="tonyduckles" views="13" />
<photo  date_taken="2009-07-24 05:47:29" description="If you haven't read it before in my photo descriptions, it is very very hot in Italy in July. To help, there are street venders selling the umbrella that my wife is holding. It pretty much labels you as a tourist and makes you a bit of a target. The umbrella are obviously made cheaply, since it was pretty much falling apart by the end of the week so we just left there. This is half way up the Spanish Steps." id="3910758607" latitude="41.906081" license="3" longitude="12.482694" nbComments="0" rank="48" tags="denisgiles canon powershots3 rome roma lazio italy italia spanish steps travel tourism landmark umbrella lightpost lamppost" title="Tourist Umbrella" url_b="http://static.flickr.com/3514/3910758607_706a6a15c5_b.jpg" username="DenisGiles" views="55" />
<photo  date_taken="2009-07-26 01:55:33" description="[The Old Look] I thought the previous photo would look good with some old style applied to it. I think I like this version better. You?" id="3977196317" latitude="41.906081" license="3" longitude="12.482694" nbComments="1" rank="49" tags="denisgiles canon powershots3 rome roma lazio italy italia piazza spagna spanish steps church trinitàdeimonti stairs" title="Il Vecchio Look" url_b="http://static.flickr.com/2501/3977196317_a7716b740f_b.jpg" username="DenisGiles" views="61" />
<photo  date_taken="2008-06-22 07:01:29" description="" id="2680779769" latitude="41.906085" license="1" longitude="12.482732" nbComments="0" rank="50" tags="" title="SPANISH STEPS - CITY OF ROME" url_b="http://static.flickr.com/3061/2680779769_661d5d82a5_b.jpg" username="jdudley" views="0" />
<photo  date_taken="2008-06-22 07:09:38" description="" id="2680791617" latitude="41.906085" license="1" longitude="12.482732" nbComments="0" rank="51" tags="" title="SPANISH STEPS - CITY OF ROME" url_b="http://static.flickr.com/3133/2680791617_e0e3d8958f_b.jpg" username="jdudley" views="4" />
<photo  date_taken="2008-06-22 07:01:10" description="" id="2681595480" latitude="41.906085" license="1" longitude="12.482732" nbComments="0" rank="52" tags="" title="SPANISH STEPS - CITY OF ROME" url_b="http://static.flickr.com/3163/2681595480_63df5a8631_b.jpg" username="jdudley" views="3" />
<photo  date_taken="2008-06-22 07:06:39" description="" id="2680784321" latitude="41.906085" license="1" longitude="12.482732" nbComments="0" rank="53" tags="" title="SPANISH STEPS - CITY OF ROME" url_b="http://static.flickr.com/3021/2680784321_88a558bf67_b.jpg" username="jdudley" views="0" />
<photo  date_taken="2008-06-22 07:04:26" description="" id="2680781997" latitude="41.906085" license="1" longitude="12.482732" nbComments="0" rank="54" tags="" title="SPANISH STEPS - CITY OF ROME" url_b="http://static.flickr.com/3148/2680781997_d0697ce0ac_b.jpg" username="jdudley" views="0" />
<photo  date_taken="2008-06-22 07:07:41" description="" id="2680788099" latitude="41.906085" license="1" longitude="12.482732" nbComments="0" rank="55" tags="" title="SPANISH STEPS - CITY OF ROME" url_b="http://static.flickr.com/3106/2680788099_5db44c5d0a_b.jpg" username="jdudley" views="2" />
<photo  date_taken="2008-06-22 07:07:55" description="" id="2681607528" latitude="41.906085" license="1" longitude="12.482732" nbComments="0" rank="56" tags="" title="SPANISH STEPS - CITY OF ROME" url_b="http://static.flickr.com/3068/2681607528_ec404c73fe_b.jpg" username="jdudley" views="4" />
<photo  date_taken="2008-06-22 06:59:55" description="" id="2681593420" latitude="41.906085" license="1" longitude="12.482732" nbComments="0" rank="57" tags="" title="SPANISH STEPS - CITY OF ROME" url_b="http://static.flickr.com/3003/2681593420_bef716619b_b.jpg" username="jdudley" views="4" />
<photo  date_taken="2008-06-22 06:56:31" description="" id="2681589574" latitude="41.906085" license="1" longitude="12.482732" nbComments="0" rank="58" tags="" title="SPANISH STEPS - CITY OF ROME" url_b="http://static.flickr.com/3002/2681589574_bd4f115ef5_b.jpg" username="jdudley" views="2" />
<photo  date_taken="2008-06-22 06:57:58" description="" id="2680773823" latitude="41.906085" license="1" longitude="12.482732" nbComments="0" rank="59" tags="" title="SPANISH STEPS - CITY OF ROME" url_b="http://static.flickr.com/3244/2680773823_33e00d827a_b.jpg" username="jdudley" views="1" />
<photo  date_taken="2008-06-22 07:10:30" description="" id="2681611022" latitude="41.906085" license="1" longitude="12.482732" nbComments="0" rank="60" tags="" title="SPANISH STEPS - CITY OF ROME" url_b="http://static.flickr.com/3255/2681611022_e99a2f3df4_b.jpg" username="jdudley" views="2" />
<photo  date_taken="2008-06-22 07:06:55" description="" id="2680786231" latitude="41.906085" license="1" longitude="12.482732" nbComments="0" rank="61" tags="" title="SPANISH STEPS - CITY OF ROME" url_b="http://static.flickr.com/3230/2680786231_1924a0d1a8_b.jpg" username="jdudley" views="10" />
<photo  date_taken="2008-09-22 13:14:32" description="" id="3079583912" latitude="41.905892" license="2" longitude="12.482704" nbComments="0" rank="62" tags="" title="Spanish Steps 22" url_b="http://static.flickr.com/3206/3079583912_d64430b86f_b.jpg" username="TechSavi" views="2" />
<photo  date_taken="2007-09-15 10:37:50" description="" id="2297966260" latitude="41.905994" license="1" longitude="12.482829" nbComments="0" rank="63" tags="2007 italy rome spanishsteps" title="P1010896" url_b="http://static.flickr.com/3018/2297966260_1a67ff0a33_b.jpg" username="airminded" views="2" />
<photo  date_taken="2007-09-15 10:31:17" description="" id="2297938794" latitude="41.905994" license="1" longitude="12.482829" nbComments="0" rank="64" tags="2007 italy rome spanishsteps" title="P1010886" url_b="http://static.flickr.com/3204/2297938794_a33ff1311e_b.jpg" username="airminded" views="3" />
<photo  date_taken="2007-09-15 10:36:48" description="" id="2297943356" latitude="41.905994" license="1" longitude="12.482829" nbComments="0" rank="65" tags="2007 italy rome spanishsteps" title="P1010895" url_b="http://static.flickr.com/3076/2297943356_cc7ee8a75c_b.jpg" username="airminded" views="1" />
<photo  date_taken="2007-09-15 10:34:21" description="" id="2297147633" latitude="41.905994" license="1" longitude="12.482829" nbComments="0" rank="66" tags="2007 italy rome spanishsteps" title="P1010891" url_b="http://static.flickr.com/3086/2297147633_32bafdcc68_b.jpg" username="airminded" views="1" />
<photo  date_taken="2007-09-15 10:32:37" description="" id="2297146069" latitude="41.905994" license="1" longitude="12.482829" nbComments="0" rank="67" tags="2007 italy rome spanishsteps" title="P1010888" url_b="http://static.flickr.com/3184/2297146069_28ffaf0385_b.jpg" username="airminded" views="1" />
<photo  date_taken="2007-09-15 10:32:09" description="" id="2297939354" latitude="41.905994" license="1" longitude="12.482829" nbComments="0" rank="68" tags="2007 italy rome spanishsteps" title="P1010887" url_b="http://static.flickr.com/3057/2297939354_be5bf55fec_b.jpg" username="airminded" views="1" />
<photo  date_taken="2007-09-15 10:35:41" description="" id="2297942944" latitude="41.905994" license="1" longitude="12.482829" nbComments="0" rank="69" tags="2007 italy rome spanishsteps" title="P1010894" url_b="http://static.flickr.com/3169/2297942944_f06f7bb5c7_b.jpg" username="airminded" views="3" />
<photo  date_taken="2007-09-15 10:32:46" description="" id="2297146611" latitude="41.905994" license="1" longitude="12.482829" nbComments="0" rank="70" tags="2007 italy rome spanishsteps" title="P1010889" url_b="http://static.flickr.com/3221/2297146611_fe578cd32a_b.jpg" username="airminded" views="1" />
<photo  date_taken="2007-09-15 10:33:20" description="" id="2297940888" latitude="41.905994" license="1" longitude="12.482829" nbComments="0" rank="71" tags="2007 italy rome spanishsteps" title="P1010890" url_b="http://static.flickr.com/3183/2297940888_5809c0baa2_b.jpg" username="airminded" views="2" />
<photo  date_taken="2005-06-18 11:39:34" description="Alex &amp;amp; Adam on Spanish Steps" id="20599468" latitude="41.906085" license="3" longitude="12.482775" nbComments="0" rank="72" tags="ge eurotrip 2005 johnnyr rosenberg" title="ET_R1_3 (Small)" url_b="http://static.flickr.com/17/20599468_646d07b3a7_b.jpg" username="jrrosenberg" views="19" />
<photo  date_taken="2005-06-18 11:39:28" description="View from the top of the Spanish Steps" id="20599477" latitude="41.906085" license="3" longitude="12.482775" nbComments="0" rank="73" tags="ge eurotrip 2005 johnnyr rosenberg" title="ET_R1_5 (Small)" url_b="http://static.flickr.com/16/20599477_c883ff43a7_b.jpg" username="jrrosenberg" views="25" />
<photo  date_taken="2005-06-18 11:39:19" description="The Spanish Steps" id="20599484" latitude="41.906085" license="3" longitude="12.482775" nbComments="0" rank="74" tags="ge eurotrip 2005 johnnyr rosenberg" title="ET_R1_7 (Small)" url_b="http://static.flickr.com/17/20599484_27a7b00dd0_b.jpg" username="jrrosenberg" views="21" />
<photo  date_taken="2005-06-18 11:39:32" description="Brandon, Adam, Alex, Amy, &amp;amp; Lauren at Spanish Steps" id="20599473" latitude="41.906085" license="3" longitude="12.482775" nbComments="0" rank="75" tags="ge eurotrip 2005 johnnyr rosenberg" title="ET_R1_4 (Small)" url_b="http://static.flickr.com/16/20599473_015f74430f_b.jpg" username="jrrosenberg" views="54" />
<photo  date_taken="2005-06-18 11:39:26" description="A Hotel Courtyard near Spanish Steps" id="20599481" latitude="41.906085" license="3" longitude="12.482775" nbComments="0" rank="76" tags="ge eurotrip 2005 johnnyr rosenberg" title="ET_R1_6 (Small)" url_b="http://static.flickr.com/16/20599481_38b21bc93d_b.jpg" username="jrrosenberg" views="26" />
<photo  date_taken="2010-02-17 23:04:21" description="" id="4434229823" latitude="41.905922" license="5" longitude="12.482635" nbComments="0" rank="77" tags="daytime europe italy lazio night piazzadispagna places roma rome silhouette spanishsquare spanishsteps styles" title="IMGP5581" url_b="http://static.flickr.com/4050/4434229823_40ca94dfde_b.jpg" username="unhappy by design" views="10" />
<photo  date_taken="2008-10-17 10:24:27" description="&lt;b&gt;Italy 2008, Day 21 of 21: Rome&lt;/b&gt;" id="3220981827" latitude="41.905961" license="1" longitude="12.482827" nbComments="0" rank="78" tags="d80 italy nikon roma rome tamron1750f28 vacation" title="spanish steps" url_b="http://static.flickr.com/3429/3220981827_ceeafc5498_b.jpg" username="tonyduckles" views="7" />
<photo  date_taken="2007-03-27 18:07:25" description="birds" id="456524536" latitude="41.906101" license="2" longitude="12.482711" nbComments="0" rank="79" tags="europe rome spanishsteps" title="Spanish Steps" url_b="http://static.flickr.com/189/456524536_dc27678b30_b.jpg" username="samk" views="11" />
<photo  date_taken="2007-03-27 17:59:31" description="looking down" id="456523526" latitude="41.906101" license="2" longitude="12.482711" nbComments="0" rank="80" tags="europe rome spanishsteps" title="Spanish Steps" url_b="http://static.flickr.com/180/456523526_6dc9033f47_b.jpg" username="samk" views="13" />
<photo  date_taken="2007-03-27 18:02:03" description="" id="456539775" latitude="41.906101" license="2" longitude="12.482711" nbComments="0" rank="81" tags="europe rome spanishsteps" title="View from Spanish Steps" url_b="http://static.flickr.com/187/456539775_326241a260_b.jpg" username="samk" views="20" />
<photo  date_taken="2007-03-27 18:12:03" description="from the top of the Spanish Steps" id="456540767" latitude="41.906101" license="2" longitude="12.482711" nbComments="0" rank="82" tags="europe rome spanishsteps" title="Via Condotti" url_b="http://static.flickr.com/218/456540767_0aca6fb617_b.jpg" username="samk" views="21" />
<photo  date_taken="2007-03-27 17:51:47" description="" id="456520666" latitude="41.906101" license="2" longitude="12.482711" nbComments="0" rank="83" tags="europe rome spanishsteps" title="Spanish Steps" url_b="http://static.flickr.com/225/456520666_a47a03d881_b.jpg" username="samk" views="9" />
<photo  date_taken="2008-10-26 14:27:51" description="Not my best work, alas." id="3015762616" latitude="41.906082" license="1" longitude="12.482657" nbComments="0" rank="84" tags="rome italy" title="Obligatory panorama: Spanish Steps" url_b="http://static.flickr.com/3137/3015762616_d99b5d93f3_b.jpg" username="wfbakker2" views="8" />
<photo  date_taken="2008-10-26 14:19:01" description="on the Spanish Steps. It was good to catch some rays and relax for a bit. We decided not to climb the stairs. It is bigger than it looks in the photos!" id="3015076643" latitude="41.906082" license="1" longitude="12.482657" nbComments="0" rank="85" tags="rome italy" title="Obligatory timer photo" url_b="http://static.flickr.com/3153/3015076643_d32ed95586_b.jpg" username="wfbakker2" views="13" />
<photo  date_taken="2008-10-26 14:13:28" description="Ah! We were just a few dozen metres from the Spanish Steps! So we must have been watching tourists, local shoppers in the nearby high-end district, and workers, of course." id="3014959105" latitude="41.906082" license="1" longitude="12.482657" nbComments="0" rank="86" tags="rome italy spanishsteps" title="The Spanish Steps" url_b="http://static.flickr.com/3192/3014959105_5bd9359482_b.jpg" username="wfbakker2" views="12" />
<photo  date_taken="2009-10-04 09:52:09" description="" id="4035341823" latitude="41.906" license="1" longitude="12.482833" nbComments="0" rank="87" tags="" title="Church at the top of the Spanish Steps" url_b="http://static.flickr.com/2580/4035341823_1262c2d403_b.jpg" username="Graham Tait" views="1" />
<photo  date_taken="2010-03-24 17:31:24" description="Sunset from the top of the Spanish Steps, Rome (2010) (Experiment with HDR post-processing.)" id="4696114406" latitude="41.906065" license="1" longitude="12.482635" nbComments="0" rank="88" tags="2010 rome hdr sunset" title="Roman sunset" url_b="http://static.flickr.com/4011/4696114406_079c0f6b9f_b.jpg" username="njj4" views="16" />
<photo  date_taken="2011-02-17 12:20:50" description="" id="5778565733" latitude="41.905943" license="3" longitude="12.482826" nbComments="0" rank="89" tags="5d canon church eos italy obelisk rome spanishsteps lazio" title="Flower seller at the Spanish Steps looks hopefully in our direction." url_b="http://static.flickr.com/5149/5778565733_bc606f9d8b_b.jpg" username="William Bereza" views="20" />
<photo  date_taken="2011-02-17 12:19:13" description="" id="5778564755" latitude="41.905943" license="3" longitude="12.482826" nbComments="0" rank="90" tags="5d canon eos italy rome spanishsteps lazio" title="Begging on the Spanish Steps." url_b="http://static.flickr.com/3242/5778564755_c07cd45432_b.jpg" username="William Bereza" views="5" />
<photo  date_taken="2006-10-13 13:10:46" description="" id="292041014" latitude="41.906093" license="3" longitude="12.482668" nbComments="0" rank="91" tags="italy rome" title="Crowds at the Spanish Steps" url_b="http://static.flickr.com/106/292041014_42129b26f7_b.jpg" username="~YYY" views="9" />
<photo  date_taken="2007-06-27 13:28:17" description="This photo was taken at the &lt;a href=&quot;http://en.wikipedia.org/wiki/Spanish_Steps&quot;&gt;Spanish Steps&lt;/a&gt;, Rome, Italy. The thing in the middle, that you cannot see, is an obelisk, as it was being restored." id="696675177" latitude="41.906013" license="5" longitude="12.482836" nbComments="0" rank="92" tags="dscv1 rome italy spanishsteps church obelisk construction" title="Obelisk" url_b="http://static.flickr.com/1341/696675177_cc953a60b6_b.jpg" username="ZeroOne" views="233" />
<photo  date_taken="2008-09-22 13:15:31" description="" id="3078750115" latitude="41.905878" license="2" longitude="12.482762" nbComments="0" rank="93" tags="" title="Spanish Steps 23" url_b="http://static.flickr.com/3204/3078750115_5a571a5081_b.jpg" username="TechSavi" views="0" />
<photo  date_taken="2012-10-29 17:44:32" description="" id="8147733031" latitude="41.906091" license="3" longitude="12.482791" nbComments="0" rank="94" tags="rome panorama spanishsteps spaansetrappen" title="_DSC0665" url_b="http://static.flickr.com/8469/8147733031_0d509e6337_b.jpg" username="robertdebruijn" views="9" />
<photo  date_taken="2012-07-19 17:26:03" description="" id="8456360025" latitude="41.905918" license="1" longitude="12.482621" nbComments="1" rank="95" tags="church italy rome people spanishsteps" title="Spanish Steps" url_b="http://static.flickr.com/8367/8456360025_0bf5717d82_b.jpg" username="djking" views="42" />
<photo  date_taken="2006-08-01 00:00:00" description="" id="268909831" latitude="41.906069" license="3" longitude="12.482625" nbComments="0" rank="96" tags="rome italy" title="View from Spanish Steps" url_b="http://static.flickr.com/95/268909831_334112c481_b.jpg" username="manyhighways" views="31" />
<photo  date_taken="2007-09-20 17:54:02" description="We went to the Spanish steps in the evening after having been to the Vatican. They were a bit dissapointing, though, I thought they would be larger." id="1488335520" latitude="41.906113" license="5" longitude="12.482694" nbComments="0" rank="97" tags="italy italy2007 rome roma spanishsteps scalinatadellatrinitàdeimonti piazzadispagna" title="Spanish steps" url_b="http://static.flickr.com/1181/1488335520_3c41ccacdf_b.jpg" username="nafmo" views="171" />
<photo  date_taken="2009-05-11 13:44:43" description="Rome" id="3600896915" latitude="41.906116" license="3" longitude="12.482737" nbComments="0" rank="98" tags="rome roma italy europe unescoworldheritagesite worldheritagesite spanishsteps thespanishsteps scalinatadellatrinitàdeimonti piazzadispagna scalinata trinitàdeimonti church steps staircase santissimatrinitàalmontepincio trinitàdelmonte holytrinityonpinciohill baroque francescodesanctis obelisk dopplr:explore=n4h1" title="spanish steps" url_b="http://static.flickr.com/3658/3600896915_51d1ae43e6_b.jpg" username="Sean Munson" views="106" />
<photo  date_taken="2010-11-11 16:01:09" description="Waiting to see the sunset from the Spanish Steps in Rome" id="5578256093" latitude="41.906049" license="2" longitude="12.482839" nbComments="0" rank="99" tags="sunset rome roma italia italy spanishsteps scalinatadellatrinitàdeimonti piazzadispagna sky clouds yellow" title="Almost sunset" url_b="http://static.flickr.com/5178/5578256093_4d027f082b_b.jpg" username="moarplease" views="114" />
<photo  date_taken="2008-09-22 13:14:06" description="" id="3079583842" latitude="41.905906" license="2" longitude="12.482619" nbComments="0" rank="100" tags="" title="Spanish Steps 21" url_b="http://static.flickr.com/3029/3079583842_faa4eab35c_b.jpg" username="TechSavi" views="0" />
<photo  date_taken="2011-08-09 12:38:12" description="" id="6053683673" latitude="41.906026" license="1" longitude="12.48285" nbComments="0" rank="101" tags="rome roma piazzadispagna alessandrospecchi spanishsteps francescodisanctis" title="rome - spanish steps" url_b="http://static.flickr.com/6062/6053683673_65ba48644e_b.jpg" username="drencrome" views="7" />
<photo  date_taken="2011-08-09 12:33:35" description="" id="6053681989" latitude="41.90603" license="1" longitude="12.48285" nbComments="0" rank="102" tags="rome roma piazzadispagna spanishsteps trinitadeimonti francescodisanctis alessandrospecchi obelisk" title="rome - spanish steps" url_b="http://static.flickr.com/6208/6053681989_6a8b8540f9_b.jpg" username="drencrome" views="7" />
<photo  date_taken="2009-04-02 16:54:40" description="" id="3647701075" latitude="41.906109" license="2" longitude="12.482657" nbComments="0" rank="103" tags="пиаца площад испанскитестълби площадиспания piazza spanishsteps piazzadispagna rome italy italien roma italia италия рим" title="Piazza Trinità dei Monti / Площад Св. Троица" url_b="http://static.flickr.com/2468/3647701075_192fa77a09_b.jpg" username="mitko_denev" views="48" />
<photo  date_taken="2008-09-09 09:43:38" description="Michelle and Megan Climbing the Spanish Steps" id="3619184780" latitude="41.906101" license="1" longitude="12.4828" nbComments="0" rank="104" tags="" title="Spanish Steps" url_b="http://static.flickr.com/2437/3619184780_b32e972d6c_b.jpg" username="yukatafish" views="6" />
<photo  date_taken="2006-01-10 10:02:56" description="" id="91862774" latitude="41.906085" license="1" longitude="12.482614" nbComments="0" rank="105" tags="rome italy" title="Spanish Steps - 2" url_b="http://static.flickr.com/27/91862774_d6eeb23766_b.jpg" username="MichaelTurk" views="12" />
<photo  date_taken="2006-01-10 09:54:27" description="" id="91862701" latitude="41.906085" license="1" longitude="12.482614" nbComments="0" rank="106" tags="rome italy" title="Spanish Steps - 1" url_b="http://static.flickr.com/16/91862701_7cb85ecf1a_b.jpg" username="MichaelTurk" views="15" />
<photo  date_taken="2006-01-10 09:57:55" description="With the Dome of St. Peter's Basilica in the background" id="91862730" latitude="41.906085" license="1" longitude="12.482614" nbComments="0" rank="107" tags="rome italy" title="View from the Spanish Steps" url_b="http://static.flickr.com/40/91862730_8179543ac4_b.jpg" username="MichaelTurk" views="30" />
<photo  date_taken="2007-02-09 10:29:05" description="An apartment balcony opens out onto the Spanish Steps; scenic, but a little public." id="387407481" latitude="41.906133" license="1" longitude="12.482711" nbComments="0" rank="108" tags="italy rome spanishsteps piazzadispagna roma" title="Great location, zero privacy" url_b="http://static.flickr.com/139/387407481_79087170f1_b.jpg" username="rcolonna" views="86" />
<photo  date_taken="2008-09-22 13:14:01" description="" id="3078749891" latitude="41.905908" license="2" longitude="12.482602" nbComments="0" rank="109" tags="" title="Spanish Steps 20" url_b="http://static.flickr.com/3154/3078749891_578df186cb_b.jpg" username="TechSavi" views="0" />
<photo  date_taken="2007-05-09 18:48:44" description="" id="491523126" latitude="41.906117" license="2" longitude="12.482796" nbComments="0" rank="110" tags="italy rome roma architecture spanish steps" title="Scalinata della Trinità dei Monti" url_b="http://static.flickr.com/208/491523126_7b6de8f0e3_b.jpg" username="edosbornphotography" views="23" />
<photo  date_taken="2009-04-26 18:21:57" description="" id="8158785031" latitude="41.906006" license="4" longitude="12.482872" nbComments="0" rank="111" tags="europe rome italy" title="Spanish Steps" url_b="http://static.flickr.com/7139/8158785031_7bbb1b7df0_b.jpg" username="Frank S. Malawski" views="24" />
<photo  date_taken="2005-06-27 22:45:51" description="" id="22342395" latitude="41.906093" license="3" longitude="12.482609" nbComments="0" rank="112" tags="rome k750i june roma cameraphone 2005" title="The Spanish Steps by Night" url_b="http://static.flickr.com/15/22342395_688b364399_b.jpg" username="DavidHughes" views="42" />
<photo  date_taken="2008-05-30 22:34:26" description="Rome, Italy" id="14881914" latitude="41.906038" license="5" longitude="12.482576" nbComments="0" rank="113" tags="spanishsteps rome italy piazzadispagna" title="Piazza di Spagna" url_b="http://static.flickr.com/14/14881914_3838e6e66a_b.jpg" username="ChrisYunker" views="96" />
<photo  date_taken="2012-07-28 22:24:43" description="" id="7872413670" latitude="41.906093" license="3" longitude="12.482839" nbComments="0" rank="114" tags="italy italië rome roma spaansetrappen spanishsteps nightlife" title="Spanish steps" url_b="http://static.flickr.com/8421/7872413670_7541a53fae_b.jpg" username="jurjen_nl" views="8" />
<photo  date_taken="2005-09-06 16:49:37" description="The spanish steps in Rome, Italy" id="81816082" latitude="41.906101" license="3" longitude="12.482609" nbComments="0" rank="115" tags="spanishsteps rome italy" title="Spanish Steps" url_b="http://static.flickr.com/39/81816082_cf536679b4_b.jpg" username="sethbc" views="40" />
<photo  date_taken="2009-03-11 00:29:44" description="Spanish Steps at night." id="3352770571" latitude="41.905999" license="4" longitude="12.48256" nbComments="0" rank="116" tags="rome roma" title="Steps at Night" url_b="http://static.flickr.com/1436/3352770571_a1a4dd35d6_b.jpg" username="IK's World Trip" views="13" />
<photo  date_taken="2009-03-10 15:05:56" description="A good place to enjoy the midday sun..." id="3352770801" latitude="41.905999" license="4" longitude="12.48256" nbComments="0" rank="117" tags="" title="Spanish Steps" url_b="http://static.flickr.com/1113/3352770801_74ba0046e9_b.jpg" username="IK's World Trip" views="9" />
<photo  date_taken="2009-04-02 17:15:22" description="" id="3648595172" latitude="41.906093" license="2" longitude="12.482593" nbComments="0" rank="118" tags="пиаца площад испанскитестълби площадиспания piazza spanishsteps piazzadispagna rome italy italien roma italia италия рим" title="Spanish Steps / Испанските стълби" url_b="http://static.flickr.com/3416/3648595172_31e268f2b2_b.jpg" username="mitko_denev" views="45" />
<photo  date_taken="2010-02-13 16:46:18" description="From the Spanish Steps." id="4376907787" latitude="41.906125" license="1" longitude="12.482818" nbComments="0" rank="119" tags="rome lazio italy europe spanishsteps piazzadispagna dopplr:explore=n4h1" title="Via dei Condotti" url_b="http://static.flickr.com/4012/4376907787_f827e79552_b.jpg" username="Mark Turner" views="42" />
<photo  date_taken="2010-02-13 10:09:20" description="" id="4377522488" latitude="41.906125" license="1" longitude="12.482818" nbComments="0" rank="120" tags="rome lazio italy europe spanishsteps piazzadispagna dopplr:explore=n4h1" title="Rome rooftops" url_b="http://static.flickr.com/2749/4377522488_3b5e6f1357_b.jpg" username="Mark Turner" views="20" />
<photo  date_taken="2010-02-13 10:20:08" description="" id="4376786287" latitude="41.906125" license="1" longitude="12.482818" nbComments="0" rank="121" tags="rome lazio italy europe spanishsteps obelisk trinitàdeimonti church piazzadispagna dopplr:explore=n4h1" title="Trinità dei Monti" url_b="http://static.flickr.com/2802/4376786287_8e3622376c_b.jpg" username="Mark Turner" views="38" />
<photo  date_taken="2010-02-13 16:40:47" description="From the Spanish Steps." id="4376906081" latitude="41.906125" license="1" longitude="12.482818" nbComments="0" rank="122" tags="rome lazio italy europe spanishsteps piazzadispagna dopplr:explore=n4h1" title="Via dei Condotti" url_b="http://static.flickr.com/4013/4376906081_4e5ea4f0df_b.jpg" username="Mark Turner" views="25" />
<photo  date_taken="2010-02-13 10:19:47" description="" id="4376785037" latitude="41.906125" license="1" longitude="12.482818" nbComments="0" rank="123" tags="rome lazio italy europe jemmacollins spanishsteps piazzadispagna dopplr:explore=n4h1" title="Descending" url_b="http://static.flickr.com/4042/4376785037_de4420f9ed_b.jpg" username="Mark Turner" views="28" />
<photo  date_taken="2010-02-13 10:10:54" description="" id="4376776133" latitude="41.906125" license="1" longitude="12.482818" nbComments="0" rank="124" tags="rome lazio italy europe spanishsteps piazzadispagna dopplr:explore=n4h1" title="Spanish Steps" url_b="http://static.flickr.com/4035/4376776133_16b641a75e_b.jpg" username="Mark Turner" views="12" />
<photo  date_taken="2010-02-13 10:11:47" description="" id="4377527556" latitude="41.906125" license="1" longitude="12.482818" nbComments="0" rank="125" tags="rome lazio italy europe spanishsteps piazzadispagna dopplr:explore=n4h1" title="Spanish Steps" url_b="http://static.flickr.com/4056/4377527556_773b9fb51d_b.jpg" username="Mark Turner" views="8" />
<photo  date_taken="2010-02-13 10:11:01" description="" id="4377526778" latitude="41.906125" license="1" longitude="12.482818" nbComments="0" rank="126" tags="rome lazio italy europe spanishsteps piazzadispagna dopplr:explore=n4h1" title="Spanish Steps" url_b="http://static.flickr.com/2677/4377526778_5b2892302f_b.jpg" username="Mark Turner" views="13" />
<photo  date_taken="2010-02-13 10:10:30" description="" id="4376774617" latitude="41.906125" license="1" longitude="12.482818" nbComments="0" rank="127" tags="rome lazio italy europe spanishsteps piazzadispagna dopplr:explore=n4h1" title="Spanish Steps" url_b="http://static.flickr.com/2792/4376774617_2bba6a21f4_b.jpg" username="Mark Turner" views="24" />
<photo  date_taken="2010-02-13 16:35:51" description="" id="4377653674" latitude="41.906125" license="1" longitude="12.482818" nbComments="0" rank="128" tags="rome lazio italy europe spanishsteps piazzadispagna dopplr:explore=n4h1" title="Piazza di Spagna" url_b="http://static.flickr.com/2769/4377653674_8c28686e72_b.jpg" username="Mark Turner" views="23" />
<photo  date_taken="2012-11-11 23:41:56" description="" id="8193631058" latitude="41.905948" license="3" longitude="12.48256" nbComments="0" rank="129" tags="rome" title="Rome. Spanish Steps 2" url_b="http://static.flickr.com/8064/8193631058_dc6c85d334_b.jpg" username="dougie131172" views="2" />
<photo  date_taken="2012-11-11 23:50:19" description="" id="8193631278" latitude="41.905948" license="3" longitude="12.48256" nbComments="0" rank="130" tags="rome" title="Rome. Spanish Steps 4" url_b="http://static.flickr.com/8203/8193631278_477f4c0368_b.jpg" username="dougie131172" views="2" />
<photo  date_taken="2012-11-11 23:40:44" description="" id="8193577150" latitude="41.905948" license="3" longitude="12.48256" nbComments="0" rank="131" tags="rome" title="Rome. Spanish Steps" url_b="http://static.flickr.com/8058/8193577150_2117f69f80_b.jpg" username="dougie131172" views="2" />
<photo  date_taken="2012-11-11 23:48:04" description="" id="8193631176" latitude="41.905948" license="3" longitude="12.48256" nbComments="0" rank="132" tags="rome" title="Rome. Spanish Steps 3" url_b="http://static.flickr.com/8067/8193631176_ede25fd7a5_b.jpg" username="dougie131172" views="2" />
<photo  date_taken="2007-06-17 10:33:29" description="&lt;a href=&quot;http://farm2.static.flickr.com/1094/656995805_362d3e13d4_b.jpg&quot;&gt;Large&lt;/a&gt;" id="656995805" latitude="41.906037" license="1" longitude="12.48256" nbComments="26" rank="133" tags="rome spanis steps people walking up church clouds perspective slant save delete save2 save3 delete2 save4 delete3 delete4 delete5 save5 delete6 save6 delete7 save7 save8 delete8 delete9 delete10 blackandwhite untagged" title="spanish steps" url_b="http://static.flickr.com/1094/656995805_362d3e13d4_b.jpg" username="Martino's doodles" views="143" />
<photo  date_taken="2012-05-13 17:37:32" description="At the top of the Spanish Steps / Scalinata della Trinità dei Monti. Rome, 2012." id="7182725987" latitude="41.906085" license="4" longitude="12.482877" nbComments="0" rank="134" tags="italy tuba band music" title="and the police band played on" url_b="http://static.flickr.com/7079/7182725987_9dc13b47dc_b.jpg" username="Flowizm" views="22" />
<photo  date_taken="2006-05-08 08:06:13" description="" id="1316331646" latitude="41.906173" license="4" longitude="12.4827" nbComments="0" rank="135" tags="" title="Spanish Steps &amp; Azaleas" url_b="http://static.flickr.com/1066/1316331646_c5fc416090_b.jpg" username="rjhuttondfw" views="12" />
<photo  date_taken="2006-05-08 08:06:51" description="" id="1316331996" latitude="41.906173" license="4" longitude="12.4827" nbComments="0" rank="136" tags="" title="Spanish Steps from Fountain" url_b="http://static.flickr.com/1355/1316331996_7bfa6ea6ab_b.jpg" username="rjhuttondfw" views="6" />
<photo  date_taken="2004-05-21 00:52:07" description="" id="2558528313" latitude="41.906173" license="4" longitude="12.4827" nbComments="0" rank="137" tags="spanishsteps" title="Spanish Steps" url_b="http://static.flickr.com/3264/2558528313_9983411389_b.jpg" username="rjhuttondfw" views="5" />
<photo  date_taken="2004-05-17 00:52:03" description="" id="2558528707" latitude="41.906173" license="4" longitude="12.4827" nbComments="0" rank="138" tags="spanishsteps" title="Spanish Steps" url_b="http://static.flickr.com/3188/2558528707_488b4d697f_b.jpg" username="rjhuttondfw" views="6" />
<photo  date_taken="2004-05-21 01:05:20" description="" id="2559352708" latitude="41.906173" license="4" longitude="12.4827" nbComments="0" rank="139" tags="spanishsteps" title="Spanish Steps" url_b="http://static.flickr.com/3264/2559352708_263d1dba1c_b.jpg" username="rjhuttondfw" views="23" />
<photo  date_taken="2004-05-17 00:44:11" description="" id="2558528541" latitude="41.906173" license="4" longitude="12.4827" nbComments="0" rank="140" tags="spanishsteps" title="Spanish Steps" url_b="http://static.flickr.com/3132/2558528541_77b35c867b_b.jpg" username="rjhuttondfw" views="25" />
<photo  date_taken="2004-05-17 00:44:25" description="" id="2558528651" latitude="41.906173" license="4" longitude="12.4827" nbComments="0" rank="141" tags="spanishsteps" title="Spanish Steps" url_b="http://static.flickr.com/3141/2558528651_12eced00a0_b.jpg" username="rjhuttondfw" views="6" />
<photo  date_taken="2006-05-08 08:20:05" description="" id="1316332600" latitude="41.906173" license="4" longitude="12.4827" nbComments="0" rank="142" tags="" title="Spanish Steps in Spring" url_b="http://static.flickr.com/1383/1316332600_b45c1b4d7a_b.jpg" username="rjhuttondfw" views="1" />
<photo  date_taken="2006-05-08 08:08:33" description="" id="1316332300" latitude="41.906173" license="4" longitude="12.4827" nbComments="0" rank="143" tags="" title="Spanish Steps Oblisque" url_b="http://static.flickr.com/1022/1316332300_0b4268deb5_b.jpg" username="rjhuttondfw" views="1" />
<photo  date_taken="2006-05-08 08:04:19" description="Moses and David at the Column of the Immacolata, erected in 1854 in the southeast part of the Piazza di Spagna" id="1315445133" latitude="41.906173" license="4" longitude="12.4827" nbComments="0" rank="144" tags="spanishsteps piazzadispagna" title="Spanish Steps Oblisque Base" url_b="http://static.flickr.com/1280/1315445133_206ae4cea2_b.jpg" username="rjhuttondfw" views="13" />
<photo  date_taken="2006-05-08 08:01:13" description="" id="1315444965" latitude="41.906173" license="4" longitude="12.4827" nbComments="0" rank="145" tags="" title="Base of Oblisque at Spanish Steps" url_b="http://static.flickr.com/1040/1315444965_d21ae7206e_b.jpg" username="rjhuttondfw" views="2" />
<photo  date_taken="2006-05-08 08:07:10" description="" id="1315445977" latitude="41.906173" license="4" longitude="12.4827" nbComments="0" rank="146" tags="bernini spanishsteps barcacciafountain rome" title="Spanish Steps Fountain Detail" url_b="http://static.flickr.com/1010/1315445977_5364abb056_b.jpg" username="rjhuttondfw" views="5" />
<photo  date_taken="2004-05-17 00:41:54" description="In the foreground: Fontana della Barcaccia (The Fountain of the Old Boat) by GianLorenzo Bernini" id="2559352392" latitude="41.906173" license="4" longitude="12.4827" nbComments="0" rank="147" tags="spanishsteps fontanadellabarcaccia barcacciafountain" title="Spanish Steps" url_b="http://static.flickr.com/3055/2559352392_a4c15b43cb_b.jpg" username="rjhuttondfw" views="63" />
<photo  date_taken="2006-05-06 03:11:24" description="" id="1316332934" latitude="41.906173" license="4" longitude="12.4827" nbComments="0" rank="148" tags="" title="Spanish Steps with Azaleas" url_b="http://static.flickr.com/1439/1316332934_8c75c7add7_b.jpg" username="rjhuttondfw" views="9" />
<photo  date_taken="2006-05-08 08:05:09" description="" id="1315445339" latitude="41.906173" license="4" longitude="12.4827" nbComments="0" rank="149" tags="" title="Oblisque at Spanish Steps" url_b="http://static.flickr.com/1015/1315445339_aacede6e20_b.jpg" username="rjhuttondfw" views="1" />
<photo  date_taken="2006-05-06 03:11:49" description="" id="1315446933" latitude="41.906173" license="4" longitude="12.4827" nbComments="0" rank="150" tags="rome spanishsteps barcacciafountain fontanadellabarcaccia bernini" title="Fontana della Barcaccia" url_b="http://static.flickr.com/1177/1315446933_45520f7f69_b.jpg" username="rjhuttondfw" views="62" />
</photos>
