<?xml version="1.0" encoding="UTF-8" standalone="no"?>
<photos monument="Summer Palace">

<photo  date_taken="1995-05-19 19:09:00" description="The Summer Palace is a palace in Beijing, China. The Summer Palace is mainly dominated by Longevity Hill and the Kunming Lake. It covers an expanse of 2.9 square kilometers, three quarters of which is water. Longevity Hill is about 60 meters high and houses many buildings positioned in sequence. The front hill is rich in the splendid halls and pavilions, while the back hill, in sharp contrast, is quiet with natural beauty. The central Kunming Lake covering 2.2 square kilometers was entirely man made and the excavated soil was used to build Longevity Hill. In the Summer Palace, one finds a variety of palaces, gardens, and other classical-style architectural structures. The Marble Boat, also known as the Boat of Purity and Ease is a lakeside pavilion on the grounds of the Summer Palace in Beijing, China. It was first erected in 1755 during the reign of the Qianlong Emperor. The original pavilion was made from a base of large stone blocks which supported a wooden superstructure done in a traditional Chinese design. (From Wikipedia, &lt;a href=&quot;http://en.wikipedia.org/wiki/Summer_Palace&quot; rel=&quot;nofollow&quot;&gt;en.wikipedia.org/wiki/Summer_Palace&lt;/a&gt;, &lt;a href=&quot;http://en.wikipedia.org/wiki/Marble_Boat&quot; rel=&quot;nofollow&quot;&gt;en.wikipedia.org/wiki/Marble_Boat&lt;/a&gt;)" id="6170359904" latitude="39.9975" license="4" longitude="116.2689" nbComments="0" rank="1" tags="beijing summerpalace marbleboat china palace marble" title="Beijing, Summer Palace, Marble Boat" url_b="http://static.flickr.com/6158/6170359904_606d21dda8_b.jpg" username="Arian Zwegers" views="81" />
<photo  date_taken="2012-07-30 14:24:41" description="" id="7982277111" latitude="39.997489" license="4" longitude="116.268503" nbComments="0" rank="2" tags="北京 中国 beijing china 颐和园 summerpalace пекин китай beijingparks летнийдворец" title="Roof" url_b="http://static.flickr.com/8034/7982277111_7eebd0db3a_b.jpg" username="ahenobarbus" views="80" />
<photo  date_taken="2008-10-11 14:17:39" description="China, Beijing, the car pool of Chinas last emperor “Aisin Gioro Pŭ Yí” at the ”Yiheyuan” summer palace. Pŭ Yí lived here partially during the revolution from 1911, contrary to the imperial palace in Beijing, the summer palace was recognized as property of the “Qing Dynasty“. The grand Tower of Buddhist Incense, towering 41 meters, is the symbol of ”Yiheyuan” the Summer Palace, located in the north-western outskirts of Beijing. The garden from early 1750 is the largest &amp;amp; most celebrated imperial garden in China &amp;amp; had once been a summer resort for the emperors. It is acclaimed as a museum of gardens in China, for a visit to this garden bestow on sightseers a glimpse of representative scenes all over China. The palace features hundreds of architecturally distinct buildings, halls, pavilions, pagodas, bridges &amp;amp; corridors dispersed among magnificent, elegant gardens. It has an area of 290 hectares, three quarters of which is water. The palace has three unique areas, Court Area, Longevity Hill Area &amp;amp; Kunming Lake Area. The garden was originally named “Qingyi” the Garden of Clear Ripple, was a summer resort for the emperors in the Qing Dynasty, 1644-1911. In 1860, the garden was burnt down by the Anglo-French Allied Forces. In 1866, Empress “Dowager Cixi” rebuilt the garden using embezzled funds from the imperial navy &amp;amp; named it the Summer Palace. In 1900, during the Boxer Rebellion, the Eight-Power Allied Force ransacked the palace, after another rebuilding in 1903, the garden was restored to its original beauty &amp;amp; magnificence. As the grandest garden in China, it was added to the World Culture Heritage list in 1998." id="7985256075" latitude="39.997029" license="0" longitude="116.268653" nbComments="6" rank="3" tags="nikon d800 d300 beijing yiheyuan summerpalace china chinese art bombay mumbai square places place plaza plätze strasen rue calle strada streets historic city städte ciudad ville citta india asia germany hamburg lüneburg munich münchen berlin frankfurt zurich venice venedig venezia venise murano burano salzburg barcelona valencia curacao france konstanz lake constance stade zugspitze alpen alps strasbourg freiburg black forest flickrstruereflection1 lübeck lubecca düsseldorf köln cologne colonia" title="Phot.Beijing.Summer.Palace.Vehicles.01.100811.5727" url_b="http://static.flickr.com/8450/7985256075_792649511c_b.jpg" username="frankartculinary" views="128" />
<photo  date_taken="2009-08-06 10:43:29" description="Stunning colour in and around the Hall of Dispelling Clouds. Summer Palace, Beijing China." id="3996884155" latitude="39.997547" license="3" longitude="116.267924" nbComments="0" rank="4" tags="beijing běijīng 北京 peking china 中国 peoplesrepublicofchina 中华人民共和国 prc summerpalace yiheyuan 颐和园 yíhéyuán imperial roof dougong 斗拱 glazedtiles imperialroofdecoration roofcharms rooffigures 檐獸 檐兽 hallofdispellingclouds paiyundian detail 排云殿 yánshòu yanshou megacity over200views" title="Hall of Dispelling Clouds, Summer Palace, Beijing" url_b="http://static.flickr.com/3484/3996884155_5523b02fca_b.jpg" username="thewamphyri" views="266" />
<photo  date_taken="2009-08-06 10:51:28" description="Hall of Dispelling Clouds and surroundings. Summer Palace, Beijing China." id="3997646408" latitude="39.997547" license="3" longitude="116.267924" nbComments="2" rank="5" tags="beijing běijīng 北京 peking china 中国 peoplesrepublicofchina 中华人民共和国 prc summerpalace yiheyuan 颐和园 yíhéyuán imperial yellowrooftiles glazedtiles yellow hallofdispellingclouds paiyundian 排云殿 roof orange páiyúndiàn megacity fromabove uphigh viewfromthetop above viewfromabove longevityhill 万寿山 wànshòushān over100views" title="Hall of Dispelling Clouds, Summer Palace, Beijing" url_b="http://static.flickr.com/2511/3997646408_84fb5ef957_b.jpg" username="thewamphyri" views="174" />
<photo  date_taken="2009-08-06 10:45:26" description="Imperial roof decorations, Hall of Dispelling Clouds. Summer Palace, Beijing China." id="3996884707" latitude="39.997547" license="3" longitude="116.267924" nbComments="2" rank="6" tags="beijing běijīng 北京 peking china 中国 peoplesrepublicofchina 中华人民共和国 prc summerpalace yiheyuan 颐和园 yíhéyuán imperial roof dougong 斗拱 glazedtiles imperialroofdecoration roofcharms rooffigures 檐獸 檐兽 hallofdispellingclouds paiyundian detail 排云殿 yánshòu yanshou megacity over100views" title="Roof Charms, Summer Palace, Beijing" url_b="http://static.flickr.com/3459/3996884707_3a345bba7c_b.jpg" username="thewamphyri" views="184" />
<photo  date_taken="2012-08-29 10:25:20" description="En vanaf daar heb je natuurlijk een prachtig uitzicht." id="8398297862" latitude="39.997769" license="2" longitude="116.267859" nbComments="0" rank="7" tags="beijing summerpalace china tower towerofthefragranceofthebuddha foxiangge wanshoushan longevityhill towerofbuddhistincense" title="View from the palace" url_b="http://static.flickr.com/8228/8398297862_8083ea7b38_b.jpg" username="Breen's Photos" views="23" />
<photo  date_taken="2012-08-29 10:59:10" description="Een uitzicht om nooit meer te vergeten." id="8398150575" latitude="39.997851" license="2" longitude="116.267881" nbComments="2" rank="8" tags="china beijing summerpalace towerofthefragranceofthebuddha foxiangge wanshoushan longevityhill" title="Lakeview" url_b="http://static.flickr.com/8367/8398150575_b2300ca49c_b.jpg" username="Breen's Photos" views="67" />
<photo  date_taken="2012-08-29 10:27:20" description="In de toren staat de &amp;quot;duizendarmige&amp;quot; Guanyin Buddha. Een indrukwekkend figuur met al haar gebaren en gezichten." id="8398298426" latitude="39.99772" license="2" longitude="116.267838" nbComments="0" rank="9" tags="beijing summerpalace china towerofthefragranceofthebuddha foxiangge buddha guanshiyinbuddha wanshoushan longevityhill budha towerofbuddhistincense kwanyinbuddha guanyinbuddha" title="Guanyin Buddha" url_b="http://static.flickr.com/8506/8398298426_c27feb914b_b.jpg" username="Breen's Photos" views="22" />
<photo  date_taken="2005-05-15 01:01:00" description="" id="71608729" latitude="39.996988" license="3" longitude="116.269866" nbComments="0" rank="10" tags="beijing china summerpalace chángláng coveredwalkway" title="IMG_5440 - Summer Palace Covered Walkway (Cháng Láng)" url_b="http://static.flickr.com/20/71608729_a0022da63e_b.jpg" username="Asten" views="152" />
<photo  date_taken="2010-05-09 18:24:26" description="" id="4716092941" latitude="39.998285" license="1" longitude="116.267953" nbComments="0" rank="11" tags="beijing china" title="Peeking around the Summer Palace" url_b="http://static.flickr.com/4068/4716092941_eb6477c6b4_b.jpg" username="darcy1b" views="30" />
<photo  date_taken="2007-09-18 13:26:03" description="The Sea of Wisdom Temple is perched at the summit of the vertigo-inducing Longevity Hill, in the Summer Palace, Beijing. It’s swathed in 1,100 gold and green statuettes of the Infinite Longevity Buddha. I took these shots with my Canon SD200, and enhanced them in Photoshop." id="1403120979" latitude="39.998242" license="3" longitude="116.267902" nbComments="0" rank="12" tags="asia beijing buddha china chinese seaofwisdomtemple summerpalace travel travelchina travelphotography" title="Buddhas at the Sea of Wisdom Temple" url_b="http://static.flickr.com/1021/1403120979_a45859a76a_b.jpg" username="Richard Smallbone" views="240" />
<photo  date_taken="2011-10-22 07:19:09" description="" id="6661533659" latitude="39.9964" license="3" longitude="116.267972" nbComments="0" rank="13" tags="china beijing summerpalace kunminglake lensnikon1685mmf3556gedvrdxafsnikkor 北京" title="China Beijing &quot;Summer Palace&quot; &quot;Kunming Lake&quot;" url_b="http://static.flickr.com/7007/6661533659_369c533a62_b.jpg" username="globetrotter_rodrigo" views="32" />
<photo  date_taken="2006-09-19 02:56:38" description="Taken in September of 2006." id="1535899925" latitude="39.997473" license="3" longitude="116.26743" nbComments="3" rank="14" tags="aged antiqued asia beijing china chinese lowsaturation painterly summerpalace textured travel travelchina travelphotography vintage weathered" title="The Summer Palace overlooking Beijing" url_b="http://static.flickr.com/2354/1535899925_fece85dfc6_b.jpg" username="Richard Smallbone" views="191" />
<photo  date_taken="2006-09-19 03:08:30" description="Taken in September, 2006." id="1536737472" latitude="39.997473" license="3" longitude="116.26743" nbComments="3" rank="15" tags="aged antiqued asia beijing china chinese lowsaturation summerpalace textured travel travelchina travelphotography weathered" title="Wall in the Summer Palace, Beijing" url_b="http://static.flickr.com/2046/1536737472_85b0cfecd5_b.jpg" username="Richard Smallbone" views="171" />
<photo  date_taken="1995-05-19 19:10:00" description="The Summer Palace is a palace in Beijing, China. The Summer Palace is mainly dominated by Longevity Hill and the Kunming Lake. It covers an expanse of 2.9 square kilometers, three quarters of which is water. Longevity Hill is about 60 meters high and houses many buildings positioned in sequence. The front hill is rich in the splendid halls and pavilions, while the back hill, in sharp contrast, is quiet with natural beauty. The central Kunming Lake covering 2.2 square kilometers was entirely man made and the excavated soil was used to build Longevity Hill. In the Summer Palace, one finds a variety of palaces, gardens, and other classical-style architectural structures. (From Wikipedia, &lt;a href=&quot;http://en.wikipedia.org/wiki/Summer_Palace&quot; rel=&quot;nofollow&quot;&gt;en.wikipedia.org/wiki/Summer_Palace&lt;/a&gt;)" id="6170361562" latitude="39.9975" license="4" longitude="116.2689" nbComments="0" rank="16" tags="beijing summerpalace marbleboat templeofbuddhistvirtue china buddhistvirtue temple palace" title="Beijing, Summer Palace" url_b="http://static.flickr.com/6172/6170361562_480a6eb068_b.jpg" username="Arian Zwegers" views="43" />
<photo  date_taken="2007-05-11 16:07:40" description="" id="2185075550" latitude="39.997501" license="5" longitude="116.2689" nbComments="0" rank="17" tags="travel china beijing" title="Summer Palace" url_b="http://static.flickr.com/2411/2185075550_a7a3528386_b.jpg" username="maxim303" views="15" />
<photo  date_taken="2010-07-10 13:18:40" description="" id="4832157174" latitude="39.997508" license="1" longitude="116.268777" nbComments="0" rank="18" tags="china beijing" title="Summer Palace" url_b="http://static.flickr.com/4147/4832157174_a791b7f328_b.jpg" username="Chiva Congelado" views="14" />
<photo  date_taken="2012-02-18 12:26:40" description="" id="6875554146" latitude="39.997335" license="1" longitude="116.268593" nbComments="0" rank="19" tags="" title="The Summer Palace" url_b="http://static.flickr.com/7216/6875554146_227f81b868_b.jpg" username="Around the World in unknown Days" views="7" />
<photo  date_taken="2007-10-16 03:30:36" description="" id="1813426072" latitude="39.996988" license="3" longitude="116.269253" nbComments="0" rank="20" tags="geo:lat=3999698861943969 geo:long=11626925468444824 geo:dir=309 geotagged" title="Pavilion of Buddhist Fragrance, Summer Palace" url_b="http://static.flickr.com/2269/1813426072_5875e3cd67_b.jpg" username="Rose Robinson" views="9" />
<photo  date_taken="2011-10-02 06:48:43" description="&lt;a href=&quot;http://en.wikipedia.org/wiki/Summer_palace&quot; rel=&quot;nofollow&quot;&gt;en.wikipedia.org/wiki/Summer_palace&lt;/a&gt;" id="6282988304" latitude="39.997452" license="5" longitude="116.268225" nbComments="0" rank="21" tags="beijing china summerpalace 颐和园" title="At the Summer Palace" url_b="http://static.flickr.com/6094/6282988304_8069f45577_b.jpg" username="Hello, I am Bruce" views="42" />
<photo  date_taken="2010-09-29 18:53:49" description="" id="5037044951" latitude="39.99818" license="1" longitude="116.268782" nbComments="1" rank="22" tags="" title="Revisiting old negatives - The Summer Palace" url_b="http://static.flickr.com/4112/5037044951_15309261ae_b.jpg" username="Zebra Pares" views="44" />
<photo  date_taken="2008-09-27 15:33:21" description="The Summer Palace in Beijing, China" id="2956670641" latitude="39.997568" license="3" longitude="116.26816" nbComments="0" rank="23" tags="source fritzmb place asia china beijing summerpalace sourcefritzmb placeasiachinabeijingsummerpalace" title="The Summer Palace" url_b="http://static.flickr.com/3141/2956670641_641a19df86_b.jpg" username="fritzmb" views="11" />
<photo  date_taken="2011-10-22 07:34:55" description="" id="6661544063" latitude="39.997052" license="3" longitude="116.268227" nbComments="0" rank="24" tags="china beijing summerpalace kunminglake hdr lensnikon1685mmf3556gedvrdxafsnikkor 北京" title="China Beijing &quot;Summer Palace&quot; &quot;Kunming Lake&quot; HDR" url_b="http://static.flickr.com/7174/6661544063_7c9028e891_b.jpg" username="globetrotter_rodrigo" views="75" />
<photo  date_taken="2007-09-29 08:44:25" description="Summer palace. Kunming Lake. Looks really romantic, but I fear this was pollution, not mist. And the chap is collecting pond scum by hand." id="1721991055" latitude="39.996874" license="3" longitude="116.26942" nbComments="0" rank="25" tags="tourism boats lake mist reflection water beijing china" title="Beijing 28" url_b="http://static.flickr.com/2232/1721991055_dc77294fcb_b.jpg" username="Jeremy Cherfas" views="19" />
<photo  date_taken="2007-09-14 07:22:45" description="Flowers at the Summer Palace (颐和园, Yíhé Yuán). (dsc02718)" id="1380999074" latitude="39.99695" license="5" longitude="116.2695" nbComments="0" rank="26" tags="china 中国 zhongguo beijing 北京市 haidian 海淀区 hǎidiànqū summerpalace palace 颐和园 yíhéyuán geotagged locationuncertain geo:lat=3999695 geo:lon=1162695 běijīngshì běijīng 北京 flowers" title="Flower Arrangement" url_b="http://static.flickr.com/1209/1380999074_d9ed6779ba_b.jpg" username="dbaron" views="146" />
<photo  date_taken="2012-04-15 16:16:46" description="" id="7092986633" latitude="39.996838" license="2" longitude="116.269405" nbComments="0" rank="27" tags="beijing china hdr" title="Summer Palace" url_b="http://static.flickr.com/7119/7092986633_fe1f1e7d35_b.jpg" username="rwoan" views="7" />
<photo  date_taken="2010-07-10 13:32:02" description="" id="4832158896" latitude="39.9968" license="1" longitude="116.268436" nbComments="0" rank="28" tags="china beijing" title="Summer Palace" url_b="http://static.flickr.com/4092/4832158896_37b4fa0b66_b.jpg" username="Chiva Congelado" views="14" />
<photo  date_taken="2010-07-10 13:31:52" description="" id="4831548001" latitude="39.9968" license="1" longitude="116.268436" nbComments="0" rank="29" tags="china beijing" title="Summer Palace" url_b="http://static.flickr.com/4132/4831548001_6f1830e858_b.jpg" username="Chiva Congelado" views="8" />
<photo  date_taken="2007-12-28 07:40:06" description="" id="2153067806" latitude="39.997346" license="2" longitude="116.268069" nbComments="0" rank="30" tags="beijing summerpalace" title="A bird perch" url_b="http://static.flickr.com/2034/2153067806_50d90abd7d_b.jpg" username="jellybeanz" views="4" />
<photo  date_taken="2007-12-28 06:05:40" description="" id="2152263461" latitude="39.997346" license="2" longitude="116.268069" nbComments="0" rank="31" tags="beijing summerpalace" title="Longevity Hill" url_b="http://static.flickr.com/2378/2152263461_05dc7e1ff8_b.jpg" username="jellybeanz" views="5" />
<photo  date_taken="2007-12-28 07:38:42" description="" id="2152275599" latitude="39.997346" license="2" longitude="116.268069" nbComments="0" rank="32" tags="beijing summerpalace" title="" url_b="http://static.flickr.com/2107/2152275599_4e1e678a13_b.jpg" username="jellybeanz" views="5" />
<photo  date_taken="2007-12-28 06:00:51" description="" id="2153048732" latitude="39.997346" license="2" longitude="116.268069" nbComments="0" rank="33" tags="beijing summerpalace" title="Longevity Hill" url_b="http://static.flickr.com/2081/2153048732_848bbf3b0c_b.jpg" username="jellybeanz" views="7" />
<photo  date_taken="2007-12-28 07:41:37" description="" id="2152277705" latitude="39.997346" license="2" longitude="116.268069" nbComments="0" rank="34" tags="beijing summerpalace" title="Roof" url_b="http://static.flickr.com/2288/2152277705_a6c59e3ee3_b.jpg" username="jellybeanz" views="7" />
<photo  date_taken="2011-10-22 07:59:20" description="" id="6661547909" latitude="39.997677" license="3" longitude="116.268072" nbComments="0" rank="35" tags="china beijing summerpalace kunminglake hdr lensnikon1685mmf3556gedvrdxafsnikkor 北京" title="China Beijing &quot;Summer Palace&quot; &quot;Kunming Lake&quot; HDR" url_b="http://static.flickr.com/7145/6661547909_a5e379f105_b.jpg" username="globetrotter_rodrigo" views="67" />
<photo  date_taken="2009-09-13 09:42:39" description="&lt;a href=&quot;http://www.flickr.com/photos/eyedeaz/sets/72157603859075340/&quot; target=&quot;_blank&quot;&gt;Most interesting&lt;/a&gt; | &lt;a href=&quot;http://www.flickr.com/photos/eyedeaz/sets/72157603489237978/&quot; target=&quot;_blank&quot;&gt;Explore&lt;/a&gt; | &lt;a href=&quot;http://www.flickr.com/photos/eyedeaz/sets/72157622404605503/&quot;&gt;Transmongoliano y La ruta de la amistad&lt;/a&gt; Palacio de Verano. Beijing, China (Septiembre 2009)" id="4507562109" latitude="39.997752" license="1" longitude="116.268074" nbComments="17" rank="36" tags="beijing pekín 北京 běijīng china 中国 zhōngguó asia transiberiano transsiberian transmongoliano transmongolian palaciodeverano summerpalace 颐和园 yíhéyuán paisaje landscape lago lake kunming 昆明湖 mirador viewpoint towerofbuddhistincense torredelinciensobudista 万寿山 colinadelalongevidadmilenaria longevityhill sepia ltytr2" title="Tower of Buddhist Incense" url_b="http://static.flickr.com/4021/4507562109_ff4e8b03bc_b.jpg" username="M.Angel Herrero" views="758" />
<photo  date_taken="2011-10-22 08:07:16" description="" id="6661552213" latitude="39.997827" license="3" longitude="116.268052" nbComments="0" rank="37" tags="china beijing summerpalace kunminglake lensnikon1685mmf3556gedvrdxafsnikkor 北京" title="China Beijing &quot;Summer Palace&quot; &quot;Kunming Lake&quot;" url_b="http://static.flickr.com/7170/6661552213_80c720db18_b.jpg" username="globetrotter_rodrigo" views="48" />
<photo  date_taken="2001-09-01 00:00:00" description="" id="134211583" latitude="39.997605" license="3" longitude="116.267988" nbComments="0" rank="38" tags="beijing china" title="Summer Palace" url_b="http://static.flickr.com/47/134211583_0b73d0e1ec_b.jpg" username="Benjamin Lyons" views="7" />
<photo  date_taken="2001-09-01 00:00:00" description="" id="134211702" latitude="39.997605" license="3" longitude="116.267988" nbComments="0" rank="39" tags="beijing china" title="Summer Palace" url_b="http://static.flickr.com/53/134211702_8aeed7947e_b.jpg" username="Benjamin Lyons" views="8" />
<photo  date_taken="2001-09-01 00:00:00" description="" id="134211455" latitude="39.997605" license="3" longitude="116.267988" nbComments="0" rank="40" tags="beijing china" title="Summer Palace" url_b="http://static.flickr.com/54/134211455_0c3e76d3c7_b.jpg" username="Benjamin Lyons" views="12" />
<photo  date_taken="2010-09-27 09:07:56" description="Beijing, China" id="5296723304" latitude="39.997851" license="3" longitude="116.268042" nbComments="1" rank="41" tags="summerpalace beijing china" title="Summer palace" url_b="http://static.flickr.com/5243/5296723304_deb803f5c8_b.jpg" username="Vince Garcia" views="94" />
<photo  date_taken="2008-10-31 08:16:37" description="One of the complexes at the Summer Palace was rebuilt in the early 20th C as a palace for the Dowager Empress Cixi to enjoy being given birthday presents in. From what I can make out that pretty much sums her up. This is a handle on a bronze jar about 70cm tall." id="2988239611" latitude="39.996821" license="3" longitude="116.268267" nbComments="0" rank="42" tags="beijing china summerpalace bronze" title="Handle" url_b="http://static.flickr.com/3158/2988239611_c6f0aa7b00_b.jpg" username="Beardy Git" views="16" />
<photo  date_taken="2001-09-01 00:00:00" description="" id="134210948" latitude="39.9973" license="3" longitude="116.267988" nbComments="0" rank="43" tags="beijing china" title="Summer Palace" url_b="http://static.flickr.com/52/134210948_93679c7d10_b.jpg" username="Benjamin Lyons" views="10" />
<photo  date_taken="2008-09-27 15:37:28" description="The Summer Palace in Beijing, China. The modern city of Beijing in the background" id="2956673053" latitude="39.997662" license="3" longitude="116.267977" nbComments="0" rank="44" tags="source fritzmb place asia china beijing summerpalace sourcefritzmb placeasiachinabeijingsummerpalace" title="The Summer Palace" url_b="http://static.flickr.com/3169/2956673053_b65b3fb5b8_b.jpg" username="fritzmb" views="6" />
<photo  date_taken="2008-09-27 15:42:09" description="The Summer Palace in Beijing, China" id="2956674739" latitude="39.997662" license="3" longitude="116.267977" nbComments="0" rank="45" tags="source fritzmb place asia china beijing summerpalace sourcefritzmb placeasiachinabeijingsummerpalace" title="The Summer Palace" url_b="http://static.flickr.com/3055/2956674739_fce2dee930_b.jpg" username="fritzmb" views="16" />
<photo  date_taken="2008-09-27 15:44:41" description="The Summer Palace in Beijing, China" id="2956675591" latitude="39.997662" license="3" longitude="116.267977" nbComments="0" rank="46" tags="source fritzmb place asia china beijing summerpalace sourcefritzmb placeasiachinabeijingsummerpalace" title="The Summer Palace" url_b="http://static.flickr.com/3023/2956675591_32ea54d012_b.jpg" username="fritzmb" views="8" />
<photo  date_taken="2008-09-27 15:46:05" description="The Summer Palace in Beijing, China" id="2956676609" latitude="39.997662" license="3" longitude="116.267977" nbComments="0" rank="47" tags="source fritzmb place asia china beijing summerpalace sourcefritzmb placeasiachinabeijingsummerpalace" title="The Summer Palace" url_b="http://static.flickr.com/3251/2956676609_7dc91fcd8d_b.jpg" username="fritzmb" views="7" />
<photo  date_taken="2008-09-27 15:34:28" description="The Summer Palace in Beijing, China" id="2957515006" latitude="39.997662" license="3" longitude="116.267977" nbComments="0" rank="48" tags="source fritzmb place asia china beijing summerpalace sourcefritzmb placeasiachinabeijingsummerpalace" title="The Summer Palace" url_b="http://static.flickr.com/3291/2957515006_53ae5ec426_b.jpg" username="fritzmb" views="11" />
<photo  date_taken="2008-09-27 15:47:01" description="The Summer Palace in Beijing, China. The modern city of Beijing in the background." id="2957520598" latitude="39.997662" license="3" longitude="116.267977" nbComments="0" rank="49" tags="source fritzmb place asia china beijing summerpalace sourcefritzmb placeasiachinabeijingsummerpalace" title="The Summer Palace" url_b="http://static.flickr.com/3236/2957520598_d5b2e1de1b_b.jpg" username="fritzmb" views="13" />
<photo  date_taken="2008-09-27 15:45:31" description="The Summer Palace in Beijing, China" id="2957519702" latitude="39.997662" license="3" longitude="116.267977" nbComments="0" rank="50" tags="source fritzmb place asia china beijing summerpalace keyword object art statue sourcefritzmb placeasiachinabeijingsummerpalace keywordobjectartstatue" title="The Summer Palace" url_b="http://static.flickr.com/3269/2957519702_13cb2bb5f8_b.jpg" username="fritzmb" views="7" />
<photo  date_taken="2008-09-27 15:47:43" description="The Summer Palace in Beijing, China" id="2957521194" latitude="39.997662" license="3" longitude="116.267977" nbComments="0" rank="51" tags="source fritzmb place asia china beijing summerpalace sourcefritzmb placeasiachinabeijingsummerpalace" title="The Summer Palace" url_b="http://static.flickr.com/3149/2957521194_7cc5353a53_b.jpg" username="fritzmb" views="29" />
<photo  date_taken="2008-09-27 15:43:16" description="The Summer Palace in Beijing, China" id="2957519008" latitude="39.997662" license="3" longitude="116.267977" nbComments="0" rank="52" tags="source fritzmb place asia china beijing summerpalace sourcefritzmb placeasiachinabeijingsummerpalace" title="The Summer Palace" url_b="http://static.flickr.com/3008/2957519008_df5c973b63_b.jpg" username="fritzmb" views="8" />
<photo  date_taken="2008-09-27 15:38:12" description="The Summer Palace in Beijing, China" id="2956674289" latitude="39.997662" license="3" longitude="116.267977" nbComments="0" rank="53" tags="source fritzmb place asia china beijing summerpalace sourcefritzmb placeasiachinabeijingsummerpalace" title="The Summer Palace" url_b="http://static.flickr.com/3026/2956674289_a0d0b4c719_b.jpg" username="fritzmb" views="23" />
<photo  date_taken="2008-09-27 15:36:19" description="The Summer Palace in Beijing, China" id="2956671565" latitude="39.997662" license="3" longitude="116.267977" nbComments="0" rank="54" tags="source fritzmb place asia china beijing summerpalace sourcefritzmb placeasiachinabeijingsummerpalace" title="The Summer Palace" url_b="http://static.flickr.com/3047/2956671565_54f5112045_b.jpg" username="fritzmb" views="7" />
<photo  date_taken="2008-09-27 15:37:56" description="The Summer Palace in Beijing, China" id="2956673651" latitude="39.997662" license="3" longitude="116.267977" nbComments="0" rank="55" tags="source fritzmb place asia china beijing summerpalace sourcefritzmb placeasiachinabeijingsummerpalace" title="The Summer Palace" url_b="http://static.flickr.com/3055/2956673651_1502cf5381_b.jpg" username="fritzmb" views="25" />
<photo  date_taken="2008-09-27 15:36:47" description="The Summer Palace in Beijing, China" id="2956672097" latitude="39.997662" license="3" longitude="116.267977" nbComments="0" rank="56" tags="source fritzmb place asia china beijing summerpalace sourcefritzmb placeasiachinabeijingsummerpalace" title="The Summer Palace" url_b="http://static.flickr.com/3179/2956672097_7d3c260aa3_b.jpg" username="fritzmb" views="6" />
<photo  date_taken="2008-09-27 15:49:08" description="The Summer Palace in Beijing, China" id="2956678141" latitude="39.997662" license="3" longitude="116.267977" nbComments="0" rank="57" tags="source fritzmb place asia china beijing summerpalace sourcefritzmb placeasiachinabeijingsummerpalace" title="The Summer Palace" url_b="http://static.flickr.com/3026/2956678141_ca50e2b94d_b.jpg" username="fritzmb" views="6" />
<photo  date_taken="2008-09-27 15:37:20" description="The Summer Palace in Beijing, China. The modern city fo Beijing in the background" id="2956672551" latitude="39.997662" license="3" longitude="116.267977" nbComments="0" rank="58" tags="source fritzmb place asia china beijing summerpalace sourcefritzmb placeasiachinabeijingsummerpalace" title="The Summer Palace" url_b="http://static.flickr.com/3039/2956672551_7e4f445ab6_b.jpg" username="fritzmb" views="12" />
<photo  date_taken="2012-08-29 10:28:14" description="Tja, die draken blijven mooi. Deze zjjn weer verwerkt in de hoeken van de daken. Vooral die kleur is tegek!" id="8397211037" latitude="39.997785" license="2" longitude="116.267988" nbComments="0" rank="59" tags="beijing summerpalace china towerofthefragranceofthebuddha foxiangge dragon roof wanshoushan longevityhill" title="Roof dragons" url_b="http://static.flickr.com/8076/8397211037_1108113da5_b.jpg" username="Breen's Photos" views="37" />
<photo  date_taken="2006-11-09 16:14:48" description="Watching from the lake-front." id="416166595" latitude="39.996553" license="3" longitude="116.268761" nbComments="0" rank="60" tags="2006 travel beijing summerpalace tower china" title="Tower on the hill" url_b="http://static.flickr.com/166/416166595_1146e0f148_b.jpg" username="VLKR" views="52" />
<photo  date_taken="2008-09-27 15:27:30" description="The Summer Palace in Beijing, China" id="2956669291" latitude="39.997477" license="3" longitude="116.267924" nbComments="0" rank="61" tags="source fritzmb place asia china beijing summerpalace sourcefritzmb placeasiachinabeijingsummerpalace" title="The Summer Palace" url_b="http://static.flickr.com/3167/2956669291_5b6c9f0c38_b.jpg" username="fritzmb" views="13" />
<photo  date_taken="2009-08-06 10:50:03" description="Pavilion of Precious Clouds at the Summer Palace, Beijing China." id="3996883435" latitude="39.997547" license="3" longitude="116.267924" nbComments="2" rank="62" tags="beijing běijīng 北京 peking china 中国 peoplesrepublicofchina 中华人民共和国 prc summerpalace yiheyuan 颐和园 yíhéyuán imperial bronze bronzepavilion goldpavilion pavilionofpreciousclouds baoyunge 宝云阁 bǎoyúngé megacity longevityhill 万寿山 wànshòushān over200views" title="Pavilion of Precious Clouds, Summer Palace, Beijing" url_b="http://static.flickr.com/2614/3996883435_0f5759a656_b.jpg" username="thewamphyri" views="268" />
<photo  date_taken="2007-03-02 16:46:54" description="Summer Palace (Yiheyuan), Bejing, China" id="420674633" latitude="39.997021" license="4" longitude="116.269758" nbComments="0" rank="63" tags="summerpalaceyiheyuan bejing china" title="SummerPalace 034" url_b="http://static.flickr.com/174/420674633_55427a8694_b.jpg" username="BenBenW" views="10" />
<photo  date_taken="2007-03-02 09:19:43" description="Summer Palace (Yiheyuan), Bejing, China" id="420677010" latitude="39.997021" license="4" longitude="116.269758" nbComments="0" rank="64" tags="summerpalaceyiheyuan bejing china" title="SummerPalace 066" url_b="http://static.flickr.com/183/420677010_88e3fcc7f5_b.jpg" username="BenBenW" views="7" />
<photo  date_taken="2007-03-02 09:07:34" description="Summer Palace (Yiheyuan), Bejing, China" id="420676997" latitude="39.997021" license="4" longitude="116.269758" nbComments="0" rank="65" tags="summerpalaceyiheyuan bejing china" title="SummerPalace 064" url_b="http://static.flickr.com/174/420676997_452457f89d_b.jpg" username="BenBenW" views="8" />
<photo  date_taken="2007-03-02 16:56:58" description="Summer Palace (Yiheyuan), Bejing, China" id="420674663" latitude="39.997021" license="4" longitude="116.269758" nbComments="0" rank="66" tags="summerpalaceyiheyuan bejing china" title="SummerPalace 044" url_b="http://static.flickr.com/166/420674663_ae6846e6fa_b.jpg" username="BenBenW" views="14" />
<photo  date_taken="2011-10-02 06:06:22" description="&lt;a href=&quot;http://en.wikipedia.org/wiki/Summer_palace&quot; rel=&quot;nofollow&quot;&gt;en.wikipedia.org/wiki/Summer_palace&lt;/a&gt;" id="6282441385" latitude="39.997647" license="5" longitude="116.267888" nbComments="0" rank="67" tags="beijing china summerpalace 颐和园" title="At the Summer Palace" url_b="http://static.flickr.com/6111/6282441385_029db33210_b.jpg" username="Hello, I am Bruce" views="25" />
<photo  date_taken="2012-08-29 10:55:38" description="Iets verder de heuvel op staat nog een tempel met budha's. Ook deze budha's zijn na vernieling hersteld, maar daarom niet minder mooi." id="8399232074" latitude="39.997835" license="2" longitude="116.267924" nbComments="0" rank="68" tags="china beijing summerpalace wanshoushan longevityhill zhihuihai seaofwisdomtemple temple buddha" title="Buddha wall" url_b="http://static.flickr.com/8352/8399232074_7c6e94356a_b.jpg" username="Breen's Photos" views="24" />
<photo  date_taken="2011-10-22 07:57:48" description="" id="6661545983" latitude="39.997702" license="3" longitude="116.267875" nbComments="0" rank="69" tags="china beijing summerpalace kunminglake hdr lensnikon1685mmf3556gedvrdxafsnikkor 北京" title="China Beijing &quot;Summer Palace&quot; &quot;Kunming Lake&quot; HDR" url_b="http://static.flickr.com/7001/6661545983_79a01b4303_b.jpg" username="globetrotter_rodrigo" views="63" />
<photo  date_taken="2007-04-30 08:04:49" description="Longevity Hill is a 60-meter-high hill in the gardens of the Summer Palace in Beijing, China. Together with Kunming Lake, it shapes the basic layout of the imperial garden's landscape. (&lt;a href=&quot;http://en.wikipedia.org/wiki/Longevity_Hill&quot;&gt;Wikipedia&lt;/a&gt;) The tower was just recently reconstructed and the colors of the intricate paintwork are fresh and vibrant." id="1030036022" latitude="39.99765" license="1" longitude="116.267859" nbComments="4" rank="70" tags="typehdr typelongexposure placeschina placeschinabeijing placeschinabeijingsummerpalace lens1022mm" title="万寿山 - Tower of Buddhist Incense" url_b="http://static.flickr.com/1263/1030036022_ec188552a8_b.jpg" username="stoicviking" views="567" />
<photo  date_taken="2008-08-04 08:22:24" description="" id="3870311773" latitude="39.997002" license="3" longitude="116.26983" nbComments="0" rank="71" tags="beijing summerpalace 夏日广场 china 中国 北京" title="Summer Palace" url_b="http://static.flickr.com/3574/3870311773_a1a740f503_b.jpg" username="Simmo1024" views="9" />
<photo  date_taken="2012-07-10 16:45:28" description="" id="7949454896" latitude="39.997851" license="4" longitude="116.267902" nbComments="0" rank="72" tags="北京 中国 beijing china 颐和园 summerpalace пекин китай beijingparks летнийдворец" title="佛香阁 / Tower of Buddhist Incense / Большой павильон Фосянгэ (Башня буддийского благовония)" url_b="http://static.flickr.com/8316/7949454896_b0584148dc_b.jpg" username="ahenobarbus" views="48" />
<photo  date_taken="2009-08-06 10:38:31" description="The Tower of Buddhist Incense (万寿山), Summer Palace, Beijing China. (via &lt;a href=&quot;http://www.sinohotelguide.com/aboutbeijing/summer-palace/index.html&quot; target=&quot;_blank&quot; rel=&quot;nofollow&quot;&gt;Sino hotel guide&lt;/a&gt; :) &lt;em&gt;In 1153, the Emperor of the Jin Dynasty Wan Yanliang built a temporary palace here called the &amp;quot;Garden of Golden Waters&amp;quot; as his summer resort. In 1888, the Empress Dowager Ci'xi decided to spend the money originally earmarked for the Chinese Navy and rebuilt the garden, she herself gave it its present name of Yi He Yuan (Garden of Cultivated Harmony), and the Chinese inscription of the name was written in Emperor Guangxu's handwriting.&lt;/em&gt;" id="3983340776" latitude="39.996589" license="3" longitude="116.268342" nbComments="2" rank="73" tags="beijing běijīng 北京 peking china 中国 peoplesrepublicofchina 中华人民共和国 prc summerpalace yiheyuan 颐和园 yíhéyuán imperial towerofbuddhistincense 万寿山 longevityhill gardenofcultivatedharmony extrainfo cropped 佛香阁 fóxiānggé foxiangge megacity wànshòushān over100views" title="The Tower of Buddhist Incense, Summer Palace, Beijing" url_b="http://static.flickr.com/2486/3983340776_534ffc87f0_b.jpg" username="thewamphyri" views="162" />
<photo  date_taken="2012-08-29 10:21:42" description="Na een lange wandeling om het meer en een flinke beklimming bereikten we deze Tower of Buddhist Incense. Zo indrukwekkend mooi, zo kleurrijk, geweldig gewoon." id="8397209755" latitude="39.997818" license="2" longitude="116.267859" nbComments="0" rank="74" tags="beijing summerpalace china towerofthefragranceofthebuddha foxiangge wanshoushan longevityhill towerofbuddhistincense" title="Tower of Buddhist Incense" url_b="http://static.flickr.com/8225/8397209755_7d5ab94367_b.jpg" username="Breen's Photos" views="62" />
<photo  date_taken="2001-05-26 10:13:35" description="" id="2165908502" latitude="39.99677" license="3" longitude="116.268085" nbComments="0" rank="75" tags="summerpalace beijing china" title="0650 Summer Palace - a long hallway" url_b="http://static.flickr.com/2309/2165908502_092ec584c0_b.jpg" username="geekstinkbreath" views="4" />
<photo  date_taken="2001-05-26 10:03:00" description="" id="2165908002" latitude="39.99677" license="3" longitude="116.268085" nbComments="0" rank="76" tags="summerpalace beijing china me" title="0647 Summer Palace - a courtyard" url_b="http://static.flickr.com/2399/2165908002_a51c8753ee_b.jpg" username="geekstinkbreath" views="11" />
<photo  date_taken="2001-05-26 10:07:33" description="" id="2165112457" latitude="39.99677" license="3" longitude="116.268085" nbComments="0" rank="77" tags="summerpalace beijing china" title="0649 Summer Palace - the interior" url_b="http://static.flickr.com/2255/2165112457_fe5dccae3f_b.jpg" username="geekstinkbreath" views="8" />
<photo  date_taken="2001-05-26 10:28:10" description="" id="2165112887" latitude="39.99677" license="3" longitude="116.268085" nbComments="0" rank="78" tags="summerpalace beijing china" title="0653 Summer Palace" url_b="http://static.flickr.com/2161/2165112887_b8abc66fa6_b.jpg" username="geekstinkbreath" views="3" />
<photo  date_taken="2011-10-02 06:44:41" description="&lt;a href=&quot;http://en.wikipedia.org/wiki/Summer_palace&quot; rel=&quot;nofollow&quot;&gt;en.wikipedia.org/wiki/Summer_palace&lt;/a&gt;" id="6282986194" latitude="39.997533" license="5" longitude="116.267805" nbComments="0" rank="79" tags="beijing china summerpalace 颐和园" title="At the Summer Palace" url_b="http://static.flickr.com/6218/6282986194_3b49e9dae4_b.jpg" username="Hello, I am Bruce" views="47" />
<photo  date_taken="2012-07-30 14:02:37" description="" id="8022908204" latitude="39.996668" license="4" longitude="116.268181" nbComments="0" rank="80" tags="中国 北京 beijing china 颐和园 summerpalace пекин китай beijingparks летнийдворец" title="Come on, chew on this!" url_b="http://static.flickr.com/8311/8022908204_6240613655_b.jpg" username="ahenobarbus" views="37" />
<photo  date_taken="2008-08-04 08:22:09" description="" id="3871095794" latitude="39.996905" license="3" longitude="116.269838" nbComments="0" rank="81" tags="beijing summerpalace 夏日广场 china 中国 北京" title="Summer Palace" url_b="http://static.flickr.com/2621/3871095794_deafde4472_b.jpg" username="Simmo1024" views="6" />
<photo  date_taken="2012-07-30 14:25:29" description="" id="8096529310" latitude="39.9979" license="4" longitude="116.267838" nbComments="1" rank="82" tags="北京 中国 beijing china пекин китай 颐和园 summerpalace beijingparks летнийдворец" title="佛香阁 - Tower of Buddhist Incense monochrome impression" url_b="http://static.flickr.com/8324/8096529310_129ef59ebb_b.jpg" username="ahenobarbus" views="48" />
<photo  date_taken="2011-05-07 08:57:15" description="" id="5748895041" latitude="39.996644" license="4" longitude="116.268152" nbComments="0" rank="83" tags="china prc summerpalace beijing 北京" title="IMG_2455" url_b="http://static.flickr.com/2507/5748895041_cb00c24bf7_b.jpg" username="kenner116" views="47" />
<photo  date_taken="2007-12-18 02:12:02" description="" id="2117789675" latitude="39.9986" license="1" longitude="116.269302" nbComments="0" rank="84" tags="kunminglake summerpalace beijing china longevityhill" title="Longevity Hill" url_b="http://static.flickr.com/2215/2117789675_2dd3e1c82a_b.jpg" username="FanJ" views="47" />
<photo  date_taken="2007-12-18 02:08:40" description="" id="2117782857" latitude="39.9986" license="1" longitude="116.269302" nbComments="0" rank="85" tags="kunminglake summerpalace beijing china longevityhill" title="Kunming Lake" url_b="http://static.flickr.com/2206/2117782857_54c9949237_b.jpg" username="FanJ" views="43" />
<photo  date_taken="2012-05-26 13:37:37" description="At the Summer Palace, Beijing, China. &lt;a href=&quot;http://gregannandale.com&quot; rel=&quot;nofollow&quot;&gt;Greg Annandale&lt;/a&gt; | &lt;a href=&quot;http://twitter.com/greg_a&quot; rel=&quot;nofollow&quot;&gt;Twitter&lt;/a&gt; | &lt;a href=&quot;https://www.facebook.com/GregAnnandalePhotography&quot; rel=&quot;nofollow&quot;&gt;Facebook&lt;/a&gt; | &lt;a href=&quot;https://plus.google.com/u/0/109996414832090291883/&quot; rel=&quot;nofollow&quot;&gt;Google+&lt;/a&gt; | &lt;a href=&quot;http://500px.com/greg_a&quot; rel=&quot;nofollow&quot;&gt;500px&lt;/a&gt; | &lt;a href=&quot;http://www.gettyimages.co.uk/Search/Search.aspx?assettype=image&amp;amp;family=creative&amp;amp;artist=Greg+Annandale&quot; rel=&quot;nofollow&quot;&gt;Getty&lt;/a&gt;" id="8053725784" latitude="39.997236" license="2" longitude="116.267747" nbComments="4" rank="86" tags="28 4 70200 beijing camera canon canon5dmk2 canon5dmkii china chinese color colorful colour colourful dress f28 f4 girl lady palace pose shooting summer summerpalace travel" title="Taking the Shot" url_b="http://static.flickr.com/8458/8053725784_1c21c7ca30_b.jpg" username="Greg Annandale" views="194" />
<photo  date_taken="2011-10-02 05:46:27" description="&lt;a href=&quot;http://en.wikipedia.org/wiki/Summer_palace&quot; rel=&quot;nofollow&quot;&gt;en.wikipedia.org/wiki/Summer_palace&lt;/a&gt;" id="6282943572" latitude="39.998377" license="5" longitude="116.268094" nbComments="0" rank="87" tags="beijing china summerpalace 颐和园" title="At the Summer Palace" url_b="http://static.flickr.com/6038/6282943572_012ca28933_b.jpg" username="Hello, I am Bruce" views="30" />
<photo  date_taken="2008-04-24 06:51:33" description="One of the corridors around the Tower of Buddhist Incense at the Summer Palace. (dsc04563)" id="2439409159" latitude="39.99773" license="5" longitude="116.26772" nbComments="0" rank="88" tags="china 中国 zhongguo beijing 北京市 běijīngshì 北京 běijīng haidian 海淀区 hǎidiànqū summerpalace palace 颐和园 yíhéyuán towerofbuddhistincense geotagged geo:lat=3999773 geo:lon=11626772" title="Corridor" url_b="http://static.flickr.com/2128/2439409159_ac46d28d61_b.jpg" username="dbaron" views="77" />
<photo  date_taken="2010-07-10 13:32:38" description="" id="4832159638" latitude="39.996661" license="1" longitude="116.268038" nbComments="0" rank="89" tags="china beijing" title="Summer Palace" url_b="http://static.flickr.com/4152/4832159638_b46049f686_b.jpg" username="Chiva Congelado" views="14" />
<photo  date_taken="2011-10-02 06:34:45" description="&lt;a href=&quot;http://en.wikipedia.org/wiki/Summer_palace&quot; rel=&quot;nofollow&quot;&gt;en.wikipedia.org/wiki/Summer_palace&lt;/a&gt;" id="6282980696" latitude="39.997086" license="5" longitude="116.267758" nbComments="0" rank="90" tags="beijing china summerpalace 颐和园" title="At the Summer Palace" url_b="http://static.flickr.com/6100/6282980696_eecc7c354c_b.jpg" username="Hello, I am Bruce" views="39" />
<photo  date_taken="2008-09-27 15:25:17" description="The Summer Palace in Beijing, China" id="2957512320" latitude="39.996668" license="3" longitude="116.26801" nbComments="0" rank="91" tags="source fritzmb place asia china beijing summerpalace sourcefritzmb placeasiachinabeijingsummerpalace" title="The Summer Palace" url_b="http://static.flickr.com/3015/2957512320_c6ce95a3af_b.jpg" username="fritzmb" views="6" />
<photo  date_taken="2008-09-27 15:25:56" description="The Summer Palace in Beijing, China" id="2956668833" latitude="39.996668" license="3" longitude="116.26801" nbComments="0" rank="92" tags="source fritzmb place asia china beijing summerpalace sourcefritzmb placeasiachinabeijingsummerpalace" title="The Summer Palace" url_b="http://static.flickr.com/3184/2956668833_428f3fa22e_b.jpg" username="fritzmb" views="9" />
<photo  date_taken="2011-04-19 14:37:53" description="View of the Yu Feng pagoda through a screen wall. Summer Palace, Beijing, China" id="5690954773" latitude="39.997777" license="1" longitude="116.267709" nbComments="0" rank="93" tags="yiheyuan architecture batiment beijing building china chine claustra construction fenêtre pagoda pagode palaisdété pekinpeking silhouette summerpalace window screenwall" title="A claustra" url_b="http://static.flickr.com/5186/5690954773_0da31717df_b.jpg" username="Herve &quot;Setaou&quot; BRY" views="36" />
<photo  date_taken="2010-07-10 13:33:25" description="" id="4831550931" latitude="39.996869" license="1" longitude="116.267852" nbComments="0" rank="94" tags="china beijing" title="Summer Palace" url_b="http://static.flickr.com/4131/4831550931_d689bc3e74_b.jpg" username="Chiva Congelado" views="7" />
<photo  date_taken="2011-10-02 06:07:52" description="&lt;a href=&quot;http://en.wikipedia.org/wiki/Summer_palace&quot; rel=&quot;nofollow&quot;&gt;en.wikipedia.org/wiki/Summer_palace&lt;/a&gt;" id="6282444681" latitude="39.997625" license="5" longitude="116.267683" nbComments="0" rank="95" tags="beijing china summerpalace 颐和园" title="At the Summer Palace" url_b="http://static.flickr.com/6038/6282444681_51e37eaab9_b.jpg" username="Hello, I am Bruce" views="41" />
<photo  date_taken="2004-10-26 23:03:07" description="The Long Corridor (Chinese: 长廊; pinyin: Cháng Láng) is a covered walkway in the Summer Palace in Beijing, China. First erected in the middle of the 18th century, it is famous for its length (728 meters) in conjunction with its rich painted decoration (more than 14,000 paintings). The painting visible in this photo is entitled &lt;a href=&quot;http://en.wikipedia.org/wiki/Long_Corridor#The_Seven_Sages_of_the_Bamboo_Grove&quot;&gt;&amp;quot;The Seven Sages of the Bamboo Grove&amp;quot;&lt;/a&gt;. It shows seven passionate literati of the 3rd century, known as the Seven Sages of the Bamboo Grove. The scholars, Ruan Ji, Ji Kang, Ruan Xian, Shan Tao, Xiang Xiu, Wang Rong and Liu Ling, held progressive political views but were unable to realize their ambitions. As a reaction, they refused to seek fame and wealth and took to entertaining themselves in a bamboo wood with composing poetry, food, music, and chess play instead. (information from the &lt;a href=&quot;http://en.wikipedia.org/wiki/Long_Corridor&quot;&gt;Long Corridor&lt;/a&gt; article on Wikipedia)" id="464842973" latitude="39.996479" license="1" longitude="116.268203" nbComments="1" rank="96" tags="长廊 longcorridor summerpalace beijing china october 2004 頤和園 北京 中国 vanishingpoint" title="The Long Corridor, Summer Palace, Beijing" url_b="http://static.flickr.com/213/464842973_38e0a85f3b_b.jpg" username="Jesse Varner" views="1379" />
<photo  date_taken="2011-10-02 05:58:40" description="&lt;a href=&quot;http://en.wikipedia.org/wiki/Summer_palace&quot; rel=&quot;nofollow&quot;&gt;en.wikipedia.org/wiki/Summer_palace&lt;/a&gt;" id="6282438771" latitude="39.997802" license="5" longitude="116.2677" nbComments="0" rank="97" tags="beijing china summerpalace 颐和园" title="At the Summer Palace" url_b="http://static.flickr.com/6033/6282438771_e3e5bb023d_b.jpg" username="Hello, I am Bruce" views="20" />
<photo  date_taken="2010-05-27 15:17:33" description="" id="8015812407" latitude="39.998683" license="3" longitude="116.269263" nbComments="0" rank="98" tags="beijing china" title="Taking a Break at Summer Palace (Yihe Yuan)" url_b="http://static.flickr.com/8180/8015812407_b828b513e3_b.jpg" username="jurgen.proschinger" views="2" />
<photo  date_taken="2010-05-27 15:48:43" description="" id="8015824084" latitude="39.998683" license="3" longitude="116.269263" nbComments="0" rank="99" tags="beijing china" title="Ceiling in House at Summer Palace (Yihe Yuan)" url_b="http://static.flickr.com/8308/8015824084_dc160fd281_b.jpg" username="jurgen.proschinger" views="2" />
<photo  date_taken="2010-05-27 16:07:58" description="" id="8015827161" latitude="39.998683" license="3" longitude="116.269263" nbComments="0" rank="100" tags="beijing china" title="Summer Palace (Yihe Yuan)" url_b="http://static.flickr.com/8450/8015827161_988682a6ae_b.jpg" username="jurgen.proschinger" views="3" />
<photo  date_taken="2010-05-27 15:08:13" description="" id="8015810413" latitude="39.998683" license="3" longitude="116.269263" nbComments="0" rank="101" tags="beijing china" title="Cleaning up in the Summer Palace (Yihe Yuan)" url_b="http://static.flickr.com/8317/8015810413_b712c92698_b.jpg" username="jurgen.proschinger" views="2" />
<photo  date_taken="2010-05-27 16:49:14" description="" id="8015833787" latitude="39.998683" license="3" longitude="116.269263" nbComments="0" rank="102" tags="beijing china" title="Theatre in Summer Palace (Yihe Yuan)" url_b="http://static.flickr.com/8296/8015833787_db0d5cb1d0_b.jpg" username="jurgen.proschinger" views="2" />
<photo  date_taken="2010-05-27 15:08:29" description="" id="8015812324" latitude="39.998683" license="3" longitude="116.269263" nbComments="0" rank="103" tags="beijing china" title="Boat ankering at Summer Palace (Yihe Yuan)" url_b="http://static.flickr.com/8455/8015812324_64bd433e4c_b.jpg" username="jurgen.proschinger" views="2" />
<photo  date_taken="2010-05-27 16:47:20" description="" id="8015831027" latitude="39.998683" license="3" longitude="116.269263" nbComments="0" rank="104" tags="beijing china" title="Buildings in Summer Palace (Yihe Yuan)" url_b="http://static.flickr.com/8034/8015831027_66e2cf1770_b.jpg" username="jurgen.proschinger" views="2" />
<photo  date_taken="2010-05-27 15:57:18" description="" id="8015824649" latitude="39.998683" license="3" longitude="116.269263" nbComments="0" rank="105" tags="beijing china" title="Decorated Paifang in Summer Palace" url_b="http://static.flickr.com/8317/8015824649_ba7279b3b7_b.jpg" username="jurgen.proschinger" views="2" />
<photo  date_taken="2010-05-27 14:53:40" description="" id="8015809466" latitude="39.998683" license="3" longitude="116.269263" nbComments="0" rank="106" tags="beijing china" title="Man sitting around with Umbrella in Summer Palace (Yihe Yuan)" url_b="http://static.flickr.com/8041/8015809466_deb7a4467f_b.jpg" username="jurgen.proschinger" views="3" />
<photo  date_taken="2010-05-27 14:56:47" description="" id="8015810130" latitude="39.998683" license="3" longitude="116.269263" nbComments="0" rank="107" tags="beijing china" title="Bronze Qilin statue inside the Summer Palace" url_b="http://static.flickr.com/8307/8015810130_23709d2165_b.jpg" username="jurgen.proschinger" views="2" />
<photo  date_taken="2010-05-27 15:46:54" description="" id="8015820877" latitude="39.998683" license="3" longitude="116.269263" nbComments="0" rank="108" tags="beijing china" title="River at Summer Palace (Yihe Yuan)" url_b="http://static.flickr.com/8304/8015820877_4b73e9491c_b.jpg" username="jurgen.proschinger" views="2" />
<photo  date_taken="2010-05-27 16:35:53" description="" id="8015830442" latitude="39.998683" license="3" longitude="116.269263" nbComments="0" rank="109" tags="beijing china" title="Buildings in the Summer Palace (Yihe Yuan)" url_b="http://static.flickr.com/8295/8015830442_fbaae06658_b.jpg" username="jurgen.proschinger" views="2" />
<photo  date_taken="2010-05-27 16:36:06" description="" id="8015830263" latitude="39.998683" license="3" longitude="116.269263" nbComments="0" rank="110" tags="beijing china" title="Waitress in Summer Palace (Yihe Yuan)" url_b="http://static.flickr.com/8311/8015830263_0962e6b6d3_b.jpg" username="jurgen.proschinger" views="2" />
<photo  date_taken="2010-05-27 14:51:57" description="" id="8015808164" latitude="39.998683" license="3" longitude="116.269263" nbComments="0" rank="111" tags="beijing china" title="Old Door at Summer Palace (Yihe Yuan)" url_b="http://static.flickr.com/8302/8015808164_3bff028369_b.jpg" username="jurgen.proschinger" views="2" />
<photo  date_taken="2010-05-27 16:30:43" description="" id="8015828768" latitude="39.998683" license="3" longitude="116.269263" nbComments="0" rank="112" tags="beijing china" title="Building in Summer Palace (Yihe Yuan)" url_b="http://static.flickr.com/8312/8015828768_5a80e981cc_b.jpg" username="jurgen.proschinger" views="2" />
<photo  date_taken="2010-05-27 15:48:09" description="" id="8015823438" latitude="39.998683" license="3" longitude="116.269263" nbComments="0" rank="113" tags="beijing china" title="Rooftops at Summer Palace (Yihe Yuan)" url_b="http://static.flickr.com/8457/8015823438_734634fcbb_b.jpg" username="jurgen.proschinger" views="2" />
<photo  date_taken="2010-05-27 16:05:42" description="" id="8015826214" latitude="39.998683" license="3" longitude="116.269263" nbComments="0" rank="114" tags="beijing china" title="Xina on Boat in Summer Palace (Yihe Yuan)" url_b="http://static.flickr.com/8444/8015826214_cbc5999533_b.jpg" username="jurgen.proschinger" views="2" />
<photo  date_taken="2010-05-27 16:48:35" description="" id="8015832937" latitude="39.998683" license="3" longitude="116.269263" nbComments="0" rank="115" tags="beijing china" title="Xina in Dining Room at Summer Palace (Yihe Yuan)" url_b="http://static.flickr.com/8318/8015832937_bd9252a2a0_b.jpg" username="jurgen.proschinger" views="3" />
<photo  date_taken="2010-05-27 17:19:27" description="" id="8015835350" latitude="39.998683" license="3" longitude="116.269263" nbComments="0" rank="116" tags="beijing china" title="The Marble Boat on the Grounds of the Summer Palace" url_b="http://static.flickr.com/8461/8015835350_d110717f46_b.jpg" username="jurgen.proschinger" views="2" />
<photo  date_taken="2010-05-27 15:00:45" description="" id="8015809551" latitude="39.998683" license="3" longitude="116.269263" nbComments="0" rank="117" tags="beijing china" title="Dragon in Summer Palace (Yihe Yuan)" url_b="http://static.flickr.com/8309/8015809551_6bcd24e8a8_b.jpg" username="jurgen.proschinger" views="2" />
<photo  date_taken="2010-05-27 15:18:08" description="" id="8015814316" latitude="39.998683" license="3" longitude="116.269263" nbComments="0" rank="118" tags="beijing china" title="Roof Decoration at Summer Palace (Yihe Yuan)" url_b="http://static.flickr.com/8435/8015814316_6b5df17a31_b.jpg" username="jurgen.proschinger" views="2" />
<photo  date_taken="2009-09-19 01:52:24" description="" id="3933592398" latitude="39.998061" license="2" longitude="116.267789" nbComments="0" rank="119" tags="china beijing summerpalace canonpowershotsx10is" title="Summer Palace on a Rainy Day" url_b="http://static.flickr.com/2536/3933592398_4f7e4dea79_b.jpg" username="treegrow" views="19" />
<photo  date_taken="2009-09-19 01:52:08" description="" id="3933592022" latitude="39.998061" license="2" longitude="116.267789" nbComments="0" rank="120" tags="china beijing summerpalace canonpowershotsx10is" title="Summer Palace on a Rainy Day" url_b="http://static.flickr.com/3426/3933592022_17d031a727_b.jpg" username="treegrow" views="10" />
<photo  date_taken="2011-10-02 06:34:57" description="&lt;a href=&quot;http://en.wikipedia.org/wiki/Summer_palace&quot; rel=&quot;nofollow&quot;&gt;en.wikipedia.org/wiki/Summer_palace&lt;/a&gt;" id="6282981822" latitude="39.997094" license="5" longitude="116.267711" nbComments="0" rank="121" tags="beijing china summerpalace 颐和园" title="At the Summer Palace" url_b="http://static.flickr.com/6099/6282981822_1320764b81_b.jpg" username="Hello, I am Bruce" views="56" />
<photo  date_taken="2011-10-02 06:31:11" description="&lt;a href=&quot;http://en.wikipedia.org/wiki/Summer_palace&quot; rel=&quot;nofollow&quot;&gt;en.wikipedia.org/wiki/Summer_palace&lt;/a&gt;" id="6282462707" latitude="39.997327" license="5" longitude="116.267644" nbComments="0" rank="122" tags="beijing china summerpalace 颐和园" title="At the Summer Palace" url_b="http://static.flickr.com/6115/6282462707_4bde95ee17_b.jpg" username="Hello, I am Bruce" views="54" />
<photo  date_taken="2010-05-20 17:45:47" description="Wenshou or zoomorphic ornaments are statues of dragons and other animals, that are found on the roofs of Chinese temples, palaces, and homes. Examples of Wenshou as Imperial roof decoration are found within the Imperial Palace Museum of the Forbidden City" id="4705203700" latitude="39.998607" license="6" longitude="116.268278" nbComments="1" rank="123" tags="beijing wenshou ef70200f28 summerpalace" title="WenShou" url_b="http://static.flickr.com/4016/4705203700_c688d5d67f_b.jpg" username="Pipapok" views="113" />
<photo  date_taken="2007-09-02 12:32:05" description="" id="2414464833" latitude="39.996516" license="1" longitude="116.268095" nbComments="0" rank="124" tags="summerpalace" title="IMG_3295" url_b="http://static.flickr.com/3243/2414464833_fba273c15d_b.jpg" username="zzchen" views="2" />
<photo  date_taken="2007-09-02 12:35:20" description="" id="2415291848" latitude="39.996516" license="1" longitude="116.268095" nbComments="0" rank="125" tags="summerpalace" title="IMG_3297" url_b="http://static.flickr.com/3136/2415291848_cba3437491_b.jpg" username="zzchen" views="1" />
<photo  date_taken="2012-02-18 12:30:52" description="" id="6875554814" latitude="39.998169" license="1" longitude="116.269996" nbComments="0" rank="126" tags="" title="The Summer Palace" url_b="http://static.flickr.com/7070/6875554814_325b8605f4_b.jpg" username="Around the World in unknown Days" views="7" />
<photo  date_taken="2010-07-10 13:33:00" description="" id="4831550183" latitude="39.996508" license="1" longitude="116.268069" nbComments="0" rank="127" tags="china beijing" title="Summer Palace" url_b="http://static.flickr.com/4153/4831550183_74963d5141_b.jpg" username="Chiva Congelado" views="14" />
<photo  date_taken="2005-09-25 09:55:29" description="" id="53504433" latitude="39.996511" license="1" longitude="116.268063" nbComments="0" rank="128" tags="china" title="The Summer Palace, Beijing" url_b="http://static.flickr.com/26/53504433_67e96a8e7c_b.jpg" username="Gordon McMullan" views="8" />
<photo  date_taken="2005-09-25 08:50:49" description="" id="53504328" latitude="39.996511" license="1" longitude="116.268063" nbComments="0" rank="129" tags="china" title="The Summer Palace, Beijing" url_b="http://static.flickr.com/32/53504328_8da3c66721_b.jpg" username="Gordon McMullan" views="8" />
<photo  date_taken="2005-09-25 10:02:25" description="" id="53504514" latitude="39.996511" license="1" longitude="116.268063" nbComments="0" rank="130" tags="china" title="The Summer Palace, Beijing" url_b="http://static.flickr.com/27/53504514_e8f3336932_b.jpg" username="Gordon McMullan" views="21" />
<photo  date_taken="2005-09-25 10:00:31" description="" id="53504471" latitude="39.996511" license="1" longitude="116.268063" nbComments="0" rank="131" tags="china" title="The Summer Palace, Beijing" url_b="http://static.flickr.com/31/53504471_7071f650e8_b.jpg" username="Gordon McMullan" views="9" />
<photo  date_taken="2005-09-25 08:51:00" description="" id="53504376" latitude="39.996511" license="1" longitude="116.268063" nbComments="0" rank="132" tags="china" title="The Summer Palace, Beijing" url_b="http://static.flickr.com/24/53504376_080a7b179f_b.jpg" username="Gordon McMullan" views="8" />
<photo  date_taken="2006-06-07 12:16:16" description="Male guardian lion at the entrance to the Summer Palace." id="181812289" latitude="39.996454" license="5" longitude="116.268128" nbComments="0" rank="133" tags="china beijing 中国 北京 summerpalace 颐和园 palace 獅" title="Guardian" url_b="http://static.flickr.com/55/181812289_8d82b5a484_b.jpg" username="Mr Wabu" views="54" />
<photo  date_taken="2006-06-07 12:16:40" description="" id="181813059" latitude="39.996454" license="5" longitude="116.268128" nbComments="0" rank="134" tags="china beijing 中国 北京 summerpalace 颐和园 palace 獅" title="Male guardian" url_b="http://static.flickr.com/76/181813059_4b9063cfaf_b.jpg" username="Mr Wabu" views="34" />
<photo  date_taken="2006-06-07 12:17:40" description="" id="181813864" latitude="39.996454" license="5" longitude="116.268128" nbComments="0" rank="135" tags="china beijing 中国 北京 summerpalace 颐和园 palace 獅" title="Female guardian" url_b="http://static.flickr.com/51/181813864_65216b90b4_b.jpg" username="Mr Wabu" views="37" />
<photo  date_taken="2006-11-09 16:17:00" description="This plaque attracted a lot of people for either gathering or photo-taking." id="416166624" latitude="39.996372" license="3" longitude="116.268213" nbComments="0" rank="136" tags="2006 travel beijing summerpalace plaque china" title="The plaque beside Kunming Lake" url_b="http://static.flickr.com/42/416166624_a8e4ec5ed2_b.jpg" username="VLKR" views="30" />
<photo  date_taken="2011-10-22 07:28:24" description="" id="6661536309" latitude="39.996911" license="3" longitude="116.267705" nbComments="0" rank="137" tags="china beijing summerpalace kunminglake hdr lensnikon1685mmf3556gedvrdxafsnikkor 北京" title="China Beijing &quot;Summer Palace&quot; &quot;Kunming Lake&quot; HDR" url_b="http://static.flickr.com/7031/6661536309_84d1ce13e6_b.jpg" username="globetrotter_rodrigo" views="27" />
<photo  date_taken="2008-09-27 15:24:14" description="The Summer Palace in Beijing, China" id="2956668053" latitude="39.996462" license="3" longitude="116.268063" nbComments="0" rank="138" tags="source fritzmb place asia china beijing summerpalace sourcefritzmb placeasiachinabeijingsummerpalace" title="The Summer Palace" url_b="http://static.flickr.com/3282/2956668053_3d2c4003e8_b.jpg" username="fritzmb" views="7" />
<photo  date_taken="2009-06-18 13:40:11" description="18 June 2009" id="4111232099" latitude="39.99835" license="1" longitude="116.267852" nbComments="0" rank="139" tags="beijing summerpalace china" title="Summer Palace, Beijing" url_b="http://static.flickr.com/2663/4111232099_97b5855970_b.jpg" username="soberch" views="7" />
<photo  date_taken="2009-06-21 08:02:24" description="&lt;a href=&quot;http://en.wikipedia.org/wiki/Summer_palace&quot; rel=&quot;nofollow&quot;&gt;Summer Palace&lt;/a&gt;, Beijing." id="4187564514" latitude="39.996376" license="1" longitude="116.268128" nbComments="3" rank="140" tags="china beijing summerpalace yiheyuan gardensofnurturedharmony palace castle grounds resort kunminglake lake water" title="Palatial" url_b="http://static.flickr.com/2734/4187564514_14a378debd_b.jpg" username="Sanctu" views="184" />
<photo  date_taken="2007-11-28 13:03:14" description="That's one very big incense burner! This 41 meter high &lt;a href=&quot;http://www.world-heritage-tour.org/asia/cn/beijing/yiheyuan/wanshoushan/southUp.html&quot;&gt;building&lt;/a&gt; dominates the landscape of the Summer Palace." id="2091948277" latitude="39.996358" license="1" longitude="116.268147" nbComments="0" rank="141" tags="beijing summerpalace wanshoushan unesco china" title="Tower of the Fragrance of the Buddha" url_b="http://static.flickr.com/2183/2091948277_83f93b5698_b.jpg" username="edwhitaker" views="28" />
<photo  date_taken="2007-11-28 13:22:47" description="" id="2091955887" latitude="39.996358" license="1" longitude="116.268147" nbComments="0" rank="142" tags="beijing summerpalace china" title="Revolving Archives" url_b="http://static.flickr.com/2008/2091955887_b8eb739124_b.jpg" username="edwhitaker" views="62" />
<photo  date_taken="2008-08-04 08:21:26" description="" id="3870312773" latitude="39.99695" license="3" longitude="116.270186" nbComments="0" rank="143" tags="beijing summerpalace 夏日广场 china 中国 北京" title="Summer Palace" url_b="http://static.flickr.com/3467/3870312773_445e5acccb_b.jpg" username="Simmo1024" views="6" />
<photo  date_taken="2011-10-22 08:26:36" description="" id="6661555245" latitude="39.99825" license="3" longitude="116.267719" nbComments="0" rank="144" tags="china beijing summerpalace kunminglake lensnikon105mmf28gedafdxfisheyenikkor 北京" title="China Beijing &quot;Summer Palace&quot; &quot;Kunming Lake&quot;" url_b="http://static.flickr.com/7158/6661555245_bc7e067b0d_b.jpg" username="globetrotter_rodrigo" views="77" />
<photo  date_taken="2006-08-27 12:42:08" description="Summer Palace. &lt;a href=&quot;http://foomfoom.wordpress.com/2006/08/27/day-9-summer-palace-times-two/&quot;&gt;Day 9 Journal&lt;/a&gt;" id="238000354" latitude="39.996578" license="3" longitude="116.267828" nbComments="0" rank="145" tags="china 中国 beijing 北京 summerpalace 颐和园 canoneos350d sigma1850mmf28exdc geotagged geo:lat=39996578 geo:lon=116267828" title="IMG_0829" url_b="http://static.flickr.com/95/238000354_32b4d2cecb_b.jpg" username="foomtsuruhashi" views="98" />
<photo  date_taken="2012-07-30 14:33:43" description="" id="8096529220" latitude="39.998213" license="4" longitude="116.267623" nbComments="0" rank="146" tags="北京 中国 beijing china пекин китай 颐和园 summerpalace beijingparks летнийдворец" title="栾树属 - Koelreuteria" url_b="http://static.flickr.com/8467/8096529220_29d535157e_b.jpg" username="ahenobarbus" views="41" />
<photo  date_taken="2001-09-01 00:00:00" description="" id="134211854" latitude="39.996228" license="3" longitude="116.268149" nbComments="0" rank="147" tags="beijing china" title="Summer Palace" url_b="http://static.flickr.com/55/134211854_ea79b6e412_b.jpg" username="Benjamin Lyons" views="9" />
<photo  date_taken="2001-09-01 00:00:00" description="" id="134211278" latitude="39.996228" license="3" longitude="116.268149" nbComments="0" rank="148" tags="beijing china" title="Summer Palace" url_b="http://static.flickr.com/52/134211278_5b9797123a_b.jpg" username="Benjamin Lyons" views="7" />
<photo  date_taken="2012-07-30 14:29:47" description="" id="7982556575" latitude="39.998196" license="4" longitude="116.267538" nbComments="0" rank="149" tags="北京 中国 beijing china 颐和园 summerpalace пекин китай beijingparks летнийдворец" title="智慧海 - The Sea of Wisdom Temple" url_b="http://static.flickr.com/8296/7982556575_bb0e776f2c_b.jpg" username="ahenobarbus" views="43" />
<photo  date_taken="2004-02-01 00:00:00" description="Entre voltar de um sítio e fazer as malas para outro, vai-se tirando o pó aos álbuns esquecidos por aí. UNESCO World Heritage: &lt;a href=&quot;http://whc.unesco.org/en/list/880&quot; rel=&quot;nofollow&quot;&gt;Summer Palace, an Imperial Garden in Beijing&lt;/a&gt;" id="3096856708" latitude="39.998714" license="1" longitude="116.267924" nbComments="0" rank="150" tags="iphoto china pequim peking beijing 頤和園 颐和园 yiheyuan summerpalace paláciodeverão roof telhado dach unescoworldheritage" title="Fareste" url_b="http://static.flickr.com/3156/3096856708_c3a2de67bf_b.jpg" username="PQz" views="41" />
</photos>
