<?xml version="1.0" encoding="UTF-8" standalone="no"?>
<photos monument="Torre del Mangia">

<photo  date_taken="2007-04-05 14:37:33" description="" id="2052738102" latitude="43.318297" license="2" longitude="11.332306" nbComments="0" rank="1" tags="sienapalazzopubblico siena sienatorredelmangia sienaviadisalicotto" title="" url_b="http://static.flickr.com/2380/2052738102_4d9691facf_b.jpg" username="Andreas Jungherr" views="11" />
<photo  date_taken="2007-04-05 14:36:48" description="" id="2052737526" latitude="43.318297" license="2" longitude="11.332306" nbComments="0" rank="2" tags="sienapalazzopubblico siena sienatorredelmangia sienaviadisalicotto" title="" url_b="http://static.flickr.com/2021/2052737526_c296dd2dc4_b.jpg" username="Andreas Jungherr" views="18" />
<photo  date_taken="2007-04-05 14:39:01" description="" id="2051951883" latitude="43.318297" license="2" longitude="11.332306" nbComments="0" rank="3" tags="sienapalazzopubblico siena sienatorredelmangia sienaviadisalicotto" title="" url_b="http://static.flickr.com/2006/2051951883_0c148f7bf6_b.jpg" username="Andreas Jungherr" views="9" />
<photo  date_taken="2007-11-11 10:08:51" description="" id="2041061770" latitude="43.318202" license="5" longitude="11.332141" nbComments="0" rank="4" tags="siena tuscany italy italia piazzadelcampo torredelmangia campo mangia piazza torre city picture" title="Siena" url_b="http://static.flickr.com/2364/2041061770_8e0ab2cbf2_b.jpg" username="j.reed" views="93" />
<photo  date_taken="2007-11-11 10:13:09" description="(torre = tower)" id="2041061612" latitude="43.318202" license="5" longitude="11.332141" nbComments="1" rank="5" tags="siena tuscany italy italia tower piazzadelcampo torredelmangia campo mangia piazza torre stairwell" title="Torre del Mangia stairs" url_b="http://static.flickr.com/2138/2041061612_1e9609cb93_b.jpg" username="j.reed" views="153" />
<photo  date_taken="2006-08-21 17:29:10" description="&amp;amp; Palazzo Pubblico. (built 1348, see tags for further known data). &lt;a href=&quot;http://creativecommons.org/licenses/by-nc-nd/3.0/nl/&quot; rel=&quot;nofollow&quot;&gt;&lt;/a&gt; Op dit werk is een &lt;a href=&quot;http://creativecommons.org/licenses/by-nc-nd/3.0/nl/&quot; rel=&quot;nofollow&quot;&gt;Creative Commons Licentie&lt;/a&gt; van toepassing" id="6096718370" latitude="43.318187" license="3" longitude="11.332143" nbComments="0" rank="6" tags="2006 siena italië architecture rinaldo" title="Torre del Mangia" url_b="http://static.flickr.com/6208/6096718370_ca45aff970_b.jpg" username="jpmm" views="4" />
<photo  date_taken="2009-01-04 13:05:06" description="It was kind of bright that day… hard not to squint" id="3222582145" latitude="43.318312" license="3" longitude="11.332188" nbComments="2" rank="7" tags="italy siena look tuscay toscana torredelmangia" title="Look! Tuscany" url_b="http://static.flickr.com/3421/3222582145_c5e4845cbb_b.jpg" username="scot2342" views="25" />
<photo  date_taken="2009-01-04 13:13:26" description="" id="3223438782" latitude="43.318312" license="3" longitude="11.332188" nbComments="1" rank="8" tags="italy siena tuscay toscana torredelmangia" title="Down the Torre del Mangia" url_b="http://static.flickr.com/3086/3223438782_292e60b7b9_b.jpg" username="scot2342" views="41" />
<photo  date_taken="2009-01-04 12:48:29" description="From Torre del Mangia" id="3217284412" latitude="43.318312" license="3" longitude="11.332188" nbComments="0" rank="9" tags="italy siena tuscay toscana torredelmangia" title="Tuscan view" url_b="http://static.flickr.com/3109/3217284412_73ca0b7d20_b.jpg" username="scot2342" views="16" />
<photo  date_taken="2009-01-04 12:50:20" description="" id="3216430809" latitude="43.318312" license="3" longitude="11.332188" nbComments="1" rank="10" tags="italy siena tuscay toscana torredelmangia piazzadelcampo fontagaia italyslideshow" title="Looking down upon Fonte Gaia" url_b="http://static.flickr.com/3113/3216430809_0c27bcf658_b.jpg" username="scot2342" views="29" />
<photo  date_taken="2010-03-23 10:20:43" description="&lt;a href=&quot;http://www.holy455.com&quot; rel=&quot;nofollow&quot;&gt;www.holy455.com&lt;/a&gt;" id="4457886279" latitude="43.318121" license="1" longitude="11.332333" nbComments="52" rank="11" tags="canon eos 450d sigma hsm siena italia italy comune palazzopubblico piazzadelcampo square place market piazza tuscany toscana torredelmangia sigma1020 sigma1022mm wide grandangolo 1020 1020mm" title="Palazzo Pubblico - Siena" url_b="http://static.flickr.com/2687/4457886279_6825758d48_b.jpg" username="Holy455" views="339" />
<photo  date_taken="2008-09-23 11:50:40" description="" id="2929207916" latitude="43.318094" license="1" longitude="11.332311" nbComments="0" rank="12" tags="italy familyitalytrip siena courtyard palazzopubblico torredelmangia" title="up from the courtyard" url_b="http://static.flickr.com/3241/2929207916_426ce4b79f_b.jpg" username="crowbert" views="12" />
<photo  date_taken="2001-07-02 13:05:00" description="Atop the Torre del Mangia, with the Duomo di Siena in the background." id="5844605542" latitude="43.31832" license="1" longitude="11.332357" nbComments="0" rank="13" tags="italy scancafe 2001 july2001 siena italia" title="In Siena" url_b="http://static.flickr.com/2458/5844605542_2fbcd7c352_b.jpg" username="Joe Shlabotnik" views="62" />
<photo  date_taken="2007-12-27 14:50:44" description="Torre del mangia in Siena, Italy. View from inside the courtyard (cortile del podesta)." id="2182152388" latitude="43.318254" license="4" longitude="11.331989" nbComments="8" rank="14" tags="siena torredelmangia piazzadelcampo 2007" title="Torre" url_b="http://static.flickr.com/2184/2182152388_96ffc6709d_b.jpg" username="sonewfangled" views="53" />
<photo  date_taken="2007-08-23 17:22:29" description="La torre del Mangia vista dal cortile del Palazzo Pubblico, Siena" id="1279069908" latitude="43.31823" license="1" longitude="11.331936" nbComments="82" rank="15" tags="aldoaldoz siena palazzo pubblico cortile torre mangia fotoincatenate italiamedievale anawesomeshot superhearts 25faves" title="Zenith" url_b="http://static.flickr.com/1094/1279069908_ef7dc4d155_b.jpg" username="aldoaldoz" views="640" />
<photo  date_taken="2011-06-01 07:32:30" description="Cortile interno Palazzo del Mangia" id="6588213511" latitude="43.318238" license="3" longitude="11.331936" nbComments="39" rank="16" tags="siena torredelmangia piazzadelcampo d80 nikon" title="Siena" url_b="http://static.flickr.com/7175/6588213511_c56ac48fa8_b.jpg" username="aprile24" views="92" />
<photo  date_taken="2011-06-17 19:03:56" description="Siena" id="5881986582" latitude="43.31818" license="3" longitude="11.331886" nbComments="3" rank="17" tags="palazzo pubblico torredelmangia siena toscana tuscany toskana italy italia" title="Palazzo Pubblico" url_b="http://static.flickr.com/5079/5881986582_1ebeb519cc_b.jpg" username="Santa Cruiser" views="73" />
<photo  date_taken="2007-04-05 14:41:17" description="" id="2052739872" latitude="43.318121" license="2" longitude="11.332628" nbComments="0" rank="18" tags="sienapalazzopubblico siena sienatorredelmangia sienaviadisalicotto" title="" url_b="http://static.flickr.com/2249/2052739872_521c573dc7_b.jpg" username="Andreas Jungherr" views="24" />
<photo  date_taken="2007-04-05 14:43:03" description="" id="2052741850" latitude="43.317817" license="2" longitude="11.332241" nbComments="0" rank="19" tags="sienapalazzopubblico siena sienatorredelmangia" title="" url_b="http://static.flickr.com/2078/2052741850_b2548f7163_b.jpg" username="Andreas Jungherr" views="7" />
<photo  date_taken="2007-04-05 14:43:11" description="" id="2052742660" latitude="43.317817" license="2" longitude="11.332241" nbComments="0" rank="20" tags="sienapalazzopubblico siena sienatorredelmangia" title="" url_b="http://static.flickr.com/2002/2052742660_ebba8d19ab_b.jpg" username="Andreas Jungherr" views="19" />
<photo  date_taken="2007-09-25 00:00:02" description="Siena. La Torre vista dal cortile del Palazzo Pubblico." id="1447296652" latitude="43.318145" license="3" longitude="11.331861" nbComments="0" rank="21" tags="italia italy siena sienne toscana tuscany città town city италия сиена torre del mangia tower" title="Siena, Torre del Mangia" url_b="http://static.flickr.com/1152/1447296652_e9cc85491e_b.jpg" username="alphaorionis" views="36" />
<photo  date_taken="2006-05-14 14:35:30" description="Siena is a city in Tuscany, Italy. It is the provincial capital of Siena province. The historic center of Siena has been declared by UNESCO a World Heritage Site." id="314143711" latitude="43.318233" license="4" longitude="11.331836" nbComments="0" rank="22" tags="buildings siena italy" title="Siena view from top of Torre del Mangia (2006-05-495)" url_b="http://static.flickr.com/113/314143711_18f522c3c5_b.jpg" username="Argenberg" views="240" />
<photo  date_taken="2011-06-15 18:47:48" description="Siena" id="5873856605" latitude="43.318402" license="3" longitude="11.331876" nbComments="0" rank="23" tags="palazzopubblico torredelmangia siena tuscany toscana toskana italy" title="Palazzo Pubblico" url_b="http://static.flickr.com/3032/5873856605_1abbc3a75a_b.jpg" username="Santa Cruiser" views="23" />
<photo  date_taken="2007-03-23 12:46:37" description="Vista dalla torre del mangia" id="551386269" latitude="43.318262" license="1" longitude="11.331785" nbComments="1" rank="24" tags="toscana tuscany siena italy piazza campo square people italia piazzadelcampo torredelmangia" title="Piazza del Campo" url_b="http://static.flickr.com/211/551386269_8d49b8233b_b.jpg" username="Bufia" views="163" />
<photo  date_taken="2007-04-05 14:28:47" description="" id="2051946019" latitude="43.318597" license="2" longitude="11.331952" nbComments="0" rank="25" tags="sienapalazzopubblico siena sienapiazzadelcampo sienatorredelmangia" title="" url_b="http://static.flickr.com/2060/2051946019_d9269103c7_b.jpg" username="Andreas Jungherr" views="4" />
<photo  date_taken="2007-04-05 14:33:41" description="" id="2051946863" latitude="43.318597" license="2" longitude="11.331952" nbComments="0" rank="26" tags="sienapalazzopubblico siena sienacappelladipiazza sienatorredelmangia" title="" url_b="http://static.flickr.com/2218/2051946863_57e0311957_b.jpg" username="Andreas Jungherr" views="3" />
<photo  date_taken="2007-04-05 14:28:20" description="" id="2052732354" latitude="43.318597" license="2" longitude="11.331952" nbComments="0" rank="27" tags="sienapalazzopubblico siena sienapiazzadelcampo sienatorredelmangia" title="" url_b="http://static.flickr.com/2401/2052732354_f07b5a273d_b.jpg" username="Andreas Jungherr" views="4" />
<photo  date_taken="2006-07-18 14:46:17" description="Siena" id="235324208" latitude="43.318406" license="4" longitude="11.331785" nbComments="2" rank="28" tags="siena piazzadelcampo palio italia italy toscana tuscany city" title="Piazza del Campo" url_b="http://static.flickr.com/83/235324208_e150a09c8f_b.jpg" username="Maurizio Zanetti" views="43" />
<photo  date_taken="2007-06-27 12:45:48" description="" id="3284405659" latitude="43.318363" license="3" longitude="11.331753" nbComments="0" rank="29" tags="italy italia europe eu travel tuscany tuscano توسكانا τοσκάνη טוסקנה トスカーナ州 2007 siena sienna سيينا シエーナ סיינה palazzopubblico torredelmangia" title="IT07 1719 Palazzo Pubblico, Siena" url_b="http://static.flickr.com/3431/3284405659_ec95387d84_b.jpg" username="Templar1307" views="46" />
<photo  date_taken="2007-12-27 14:28:04" description="Torre del mangia in Siena, Italy." id="2181364723" latitude="43.318742" license="4" longitude="11.332365" nbComments="3" rank="30" tags="siena torredelmangia piazzadelcampo 2007" title="Torre" url_b="http://static.flickr.com/2336/2181364723_06753a64ea_b.jpg" username="sonewfangled" views="45" />
<photo  date_taken="1998-04-15 14:49:55" description="Il Palazzo Comunale di Siena, denominato anche Palazzo Pubblico, è l’edificio costruito della Repubblica di Siena agli inizi del XIV secolo come sede del Governo dei Nove. Il Palazzo Pubblico con la Torre del Mangia sovrasta l’intera piazza del Campo. Il Palazzo è sicuramente l'edificio più importante dello skyline cittadina, noto in tutto il mondo come esempio perfetto di architettura gotica. Fu residenza del Podestà e della Signoria e attualmente è la sede degli uffici amministrativi comunali e del Museo Civico. La Torre del Mangia, alta 88 metri, deve il nome al suo primo campanaro, Giovanni di Duccio, detto &amp;quot;Il mangiaguadagni&amp;quot; che nel 1347 venne incaricato di scandire le ore. Il Palazzo Pubblico è stato edificato tra il 1298 ed il 1310 e l'ampia facciata riflette i vari periodi di costruzione: fino al primo ordine di trifore fu usata la pietra, poi il laterizio con la parte superiore coronata da merli guelfi. Le finestre, nel tipico stile senese, hanno tre archetti gotici affiancati appoggiati su colonnine." id="4408049701" latitude="43.318359" license="1" longitude="11.331716" nbComments="25" rank="31" tags="siena toscana italia italy ilbellodellitalia gotico architettura controluce torre tower bellitalia palazzo palace skyline analogica diapositiva scanner anticando" title="Siena - Il Palazzo Comunale" url_b="http://static.flickr.com/4020/4408049701_fd50d0a775_b.jpg" username="giovanni_novara" views="410" />
<photo  date_taken="1998-04-15 13:27:39" description="La torre del Mangia si erge sul lato sinistro del Palazzo Pubblico di Siena, è alta 88 metri e può essere definita un esempio di leggerezza ed eleganza architettonica. La posa della prima pietra risale al 1325 e fu completata fra il 1338 e il 1348 dai perugini Muccio e Francesco Di Rinaldo diretti dal maestro Agostino di Giovanni. La torre è interamente costruita in laterizio con coronamento in pietra e cella campanaria su cui si giunge per mezzo di quattrocento scalini che permettono l’accesso alla sommità e da cui si può godere di un eccezionale panorama. Il nome curioso si deve al suo primo campanaro Giovanni di Duccio, soprannominato il Mangiaguadagni, che nel 1347 fu incaricato di scandire le ore ma che sperperò tutti i suoi risparmi gozzovigliando nelle osterie di Siena. La torre del Mangia è una delle più alte d'Italia e ha storicamente svolto la funzione di torre civica, quindi senza ruolo religioso. Secondo la leggenda le pietre ai 4 angoli della torre del Mangia contengono monete portafortuna con incise lettere ebraiche e latine. Questa usanza era molto diffusa nel Medioevo con l’intento di preservare gli edifici dalla sventura. &lt;i&gt;Immagine digitalizzata tramite scanner da diapositiva scattata nell’anno 1998 con macchina fotografica Nikon 401X. &lt;/i&gt; The Torre del Mangia rises on the left side of the Palazzo Pubblico of Siena, is 88 meters high and it can be described as an example of architectural elegance and lightness. The foundation stone was laid in 1325 and the tower was completed between 1338 and 1348 by Rinaldo and Francesco Di Muccio from Perugia conducted by Agostino Di Giovanni. The tower is built entirely in brick with stone coping and to go on the belfry there are four hundred steps that allow the access to the top where you can enjoy an exceptional view. The curious name is due to Giovanni di Duccio, first bell man, nicknamed the Moneyeater: in 1347 he was commissioned to mark the hours but he squandered all his savings carousing in the taverns of Siena. The Torre del Mangia is one of the highest in Italy and it has historically served as a civil tower, so no religious function. According to legend the stones to the four corners contain lucky coins engraved with hebrew and latin letters. This practice was widespread during the Middle Ages with the intent to preserve the buildings from evil. &lt;i&gt;This digitized image is scanned from a slide taken in 1998 with Nikon 401X camera. &lt;/i&gt;" id="5447055449" latitude="43.318359" license="1" longitude="11.331716" nbComments="53" rank="32" tags="siena italia toscana torredelmangia photoscan italy tuscany torre tower medioevo middleages 1997 diapositiva scanfromdia dia film flickraward platinumheartaward" title="Siena - Torre del Mangia (Photoscan)" url_b="http://static.flickr.com/5094/5447055449_bb1518c111_b.jpg" username="giovanni_novara" views="396" />
<photo  date_taken="2007-12-25 15:35:15" description="This was stitched together by Autostitch (five photographs), then later processed through Photoshop to make it look a little less angled and weird. &lt;a href=&quot;http://bighugelabs.com/flickr/onblack.php?id=2297657230&quot;&gt;View On Black&lt;/a&gt; &lt;a href=&quot;http://www.flickr.com/groups/world/pool/tags/italy/&quot;&gt;Back to Italy&lt;/a&gt; - &lt;a href=&quot;http://www.flickr.com/groups/world/&quot;&gt;Visit the World&lt;/a&gt;" id="2297657230" latitude="43.318398" license="3" longitude="11.331694" nbComments="0" rank="33" tags="italia italy siena tuscany toscana ilcampo campo piazzadelcampo piazza palazzopubblico palazzo pubblico palace townhall torredelmangia torre mangia center tower sienatower europe travel panorama autostitch photoshop canon sd450 canonsd450" title="Tower Over Siena" url_b="http://static.flickr.com/3247/2297657230_825c816362_b.jpg" username="wenzday01" views="601" />
<photo  date_taken="2006-05-14 13:56:09" description="The shell-shaped Piazza del Campo, the town square, which houses the Palazzo Pubblico and the Torre del Mangia, is an architectural treasure, and is famous for hosting the Palio. The Palazzo Pubblico, itself a great work of architecture, houses yet another important art museum. Included within the museum is Ambrogio Lorenzetti's series of frescos on the good government and the results of good and bad government, there are also some of the finest frescoes of Simone Martini and Pietro Lorenzetti." id="312780578" latitude="43.318408" license="4" longitude="11.331652" nbComments="0" rank="34" tags="buildings people siena italy" title="The Piazza Del Campo in Siena (2006-05-477)" url_b="http://static.flickr.com/103/312780578_e1058d7239_b.jpg" username="Argenberg" views="196" />
<photo  date_taken="2010-06-10 11:06:36" description="" id="4708344241" latitude="43.318465" license="1" longitude="11.331657" nbComments="0" rank="35" tags="toscana siena palazzo comunale piazzadelcampo" title="Siena - Palazzo Pubblico e Torre del Mangia" url_b="http://static.flickr.com/4056/4708344241_ce4b3e4e51_b.jpg" username="ghirolfo53" views="26" />
<photo  date_taken="2008-09-26 14:00:04" description="The belltower or Torre del Mangia is the 2nd highest in Italy." id="2906907039" latitude="43.318566" license="2" longitude="11.331657" nbComments="0" rank="36" tags="2008 italy tuscany siena townhalls unesco worldheritagesites" title="Palazzo Pubblico, completed 1342, to house the Nine Governors" url_b="http://static.flickr.com/3073/2906907039_8baf394c1c_b.jpg" username="Beth M527" views="39" />
<photo  date_taken="2001-07-01 13:14:00" description="The Palazzo Pubblico and the Torre del Mangia in the center of Siena." id="5843883263" latitude="43.318437" license="1" longitude="11.331592" nbComments="0" rank="37" tags="italy scancafe 2001 july2001 siena italia" title="Palazzo Pubblico" url_b="http://static.flickr.com/5118/5843883263_6dbd9e142a_b.jpg" username="Joe Shlabotnik" views="26" />
<photo  date_taken="2009-07-13 14:00:42" description="" id="3747096604" latitude="43.318178" license="3" longitude="11.331538" nbComments="0" rank="38" tags="sienne siena italy italie piazza campo" title="Torre del Mangia - Piazza del Campo" url_b="http://static.flickr.com/2524/3747096604_968486c589_b.jpg" username="THEfunkyman" views="20" />
<photo  date_taken="2009-07-13 14:03:46" description="" id="3746308311" latitude="43.318178" license="3" longitude="11.331538" nbComments="0" rank="39" tags="sienne siena italy italie piazza campo" title="Torre del Mangia" url_b="http://static.flickr.com/2497/3746308311_0765442ea1_b.jpg" username="THEfunkyman" views="24" />
<photo  date_taken="2011-10-31 17:35:08" description="Piazza del Campo Sienna, Tuscany, Italy. Oct. 31, 2012. Single-row panorama created from 7 portrait-oriented images." id="6773642869" latitude="43.318838" license="2" longitude="11.331852" nbComments="2" rank="40" tags="7x1portrait bluehour horaazul ita italia italy night nocturna palazzopubblico panorama panorámica piazzadelcampo plaza sangimignano siena sienna square torredelmangia toscana tuscany" title="Arrivederci Siena" url_b="http://static.flickr.com/7174/6773642869_473e7a4b5f_b.jpg" username="José Garrido" views="130" />
<photo  date_taken="2007-09-23 17:49:43" description="" id="1428937693" latitude="43.318597" license="5" longitude="11.331614" nbComments="0" rank="41" tags="siena piazzadelcampo campaniledelmangia italy lobelobe dettagli di vita urban vitamea vida life minolta konica z10 facebook tutte" title="Veduta dalla torre del mangia" url_b="http://static.flickr.com/1331/1428937693_1aebddce36_b.jpg" username="*DiEgO*" views="34" />
<photo  date_taken="2007-09-23 17:34:22" description="" id="1429803990" latitude="43.318597" license="5" longitude="11.331614" nbComments="0" rank="42" tags="siena piazzadelcampo campaniledelmangia italy lobelobe dettagli di vita urban vitamea vida life minolta konica z10 facebook tutte" title="Veduta dalla torre del mangia" url_b="http://static.flickr.com/1164/1429803990_427925e1cd_b.jpg" username="*DiEgO*" views="9" />
<photo  date_taken="2007-04-05 14:49:23" description="" id="2052747908" latitude="43.318285" license="2" longitude="11.33149" nbComments="0" rank="43" tags="sienapalazzopubblico siena sienatorredelmangia" title="" url_b="http://static.flickr.com/2415/2052747908_5b6666b713_b.jpg" username="Andreas Jungherr" views="3" />
<photo  date_taken="2007-04-05 14:46:09" description="" id="2052745724" latitude="43.318285" license="2" longitude="11.33149" nbComments="0" rank="44" tags="sienapalazzopubblico siena sienatorredelmangia" title="" url_b="http://static.flickr.com/2207/2052745724_d8d6ad9623_b.jpg" username="Andreas Jungherr" views="4" />
<photo  date_taken="2009-04-16 23:10:18" description="The bell tower of the Palazzo Pubblico in Siena" id="3527233747" latitude="43.318436" license="1" longitude="11.331496" nbComments="0" rank="45" tags="italy siena" title="Torre del Mangia" url_b="http://static.flickr.com/2288/3527233747_58dd896f42_b.jpg" username="SolGrundy" views="4" />
<photo  date_taken="2012-05-31 15:51:37" description="" id="7345589702" latitude="43.318597" license="5" longitude="11.33156" nbComments="0" rank="46" tags="italy siena sienna palazzo pubblico town hall sunlight torre del mangia piazza campo" title="Siena" url_b="http://static.flickr.com/7223/7345589702_0265849a17_b.jpg" username="SanguineSeas" views="24" />
<photo  date_taken="2012-05-31 12:29:51" description="OLYMPUS DIGITAL CAMERA" id="7160332761" latitude="43.318597" license="5" longitude="11.33156" nbComments="0" rank="47" tags="italy siena sienna palazzo pubblico town hall sunlight torre del mangia piazza campo piazzadelcampo" title="Siena" url_b="http://static.flickr.com/7241/7160332761_0708cf1419_b.jpg" username="SanguineSeas" views="11" />
<photo  date_taken="2012-05-31 15:54:40" description="" id="7160388327" latitude="43.318597" license="5" longitude="11.33156" nbComments="0" rank="48" tags="italy siena sienna duomo cathedral palazzo pubblico town hall sunlight torre del mangia piazza campo" title="Siena" url_b="http://static.flickr.com/8028/7160388327_7d1e4c78bd_b.jpg" username="SanguineSeas" views="20" />
<photo  date_taken="2001-07-02 13:21:00" description="The Palazzo Pubblico and the Torre del Mangia in the center of Siena." id="5844600490" latitude="43.31842" license="1" longitude="11.33148" nbComments="0" rank="49" tags="siena july2001 italia tower italy scancafe 2001" title="Palazzo Pubblico" url_b="http://static.flickr.com/5183/5844600490_f07460fb2d_b.jpg" username="Joe Shlabotnik" views="51" />
<photo  date_taken="2008-08-26 17:13:02" description="" id="2799991800" latitude="43.318597" license="3" longitude="11.331528" nbComments="0" rank="50" tags="europe italy italia toscana tuscany siena" title="Il Palazzo Pubblico con la Torre del Mangia" url_b="http://static.flickr.com/3009/2799991800_a1c0e4be36_b.jpg" username="Nick Grabowski" views="1" />
<photo  date_taken="2013-02-28 11:59:08" description="" id="8540708473" latitude="43.318605" license="3" longitude="11.331523" nbComments="0" rank="51" tags="film:filename=0273jpg 120negative 120 yashicamat scans film colour mediumformat fujifilmpro160s holiday italy film:job=048959 film:lab=pfp edited cropped aviary film:cd=0121302281146" title="Torre del Mangia" url_b="http://static.flickr.com/8226/8540708473_9bbee1041e_b.jpg" username="atomicules" views="2" />
<photo  date_taken="2010-03-28 09:46:30" description="View of Siena from the top of a bell tower (Torre del Mangia). Unbelievable view." id="4507514017" latitude="43.318238" license="5" longitude="11.332268" nbComments="0" rank="52" tags="bell tower italy siena torre del mangia italia tuscany toscana" title="Siena" url_b="http://static.flickr.com/2330/4507514017_5c7f2f26f0_b.jpg" username="runJMrun" views="54" />
<photo  date_taken="2008-09-03 06:20:20" description="" id="2954407196" latitude="43.318246" license="1" longitude="11.332215" nbComments="0" rank="53" tags="tuscany italy tusacany" title="From the Torre del Mangia, Siena" url_b="http://static.flickr.com/3142/2954407196_8ef8a47797_b.jpg" username="Tuckster" views="9" />
<photo  date_taken="2008-09-03 06:18:55" description="" id="2954405908" latitude="43.318246" license="1" longitude="11.332215" nbComments="0" rank="54" tags="tuscany italy tusacany" title="From the Torre del Mangia, Siena" url_b="http://static.flickr.com/3213/2954405908_3a6d63a4fa_b.jpg" username="Tuckster" views="5" />
<photo  date_taken="2008-09-03 05:12:21" description="" id="2954404864" latitude="43.318246" license="1" longitude="11.332215" nbComments="0" rank="55" tags="tuscany italy tusacany" title="Torre del Mangia, Siena" url_b="http://static.flickr.com/3044/2954404864_cc938d0e86_b.jpg" username="Tuckster" views="3" />
<photo  date_taken="2008-09-03 06:22:29" description="" id="2953558697" latitude="43.318246" license="1" longitude="11.332215" nbComments="0" rank="56" tags="tuscany italy tusacany" title="From the Torre del Mangia, Siena" url_b="http://static.flickr.com/3220/2953558697_b7ac616edc_b.jpg" username="Tuckster" views="5" />
<photo  date_taken="2008-09-03 06:20:09" description="" id="2953557533" latitude="43.318246" license="1" longitude="11.332215" nbComments="0" rank="57" tags="tuscany italy tusacany" title="From the Torre del Mangia, Siena" url_b="http://static.flickr.com/3031/2953557533_2c842acb5a_b.jpg" username="Tuckster" views="9" />
<photo  date_taken="2008-05-01 16:50:55" description="" id="3048021379" latitude="43.318285" license="3" longitude="11.332215" nbComments="0" rank="58" tags="2008 22mm italia italy torredelmangia tuscany 042008 toscana siena" title="0339_Italia-Toscana" url_b="http://static.flickr.com/3200/3048021379_1ee1e5182a_b.jpg" username="igullord" views="2" />
<photo  date_taken="2011-04-02 13:36:04" description="from Torre del Mangia" id="5655476508" latitude="43.318305" license="3" longitude="11.332204" nbComments="1" rank="59" tags="italy tuscany siena roof" title="A View of Siena" url_b="http://static.flickr.com/5142/5655476508_8e0fd8e97c_b.jpg" username="Dmitry Shakin" views="21" />
<photo  date_taken="2011-04-02 13:27:50" description="from Torre del Mangia" id="5624897588" latitude="43.318305" license="3" longitude="11.332204" nbComments="0" rank="60" tags="italy tuscany siena church dome roof" title="Chieza di Santa Maria di Provenzano" url_b="http://static.flickr.com/5189/5624897588_1d53979996_b.jpg" username="Dmitry Shakin" views="42" />
<photo  date_taken="2009-07-27 16:27:41" description="Il Campo vu depuis la Torre del Mangia" id="3799805636" latitude="43.318315" license="1" longitude="11.332215" nbComments="0" rank="61" tags="paysage place toitentuiles toits ville sienne toscane italie it" title="Piazza del Campo, Sienne 2009" url_b="http://static.flickr.com/2534/3799805636_90023186bf_b.jpg" username="Sébastien Donato" views="7" />
<photo  date_taken="2009-07-27 16:28:48" description="Il Campo vu depuis la Torre del Mangia" id="3798988507" latitude="43.318315" license="1" longitude="11.332215" nbComments="0" rank="62" tags="fontaine palais paysage place toitentuiles toits ville sienne toscane italie it" title="Piazza del Campo, Sienne 2009" url_b="http://static.flickr.com/2634/3798988507_88ee0e5b8e_b.jpg" username="Sébastien Donato" views="17" />
<photo  date_taken="2009-07-27 16:24:25" description="Il Campo vu depuis la Torre del Mangia" id="3798987771" latitude="43.318315" license="1" longitude="11.332215" nbComments="0" rank="63" tags="palais paysage place toitentuiles toits ville sienne toscane italie it" title="Piazza del Campo, Sienne 2009" url_b="http://static.flickr.com/2560/3798987771_2ff5623712_b.jpg" username="Sébastien Donato" views="15" />
<photo  date_taken="2009-07-27 16:34:30" description="Il Campo vu depuis la Torre del Mangia" id="3799806458" latitude="43.318315" license="1" longitude="11.332215" nbComments="0" rank="64" tags="fontaine palais place toitentuiles toits sienne toscane italie it" title="Piazza del Campo, Sienne 2009" url_b="http://static.flickr.com/2451/3799806458_5667d8fe49_b.jpg" username="Sébastien Donato" views="21" />
<photo  date_taken="2009-07-27 16:24:41" description="Il Campo vu depuis la Torre del Mangia" id="3798988027" latitude="43.318315" license="1" longitude="11.332215" nbComments="0" rank="65" tags="palais paysage place toitentuiles toits ville sienne toscane italie it" title="Piazza del Campo, Sienne 2009" url_b="http://static.flickr.com/2496/3798988027_115d59fd44_b.jpg" username="Sébastien Donato" views="12" />
<photo  date_taken="2009-07-27 16:24:58" description="Il Campo vu depuis la Torre del Mangia" id="3799805484" latitude="43.318315" license="1" longitude="11.332215" nbComments="0" rank="66" tags="palais paysage place toitentuiles toits ville sienne toscane italie it" title="Piazza del Campo, Sienne 2009" url_b="http://static.flickr.com/3531/3799805484_102ce1a098_b.jpg" username="Sébastien Donato" views="11" />
<photo  date_taken="2008-12-23 08:06:55" description="Piazza del Campo, Siena View from the top of the Cathedral Museum" id="3206097269" latitude="43.318297" license="2" longitude="11.332182" nbComments="0" rank="67" tags="siena europe italy" title="Torre del Mangia" url_b="http://static.flickr.com/3366/3206097269_6fb049069b_b.jpg" username="simpsora" views="11" />
<photo  date_taken="2008-12-23 06:35:48" description="Piazza del Campo, Siena" id="3206939502" latitude="43.318297" license="2" longitude="11.332182" nbComments="0" rank="68" tags="siena europe italy" title="Torre del Mangia" url_b="http://static.flickr.com/3099/3206939502_6a1d25d4f4_b.jpg" username="simpsora" views="7" />
<photo  date_taken="2007-11-11 09:57:35" description="Inside Torre del Mangia" id="2791281614" latitude="43.318202" license="5" longitude="11.332141" nbComments="0" rank="69" tags="torre del mangia sienna tower stairs broken down" title="Torre del Mangia Stairs 2" url_b="http://static.flickr.com/3049/2791281614_170c0757f0_b.jpg" username="j.reed" views="121" />
<photo  date_taken="2009-07-13 14:11:18" description="" id="3746311579" latitude="43.318178" license="3" longitude="11.332364" nbComments="0" rank="70" tags="sienne siena italy italie" title="Torre del Mangia" url_b="http://static.flickr.com/3423/3746311579_a915cf7b77_b.jpg" username="THEfunkyman" views="7" />
<photo  date_taken="2009-01-04 12:58:56" description="" id="3220548164" latitude="43.318312" license="3" longitude="11.332188" nbComments="0" rank="71" tags="italy siena tuscay toscana torredelmangia" title="For whom the bell tolls" url_b="http://static.flickr.com/3079/3220548164_193fb2d9f4_b.jpg" username="scot2342" views="9" />
<photo  date_taken="2009-01-04 13:06:41" description="" id="3222582587" latitude="43.318312" license="3" longitude="11.332188" nbComments="0" rank="72" tags="italy siena tuscay toscana torredelmangia" title="Latin" url_b="http://static.flickr.com/3127/3222582587_897a9b3c15_b.jpg" username="scot2342" views="8" />
<photo  date_taken="2009-01-04 12:51:53" description="" id="3220545712" latitude="43.318312" license="3" longitude="11.332188" nbComments="0" rank="73" tags="italy siena tuscay toscana torredelmangia piazzadelcampo italyslideshow" title="Piazza del Campo" url_b="http://static.flickr.com/3097/3220545712_80f5d5e2a7_b.jpg" username="scot2342" views="25" />
<photo  date_taken="2009-01-04 13:00:18" description="" id="3219698019" latitude="43.318312" license="3" longitude="11.332188" nbComments="0" rank="74" tags="italy siena tuscay toscana torredelmangia" title="Torre del Magia shadow" url_b="http://static.flickr.com/3323/3219698019_f7fbe6bcb7_b.jpg" username="scot2342" views="23" />
<photo  date_taken="2009-01-04 12:53:09" description="" id="3219695655" latitude="43.318312" license="3" longitude="11.332188" nbComments="0" rank="75" tags="italy siena tuscay toscana torredelmangia" title="Tuscan View" url_b="http://static.flickr.com/3382/3219695655_9712536834_b.jpg" username="scot2342" views="12" />
<photo  date_taken="2009-01-04 13:21:57" description="" id="3227348335" latitude="43.318312" license="3" longitude="11.332188" nbComments="0" rank="76" tags="italy siena tuscay toscana torredelmangia" title="Torre del Mangia" url_b="http://static.flickr.com/3114/3227348335_4e71a660ca_b.jpg" username="scot2342" views="22" />
<photo  date_taken="2009-01-04 13:00:33" description="" id="3219698205" latitude="43.318312" license="3" longitude="11.332188" nbComments="0" rank="77" tags="italy siena tuscay toscana torredelmangia" title="Tuscan Rooftops" url_b="http://static.flickr.com/3361/3219698205_d54f946776_b.jpg" username="scot2342" views="32" />
<photo  date_taken="2009-01-04 12:54:56" description="" id="3219696989" latitude="43.318312" license="3" longitude="11.332188" nbComments="1" rank="78" tags="italy siena tuscay toscana torredelmangia" title="Framed View" url_b="http://static.flickr.com/3362/3219696989_081fd98a14_b.jpg" username="scot2342" views="21" />
<photo  date_taken="2009-01-04 12:07:07" description="" id="3217282668" latitude="43.318312" license="3" longitude="11.332188" nbComments="0" rank="79" tags="italy siena tuscay toscana torredelmangia piazzadelcampo italyslideshow" title="Torre del Mangia" url_b="http://static.flickr.com/3112/3217282668_bd826a0912_b.jpg" username="scot2342" views="31" />
<photo  date_taken="2009-01-04 13:02:09" description="" id="3219699503" latitude="43.318312" license="3" longitude="11.332188" nbComments="0" rank="80" tags="italy siena tuscay toscana torredelmangia piazzadelcampo" title="Piazza del Campo" url_b="http://static.flickr.com/3414/3219699503_2038bd4caa_b.jpg" username="scot2342" views="51" />
<photo  date_taken="2009-01-04 13:01:32" description="" id="3219698489" latitude="43.318312" license="3" longitude="11.332188" nbComments="0" rank="81" tags="italy siena tuscay toscana torredelmangia" title="Tuscany" url_b="http://static.flickr.com/3429/3219698489_0901eb5a96_b.jpg" username="scot2342" views="14" />
<photo  date_taken="2009-01-04 12:53:31" description="" id="3219696463" latitude="43.318312" license="3" longitude="11.332188" nbComments="0" rank="82" tags="italy siena tuscay toscana torredelmangia italyslideshow" title="Tuscan View" url_b="http://static.flickr.com/3097/3219696463_a4b143caf1_b.jpg" username="scot2342" views="42" />
<photo  date_taken="2009-01-04 12:59:31" description="" id="3220548478" latitude="43.318312" license="3" longitude="11.332188" nbComments="0" rank="83" tags="italy siena tuscay toscana torredelmangia" title="Church of San Domenico" url_b="http://static.flickr.com/3394/3220548478_26b18fcdc3_b.jpg" username="scot2342" views="20" />
<photo  date_taken="2009-01-04 12:49:54" description="I debated the cropping of this photo, but in the end decided that I liked the imperfection of the out of focus brick on the right" id="3219694041" latitude="43.318312" license="3" longitude="11.332188" nbComments="0" rank="84" tags="italy siena tuscay toscana torredelmangia italyslideshow" title="Siena Cathedral" url_b="http://static.flickr.com/3356/3219694041_9d268dc9fc_b.jpg" username="scot2342" views="21" />
<photo  date_taken="2001-07-02 13:10:00" description="The shadow of the Torre del Mangia on the Piazza del Campo." id="5843954479" latitude="43.31832" license="1" longitude="11.332357" nbComments="0" rank="85" tags="shadow july2001 siena tower italia italy scancafe 2001" title="The Tower's Shadow" url_b="http://static.flickr.com/2538/5843954479_a715b45527_b.jpg" username="Joe Shlabotnik" views="26" />
<photo  date_taken="2001-07-02 13:08:00" description="A bell at the top of the Torre del Mangia, which we were glad was not ringing while we were up there." id="5844495722" latitude="43.31832" license="1" longitude="11.332357" nbComments="0" rank="86" tags="siena july2001 italia bell scancafe italy 2001" title="Tower Bell" url_b="http://static.flickr.com/3377/5844495722_6ff13cdc32_b.jpg" username="Joe Shlabotnik" views="51" />
<photo  date_taken="2001-07-02 13:01:00" description="I think this is inside the Torre del Mangia." id="5844480686" latitude="43.31832" license="1" longitude="11.332357" nbComments="0" rank="87" tags="siena july2001 knocker italia italy scancafe sheep 2001" title="Sheep Knocker" url_b="http://static.flickr.com/3537/5844480686_125c059ae7_b.jpg" username="Joe Shlabotnik" views="52" />
<photo  date_taken="2001-07-02 13:06:00" description="The bells at the top of the Torre del Mangia, which we were glad were not ringing while we were up there." id="5844490434" latitude="43.31832" license="1" longitude="11.332357" nbComments="0" rank="88" tags="siena july2001 italia bells italy scancafe 2001" title="Tower Bells" url_b="http://static.flickr.com/5263/5844490434_e20bf7518e_b.jpg" username="Joe Shlabotnik" views="26" />
<photo  date_taken="2001-07-02 13:07:00" description="A view from the top of the Torre del Mangia." id="5844493508" latitude="43.31832" license="1" longitude="11.332357" nbComments="0" rank="89" tags="italy scancafe 2001 july2001 siena italia" title="Siena" url_b="http://static.flickr.com/2509/5844493508_44184ae9f5_b.jpg" username="Joe Shlabotnik" views="34" />
<photo  date_taken="2001-07-02 13:09:00" description="A view from the top of the Piazza del Campo from the top of the Torre del Mangia." id="5844499126" latitude="43.31832" license="1" longitude="11.332357" nbComments="0" rank="90" tags="italy scancafe 2001 july2001 siena italia" title="Piazza del Campo" url_b="http://static.flickr.com/3363/5844499126_114090d581_b.jpg" username="Joe Shlabotnik" views="9" />
<photo  date_taken="2001-07-02 13:13:00" description="Heading down the Torre del Mangia in Siena." id="5844510262" latitude="43.31832" license="1" longitude="11.332357" nbComments="0" rank="91" tags="siena july2001 italia stairs italy scancafe staircase 2001" title="Down The Tower" url_b="http://static.flickr.com/5230/5844510262_48dbbff35f_b.jpg" username="Joe Shlabotnik" views="10" />
<photo  date_taken="2001-07-02 13:03:00" description="A view from the top of the Torre del Mangia." id="5843938593" latitude="43.31832" license="1" longitude="11.332357" nbComments="0" rank="92" tags="italy scancafe 2001 july2001 siena italia" title="Siena" url_b="http://static.flickr.com/5199/5843938593_53da18c266_b.jpg" username="Joe Shlabotnik" views="42" />
<photo  date_taken="2001-07-02 13:04:00" description="A view from the top of the Torre del Mangia." id="5843941839" latitude="43.31832" license="1" longitude="11.332357" nbComments="0" rank="93" tags="italy scancafe 2001 july2001 siena italia" title="Siena" url_b="http://static.flickr.com/3635/5843941839_db6a76e00c_b.jpg" username="Joe Shlabotnik" views="28" />
<photo  date_taken="2001-07-02 13:02:00" description="Climbing up the Torre del Mangia in Siena." id="5843935715" latitude="43.31832" license="1" longitude="11.332357" nbComments="0" rank="94" tags="stairs siena justpeter italia july2001 italy peter scancafe staircase 2001" title="Up The Tower" url_b="http://static.flickr.com/5156/5843935715_0a8c2f3476_b.jpg" username="Joe Shlabotnik" views="41" />
<photo  date_taken="2001-07-02 13:11:00" description="A view from the top of the Piazza del Campo from the top of the Torre del Mangia." id="5843957551" latitude="43.31832" license="1" longitude="11.332357" nbComments="0" rank="95" tags="italy scancafe 2001 july2001 siena italia" title="Piazza del Campo" url_b="http://static.flickr.com/5311/5843957551_a818c6aae5_b.jpg" username="Joe Shlabotnik" views="12" />
<photo  date_taken="2001-07-02 13:12:00" description="A view from the top of the Piazza del Campo from the top of the Torre del Mangia." id="5844507916" latitude="43.31832" license="1" longitude="11.332357" nbComments="0" rank="96" tags="italy scancafe 2001 july2001 siena italia" title="Piazza del Campo" url_b="http://static.flickr.com/2742/5844507916_2ce1248770_b.jpg" username="Joe Shlabotnik" views="18" />
<photo  date_taken="2009-07-27 15:06:59" description="La Torre del Mangia (du surnom de son premier sonneur, Giovanni di Duccio, dit le Mange gains), atteint la hauteur de 102 m et sa construction dura 10 ans." id="3798982895" latitude="43.318359" license="1" longitude="11.332" nbComments="0" rank="97" tags="campanile palais sienne toscane italie it" title="Torre del Mangia, Sienne 2009" url_b="http://static.flickr.com/2610/3798982895_2d9e6dfd24_b.jpg" username="Sébastien Donato" views="10" />
<photo  date_taken="2007-04-28 19:35:27" description="" id="569025456" latitude="43.318172" license="3" longitude="11.332569" nbComments="2" rank="98" tags="siena torre mangia medioevo italia medievale" title="Torre del Mangia" url_b="http://static.flickr.com/1340/569025456_352c7cf2d7_b.jpg" username="rebol" views="52" />
<photo  date_taken="2012-08-16 16:15:17" description="Son poco más de las 4 y la carrera empieza a las 7. Es 16 de agosto y hace una calor sofocante, pero hay que coger sitio en la Piazza del Campo. Aquí la Torre de Mangia, que con sus 88 metros fue una de las torres seculares más altas de la Italia medieval. Tiene la misma altura que el Duomo de Siena, para demostrar que la iglesia y el Estado tenían el mismo status. --- Siena, Toscana (Italia). &lt;b&gt;¡¡En el puesto 342 de Explore del 27/01/2013!!&lt;/b&gt;" id="8419568110" latitude="43.318536" license="3" longitude="11.332161" nbComments="8" rank="99" tags="geo:lat=4331853533 geo:lon=1133216143 geotagged tamron 18200 palio vacaciones2012 novicecontrast ml40 mangia torre tower siena toscana italia ita explored" title="Tres horas" url_b="http://static.flickr.com/8055/8419568110_ce311b5617_b.jpg" username=". SantiMB ." views="162" />
<photo  date_taken="2006-10-02 11:25:22" description="" id="401105688" latitude="43.318227" license="1" longitude="11.331893" nbComments="1" rank="100" tags="siena campo palazzo torre mangia italia italy tower comune tuscany toscana" title="Siena - Torre del Mangia" url_b="http://static.flickr.com/175/401105688_9a6fc058f5_b.jpg" username="dwarfadam" views="44" />
<photo  date_taken="2010-06-30 02:30:37" description="" id="4802945161" latitude="43.318566" license="3" longitude="11.332161" nbComments="0" rank="101" tags="vacation2010 italy" title="Torre del Mangia" url_b="http://static.flickr.com/4078/4802945161_ccabc3084b_b.jpg" username="Bart Hanlon" views="9" />
<photo  date_taken="2008-06-10 09:38:05" description="...and this is the stamp :-) ..il francobollo! Scattata dal cortile interno del palazzo vicino alla torre del Mangia &lt;b&gt;Feel free to use my photograph, even for commercial use, according to the &lt;a href=&quot;http://creativecommons.org/licenses/by/2.0/deed.en&quot; rel=&quot;nofollow&quot;&gt;license&lt;/a&gt;. If you do, please take note that you must attribute the work in the manner specified by me, which is: 1) put a clickable link to this page 2) let me know (e.g. via flickrmail or via email to motumboe AT gmail DOT com ) so my ego grows :-) Thank you! &lt;/b&gt; &lt;b&gt;Utilizza pure questa foto, anche a fini commerciali, secondo la &lt;a href=&quot;http://creativecommons.org/licenses/by/2.0/deed.it&quot; rel=&quot;nofollow&quot;&gt;licenza&lt;/a&gt;. Se la utilizzi, la licenza ti impone di attribuire a me la foto, nella maniera scelta da me, cioè: 1) metti un link cliccabile a questa pagina 2) mandami una mail via flickr o all'indirizzo motumboe (chiocciola) gmail (punto) com per farmelo sapere e per far aumentare il mio ego :-) Grazie! &lt;/b&gt;" id="2566507051" latitude="43.318562" license="4" longitude="11.332413" nbComments="24" rank="102" tags="postcard cartolina stamp francobollo siena torre tower mangia geotagged motumboe" title="Postcard from Siena" url_b="http://static.flickr.com/3120/2566507051_a97a7d5e75_b.jpg" username="motumboe" views="317" />
<photo  date_taken="2006-05-14 14:35:46" description="Finding Buratino in Siena." id="314145903" latitude="43.318233" license="4" longitude="11.331836" nbComments="0" rank="103" tags="buildings siena italy" title="Siena from top of Torre del Mangia (2006-05-496)" url_b="http://static.flickr.com/103/314145903_57c9d4da2b_b.jpg" username="Argenberg" views="102" />
<photo  date_taken="2006-05-14 14:52:39" description="The Torre del Mangia was built in 1334. The tower is the focal point of the Piazza del Campo, Siena's premier square. When built it was one of the tallest non-sectarian towers in mediaeval Italy." id="314146724" latitude="43.318233" license="4" longitude="11.331836" nbComments="0" rank="104" tags="architecture siena italy" title="The Torre del Mangia (2006-05-497)" url_b="http://static.flickr.com/117/314146724_5c12b38a54_b.jpg" username="Argenberg" views="75" />
<photo  date_taken="2006-05-14 14:27:30" description="The Torre del Mangia was built in 1334. The tower is the focal point of the Piazza del Campo, Siena's premier square. When built it was one of the tallest non-sectarian towers in mediaeval Italy." id="313955175" latitude="43.318233" license="4" longitude="11.331836" nbComments="0" rank="105" tags="buildings people siena italy" title="The Piazza Del Campo from Torre del Mangia (2006-05-491)" url_b="http://static.flickr.com/109/313955175_a43debb8b7_b.jpg" username="Argenberg" views="175" />
<photo  date_taken="2006-05-14 14:29:58" description="" id="314141762" latitude="43.318233" license="4" longitude="11.331836" nbComments="0" rank="106" tags="hills buildings siena italy" title="Tuscany views from top of Torre del Mangia in Siena (2006-05-493)" url_b="http://static.flickr.com/105/314141762_c4a83e010e_b.jpg" username="Argenberg" views="147" />
<photo  date_taken="2006-05-14 14:33:04" description="" id="314142423" latitude="43.318233" license="4" longitude="11.331836" nbComments="0" rank="107" tags="siena italy" title="Bell on top of Torre del Mangia (2006-05-494)" url_b="http://static.flickr.com/114/314142423_3ceadc4b0e_b.jpg" username="Argenberg" views="81" />
<photo  date_taken="2006-05-14 14:26:49" description="The Torre del Mangia was built in 1334. The tower is the focal point of the Piazza del Campo, Siena's premier square. When built it was one of the tallest non-sectarian towers in mediaeval Italy." id="313953943" latitude="43.318233" license="4" longitude="11.331836" nbComments="0" rank="108" tags="buildings people siena italy" title="The Piazza Del Campo from Torre del Mangia (2006-05-490)" url_b="http://static.flickr.com/104/313953943_1ff6f14817_b.jpg" username="Argenberg" views="128" />
<photo  date_taken="2006-05-14 14:24:54" description="The Torre del Mangia tower was built in 1334. The tower is the focal point of the Piazza del Campo, Siena's premier square. When built it was one of the tallest non-sectarian towers in mediaeval Italy." id="313952823" latitude="43.318233" license="4" longitude="11.331836" nbComments="0" rank="109" tags="buildings people siena italy" title="The Piazza Del Campo from Torre del Mangia (2006-05-488)" url_b="http://static.flickr.com/119/313952823_32425da893_b.jpg" username="Argenberg" views="84" />
<photo  date_taken="2005-10-16 12:20:39" description="" id="2434134011" latitude="43.31855" license="3" longitude="11.33193" nbComments="0" rank="110" tags="siena palazzocomunale palace palazzo torredelmangia" title="Torre del Mangia" url_b="http://static.flickr.com/3002/2434134011_3e8e0a2254_b.jpg" username="Tiziano Caviglia" views="4" />
<photo  date_taken="2011-06-26 15:34:06" description="Torre del Mangia del Palazzo Comunale de Siena, desde el interior." id="6049861031" latitude="43.3185" license="4" longitude="11.331882" nbComments="0" rank="111" tags="siena tuscany toscana italy italia arquitectura torre" title="Torre del Mangia" url_b="http://static.flickr.com/6194/6049861031_682892d50f_b.jpg" username="Jon Gonzalo Torróntegui" views="61" />
<photo  date_taken="2011-07-02 17:52:11" description="" id="5902839342" latitude="43.317739" license="1" longitude="11.332354" nbComments="1" rank="112" tags="" title="Torre del Mangia da Piazza del Mercato" url_b="http://static.flickr.com/6023/5902839342_6bd66051ac_b.jpg" username="Emanuele Baroni" views="51" />
<photo  date_taken="2011-06-28 06:06:30" description="" id="6221599832" latitude="43.318277" license="6" longitude="11.331764" nbComments="0" rank="113" tags="" title="Torre del Mangia" url_b="http://static.flickr.com/6165/6221599832_90629bc706_b.jpg" username="luigi714" views="1" />
<photo  date_taken="1998-11-08 14:00:00" description="One of the most recognizable towers in Italy, the Torre del Mangia rises at the side of Piazza del Campo." id="3340514036" latitude="43.318675" license="4" longitude="11.332429" nbComments="0" rank="114" tags="siena italia toscana torredelmangia" title="Siena: 1998-11-08 Torre del Mangia" url_b="http://static.flickr.com/3537/3340514036_4dd17d720a_b.jpg" username="orcmid" views="26" />
<photo  date_taken="2010-03-06 02:53:54" description="Il Torre del Mangia, something straight out of Di Chirico" id="4417206496" latitude="43.318293" license="2" longitude="11.331732" nbComments="0" rank="115" tags="" title="Sie2010030701" url_b="http://static.flickr.com/4005/4417206496_07f36c1c17_b.jpg" username="cpw421" views="0" />
<photo  date_taken="2012-04-10 17:16:48" description="" id="6943061110" latitude="43.318308" license="5" longitude="11.33173" nbComments="0" rank="116" tags="sienna" title="Torre del Mangia, Sienna" url_b="http://static.flickr.com/7258/6943061110_b839e59e59_b.jpg" username="Andrew and Annemarie" views="16" />
<photo  date_taken="2008-03-20 13:51:36" description="" id="2364204198" latitude="43.31841" license="1" longitude="11.331759" nbComments="0" rank="117" tags="siena sienna italy tuscany torre del mangia" title="Torre del Mangia, Siena" url_b="http://static.flickr.com/2145/2364204198_82ded4ea61_b.jpg" username="Jonathan Ziapour" views="24" />
<photo  date_taken="2008-03-20 13:53:45" description="" id="2364206822" latitude="43.31841" license="1" longitude="11.331759" nbComments="0" rank="118" tags="siena sienna italy tuscany torre del mangia piazza campo" title="Piazza del Campo and the Torre del Mangia, Siena" url_b="http://static.flickr.com/3045/2364206822_441ba8df2c_b.jpg" username="Jonathan Ziapour" views="35" />
<photo  date_taken="2004-09-10 12:40:31" description="Siena (view from top of Torre del Mangia)" id="98791495" latitude="43.318449" license="3" longitude="11.331775" nbComments="0" rank="119" tags="siena umbria aerial torredelmangia" title="Pavement geometry" url_b="http://static.flickr.com/27/98791495_35b8a11569_b.jpg" username="Mark Bridge" views="81" />
<photo  date_taken="2004-09-10 12:39:31" description="Siena (view from top of Torre del Mangia)" id="102645929" latitude="43.318449" license="3" longitude="11.331775" nbComments="0" rank="120" tags="siena aerial torredelmangia tuscany" title="Siena - from Torre del Mangia" url_b="http://static.flickr.com/36/102645929_616afb2725_b.jpg" username="Mark Bridge" views="41" />
<photo  date_taken="2004-09-10 12:41:49" description="Siena (view from top of Torre del Mangia)" id="98791581" latitude="43.318449" license="3" longitude="11.331775" nbComments="0" rank="121" tags="siena tuscany aerial torredelmangia" title="Looking down" url_b="http://static.flickr.com/30/98791581_be19d8e509_b.jpg" username="Mark Bridge" views="46" />
<photo  date_taken="2004-09-10 12:37:41" description="Siena (view of Duomo from top of Torre del Mangia)" id="102645892" latitude="43.318449" license="3" longitude="11.331775" nbComments="0" rank="122" tags="siena aerial duomo church tuscany torredelmangia" title="Siena - from Torre del Mangia" url_b="http://static.flickr.com/28/102645892_5dc771c875_b.jpg" username="Mark Bridge" views="94" />
<photo  date_taken="2011-08-13 11:15:22" description="Piazza Il Campo, Siena, Toscana, Italia" id="6061189109" latitude="43.317996" license="5" longitude="11.331759" nbComments="0" rank="123" tags="tower architecture church city europe cityhall siena palio italy toscana tuscany italia" title="Palazzo Comunale e Torre del Mangia" url_b="http://static.flickr.com/6075/6061189109_bf015e26cd_b.jpg" username="marco_ask" views="46" />
<photo  date_taken="2011-06-07 20:51:34" description="Piazza del Campo 田野廣場 義大利 Siena 錫耶納" id="6260012316" latitude="43.318753" license="5" longitude="11.332075" nbComments="0" rank="124" tags="panasonic dmcgf1 italy siena 出遊 palace museum tower sky heritage piazzadelcampo" title="Torre del Mangia 曼吉亞塔樓" url_b="http://static.flickr.com/6113/6260012316_926185c8ec_b.jpg" username="Richard, enjoy my life!" views="44" />
<photo  date_taken="2011-06-08 08:47:25" description="Torre del Mangia 曼吉亞塔樓 Piazza del Campo 田野廣場 義大利 Siena 錫耶納" id="6260198439" latitude="43.318753" license="5" longitude="11.332075" nbComments="0" rank="125" tags="panasonic dmcgf1 italy siena piazzadelcampo 出遊 heritage tower sky" title="P1230901" url_b="http://static.flickr.com/6100/6260198439_0d8eb7f140_b.jpg" username="Richard, enjoy my life!" views="1" />
<photo  date_taken="2009-09-08 13:38:34" description="" id="4350563879" latitude="43.318402" license="2" longitude="11.33171" nbComments="0" rank="126" tags="2009 clocks europe ilcampo italy siena torredelmangia tuscany vacation" title="034720 Torre del Mangia" url_b="http://static.flickr.com/4038/4350563879_ff278df913_b.jpg" username="sdobie" views="15" />
<photo  date_taken="2007-12-25 15:35:08" description="&lt;a href=&quot;http://bighugelabs.com/flickr/onblack.php?id=2299067712&quot;&gt;View On Black&lt;/a&gt; &lt;a href=&quot;http://www.flickr.com/groups/world/pool/tags/italy/&quot;&gt;Back to Italy&lt;/a&gt; - &lt;a href=&quot;http://www.flickr.com/groups/world/&quot;&gt;Visit the World&lt;/a&gt;" id="2299067712" latitude="43.318398" license="3" longitude="11.331694" nbComments="0" rank="127" tags="italia italy siena tuscany toscana ilcampo piazzadelcampo piazza center tower sienatower blue sky sunny torredelmangia torre europe travel canonsd450 canon sd450" title="Siena Tower in the Sky" url_b="http://static.flickr.com/3216/2299067712_3b0ee47d94_b.jpg" username="wenzday01" views="553" />
<photo  date_taken="2007-12-25 15:37:43" description="&lt;a href=&quot;http://bighugelabs.com/flickr/onblack.php?id=2299067850&quot;&gt;View On Black&lt;/a&gt; &lt;a href=&quot;http://www.flickr.com/groups/world/pool/tags/italy/&quot;&gt;Back to Italy&lt;/a&gt; - &lt;a href=&quot;http://www.flickr.com/groups/world/&quot;&gt;Visit the World&lt;/a&gt;" id="2299067850" latitude="43.318398" license="3" longitude="11.331694" nbComments="2" rank="128" tags="italia italy siena tuscany toscana ilcampo piazzadelcampo piazza center tower sienatower blue sky sunny torredelmangia torre europe travel canonsd450 canon sd450" title="Siena Clock Tower" url_b="http://static.flickr.com/3161/2299067850_d09bcf26fb_b.jpg" username="wenzday01" views="517" />
<photo  date_taken="2010-06-10 15:14:15" description="" id="4784439152" latitude="43.318465" license="1" longitude="11.331657" nbComments="0" rank="129" tags="toscana siena torre mangia orologio" title="Orologio Torre del Mangia - Siena" url_b="http://static.flickr.com/4080/4784439152_18a23ae591_b.jpg" username="ghirolfo53" views="48" />
<photo  date_taken="2010-06-10 10:56:08" description="" id="4757324256" latitude="43.318465" license="1" longitude="11.331657" nbComments="5" rank="130" tags="toscana siena palazzo mangia cortile" title="Siena - Torre del Mangia dal cortile Palazzo Comunale" url_b="http://static.flickr.com/4074/4757324256_bdf15ecaba_b.jpg" username="ghirolfo53" views="49" />
<photo  date_taken="2007-09-23 17:47:23" description="" id="1429809994" latitude="43.318597" license="5" longitude="11.331614" nbComments="0" rank="131" tags="siena piazzadelcampo campaniledelmangia italy lobelobe dettagli di vita urban vitamea vida life minolta konica z10 facebook tutte" title="Veduta dalla torre del mangia" url_b="http://static.flickr.com/1252/1429809994_dd4e990d60_b.jpg" username="*DiEgO*" views="10" />
<photo  date_taken="2007-09-23 17:56:18" description="" id="1429821580" latitude="43.318597" license="5" longitude="11.331614" nbComments="0" rank="132" tags="siena piazzadelcampo campaniledelmangia italy lobelobe dettagli di vita urban vitamea vida life minolta konica z10 facebook tutte" title="Veduta dalla torre del mangia" url_b="http://static.flickr.com/1068/1429821580_1ee2431050_b.jpg" username="*DiEgO*" views="31" />
<photo  date_taken="2007-09-23 17:40:30" description="" id="1428929681" latitude="43.318597" license="5" longitude="11.331614" nbComments="0" rank="133" tags="siena piazzadelcampo campaniledelmangia italy lobelobe dettagli di vita urban vitamea vida life minolta konica z10 facebook tutte" title="Veduta dalla torre del mangia" url_b="http://static.flickr.com/1419/1428929681_3d15a709fb_b.jpg" username="*DiEgO*" views="4" />
<photo  date_taken="2007-09-23 17:54:56" description="" id="1429819320" latitude="43.318597" license="5" longitude="11.331614" nbComments="0" rank="134" tags="siena piazzadelcampo campaniledelmangia italy lobelobe dettagli di vita urban vitamea vida life minolta konica z10 facebook tutte" title="Veduta dalla torre del mangia" url_b="http://static.flickr.com/1073/1429819320_b1ebe24376_b.jpg" username="*DiEgO*" views="7" />
<photo  date_taken="2007-09-23 17:42:48" description="" id="1428930715" latitude="43.318597" license="5" longitude="11.331614" nbComments="0" rank="135" tags="siena piazzadelcampo campaniledelmangia italy lobelobe dettagli di vita urban vitamea vida life minolta konica z10 facebook tutte" title="Veduta dalla torre del mangia" url_b="http://static.flickr.com/1196/1428930715_de60113c40_b.jpg" username="*DiEgO*" views="4" />
<photo  date_taken="2007-09-23 17:49:18" description="" id="1428936613" latitude="43.318597" license="5" longitude="11.331614" nbComments="0" rank="136" tags="siena piazzadelcampo campaniledelmangia italy lobelobe dettagli di vita urban vitamea vida life minolta konica z10 facebook tutte" title="Veduta dalla torre del mangia" url_b="http://static.flickr.com/1407/1428936613_173b704441_b.jpg" username="*DiEgO*" views="16" />
<photo  date_taken="2007-09-23 17:45:09" description="" id="1431552091" latitude="43.318597" license="5" longitude="11.331614" nbComments="0" rank="137" tags="siena italy lobelobe dettagli di vita urban vitamea vida life minolta konica z10 facebook tutte" title="Veduta dalla torre del mangia" url_b="http://static.flickr.com/1073/1431552091_95cbc98fe0_b.jpg" username="*DiEgO*" views="9" />
<photo  date_taken="2007-09-23 17:46:45" description="" id="1428933437" latitude="43.318597" license="5" longitude="11.331614" nbComments="0" rank="138" tags="siena piazzadelcampo campaniledelmangia italy lobelobe dettagli di vita urban vitamea vida life minolta konica z10 facebook tutte" title="Veduta dalla torre del mangia" url_b="http://static.flickr.com/1396/1428933437_666854b6a2_b.jpg" username="*DiEgO*" views="8" />
<photo  date_taken="2007-09-23 17:55:39" description="" id="1428944467" latitude="43.318597" license="5" longitude="11.331614" nbComments="0" rank="139" tags="siena piazzadelcampo campaniledelmangia italy lobelobe dettagli di vita urban vitamea vida life minolta konica z10 facebook tutte" title="Veduta dalla torre del mangia" url_b="http://static.flickr.com/1316/1428944467_3f20702537_b.jpg" username="*DiEgO*" views="6" />
<photo  date_taken="2012-07-26 19:18:00" description="Siena, Tuscany. Italy. July 2012." id="7660542050" latitude="43.318668" license="1" longitude="11.331635" nbComments="0" rank="140" tags="tuscany latoscana piazzadelcampo piazza plaza ciudad city siena italia italy 2012 nataliaromay torredelmangia arch" title="Piazza del Campo" url_b="http://static.flickr.com/8423/7660542050_fa9affdb57_b.jpg" username="Natalia Romay" views="91" />
<photo  date_taken="2008-08-01 07:49:38" description="" id="2645688168" latitude="43.31864" license="4" longitude="11.331603" nbComments="0" rank="141" tags="siena tuscany toscana italy piazadelcampohorses horse races paio giraffe fans pizza church travel friends flags medieval" title="Torre del Mangia" url_b="http://static.flickr.com/3041/2645688168_dac511406e_b.jpg" username="razvan.orendovici" views="6" />
<photo  date_taken="2008-08-01 07:47:32" description="" id="2644860175" latitude="43.31864" license="4" longitude="11.331603" nbComments="0" rank="142" tags="siena tuscany toscana italy piazadelcampohorses horse races paio giraffe fans pizza church travel friends flags medieval" title="Torre del Mangia" url_b="http://static.flickr.com/3125/2644860175_fd2e3ebd87_b.jpg" username="razvan.orendovici" views="34" />
<photo  date_taken="2008-08-01 07:50:56" description="" id="2645689052" latitude="43.31864" license="4" longitude="11.331603" nbComments="0" rank="143" tags="siena tuscany toscana italy piazadelcampohorses horse races paio giraffe fans pizza church travel friends flags medieval" title="Torre del Mangia" url_b="http://static.flickr.com/3040/2645689052_912dba9f7d_b.jpg" username="razvan.orendovici" views="41" />
<photo  date_taken="2008-08-01 07:46:57" description="" id="2644859893" latitude="43.31864" license="4" longitude="11.331603" nbComments="0" rank="144" tags="siena tuscany toscana italy piazadelcampohorses horse races paio giraffe fans pizza church travel friends flags medieval" title="Torre del Mangia" url_b="http://static.flickr.com/3082/2644859893_73353ed331_b.jpg" username="razvan.orendovici" views="16" />
<photo  date_taken="2008-08-01 07:47:43" description="" id="2644860303" latitude="43.31864" license="4" longitude="11.331603" nbComments="0" rank="145" tags="siena tuscany toscana italy piazadelcampohorses horse races paio giraffe fans pizza church travel friends flags medieval" title="Torre del Mangia and Irina" url_b="http://static.flickr.com/3066/2644860303_80b1670a78_b.jpg" username="razvan.orendovici" views="21" />
<photo  date_taken="2008-08-01 07:46:39" description="July 2nd 2008, morning of Paio. Crowds beginign to gather in the piazza, horse track laid out. Torre del Mangia to the left of Pallazo Publico" id="2645685338" latitude="43.31864" license="4" longitude="11.331603" nbComments="1" rank="146" tags="siena tuscany toscana italy piazadelcampohorses horse races paio giraffe fans pizza church travel friends flags medieval" title="Piazza del Campo with Torre del Mangia" url_b="http://static.flickr.com/3281/2645685338_3feafcef19_b.jpg" username="razvan.orendovici" views="182" />
<photo  date_taken="2008-08-01 07:48:30" description="" id="2644861331" latitude="43.31864" license="4" longitude="11.331603" nbComments="0" rank="147" tags="siena tuscany toscana italy piazadelcampohorses horse races paio giraffe fans pizza church travel friends flags medieval" title="Torre del Mangia" url_b="http://static.flickr.com/3065/2644861331_19a8850975_b.jpg" username="razvan.orendovici" views="22" />
<photo  date_taken="2011-07-02 18:24:44" description="" id="5902182241" latitude="43.318332" license="1" longitude="11.331474" nbComments="12" rank="148" tags="" title="La Torre del Mangia" url_b="http://static.flickr.com/6034/5902182241_3fb8b94968_b.jpg" username="Emanuele Baroni" views="80" />
<photo  date_taken="2009-04-16 23:24:11" description="According to guide books, the bell tower was named after a lazy worker who was &amp;quot;eating the profits.&amp;quot;" id="3528046848" latitude="43.318436" license="1" longitude="11.331496" nbComments="0" rank="149" tags="italy siena" title="Torre del Mangia" url_b="http://static.flickr.com/2402/3528046848_0bbfee8344_b.jpg" username="SolGrundy" views="3" />
<photo  date_taken="2012-05-31 15:52:26" description="" id="7160290633" latitude="43.318597" license="5" longitude="11.33156" nbComments="0" rank="150" tags="italy siena sienna bell tower torre del mangia sky blue piazza campo piazzadelcampo" title="Siena Tower" url_b="http://static.flickr.com/7217/7160290633_f380900a1d_b.jpg" username="SanguineSeas" views="10" />
</photos>
