<?xml version="1.0" encoding="UTF-8" standalone="no"?>
<photos monument="Trajan's Forum">

<photo  date_taken="2009-05-11 16:04:25" description="Trajan's column and the Church of Holy Name of Mary" id="3607484530" latitude="41.895207" license="3" longitude="12.48498" nbComments="1" rank="1" tags="night rome roma italy europe ruins roman trajanscolumn column churchofholynameofmary chiesadelsantissimonomedimaria church forotraiano lacolonnaditraiano basilicaulpia" title="Trajan's Forum, Rome" url_b="http://static.flickr.com/3345/3607484530_eb495155dd_b.jpg" username="Sean Munson" views="360" />
<photo  date_taken="2008-07-10 16:05:53" description="Completed 112 AD, the column 113 AD this is the youngest of the Fora of Rome, build with and commemorating respectively Trajan's victories in Dacia (Romania). Trajan's Column has, of course, been capped by another dumb Christian monument." id="2746803901" latitude="41.895173" license="1" longitude="12.485029" nbComments="1" rank="2" tags="rome italy trajansforum trajanscolumn" title="Trajan's Forum &amp; Column" url_b="http://static.flickr.com/3095/2746803901_79de8207a5_b.jpg" username="Mushkush" views="326" />
<photo  date_taken="2001-07-05 04:18:43" description="&lt;a href=&quot;http://loc.alize.us/#/flickr:3440224280&quot;&gt;See where this picture was taken.&lt;/a&gt; &lt;a href=&quot;http://www.flickr.com/groups/geotagging/discuss/72157594165549916/&quot;&gt;[?]&lt;/a&gt;" id="3440224280" latitude="41.895675" license="1" longitude="12.484892" nbComments="0" rank="3" tags="trajansforum trajanscolumn geo:lat=41895675 geo:lon=12484892 geotagged italy" title="Dacian War recounted" url_b="http://static.flickr.com/3570/3440224280_a4bc3b41b3_b.jpg" username="Amphipolis" views="33" />
<photo  date_taken="2005-03-18 13:02:08" description="" id="29500472" latitude="41.895489" license="3" longitude="12.484524" nbComments="0" rank="4" tags="rome roman italia europe trajanscolumn trajan italy italie" title="Trajan's forum and column" url_b="http://static.flickr.com/22/29500472_fc5626a350_b.jpg" username="Gauis Caecilius" views="170" />
<photo  date_taken="2008-08-10 14:19:18" description="Trajan's Forum with Trajan's Column (AD 113 by Apollodorus of Damascus)" id="2852061968" latitude="41.895592" license="3" longitude="12.484588" nbComments="0" rank="5" tags="trajan rome column forum" title="IMG_2918" url_b="http://static.flickr.com/3187/2852061968_26b0875227_b.jpg" username="Jens Vermeersch" views="49" />
<photo  date_taken="2001-07-05 05:02:56" description="&lt;a href=&quot;http://loc.alize.us/#/flickr:3439413441&quot;&gt;See where this picture was taken.&lt;/a&gt; &lt;a href=&quot;http://www.flickr.com/groups/geotagging/discuss/72157594165549916/&quot;&gt;[?]&lt;/a&gt;" id="3439413441" latitude="41.895683" license="1" longitude="12.484709" nbComments="0" rank="6" tags="trajansforum geo:lat=41895683 geo:lon=12484709 geotagged italy" title="Columns of the Basilica Ulpia" url_b="http://static.flickr.com/3378/3439413441_23d1849d88_b.jpg" username="Amphipolis" views="46" />
<photo  date_taken="2002-01-12 10:00:17" description="" id="2758310760" latitude="41.895728" license="1" longitude="12.484942" nbComments="0" rank="7" tags="ruins architecture film filmphoto italy lazio rome trajansforum italia roma" title="Close up of the bricks in the column" url_b="http://static.flickr.com/3187/2758310760_1591210027_b.jpg" username="c_nilsen" views="10" />
<photo  date_taken="2002-01-12 10:00:18" description="The brick parts were added a lot later by restorers." id="2758311052" latitude="41.895728" license="1" longitude="12.484942" nbComments="0" rank="8" tags="ruins architecture film filmphoto italy lazio rome trajansforum italia roma" title="Columns in Trajan's Forum" url_b="http://static.flickr.com/3038/2758311052_1237192fd2_b.jpg" username="c_nilsen" views="5" />
<photo  date_taken="2005-03-18 13:02:08" description="" id="2474785117" latitude="41.895549" license="3" longitude="12.484459" nbComments="2" rank="9" tags="trjan roman rome roma italian italia ancient unescoworldheritagesite unescoworldheritagelist" title="Trajan's forum and column" url_b="http://static.flickr.com/3203/2474785117_a2aa182383_b.jpg" username="Gauis Caecilius" views="1066" />
<photo  date_taken="2001-07-05 04:22:51" description="&lt;a href=&quot;http://loc.alize.us/#/flickr:3439413409&quot;&gt;See where this picture was taken.&lt;/a&gt; &lt;a href=&quot;http://www.flickr.com/groups/geotagging/discuss/72157594165549916/&quot;&gt;[?]&lt;/a&gt;" id="3439413409" latitude="41.895703" license="1" longitude="12.484409" nbComments="0" rank="10" tags="trajansforum geo:lat=41895703 geo:lon=12484409 geotagged italy" title="Columns of the Basilica Ulpia" url_b="http://static.flickr.com/3305/3439413409_bf78045d57_b.jpg" username="Amphipolis" views="26" />
<photo  date_taken="2008-10-28 08:50:54" description="Brick core with a veneer, once part of Trajan's Forum. Sides of the Quirinal and Capitoline hills of Rome were excavated in order to build the forum (making our walk steeper than it might have been in the first century)." id="3049536751" latitude="41.895781" license="1" longitude="12.484374" nbComments="0" rank="11" tags="rome italy trajan forum columns" title="Excavated columns" url_b="http://static.flickr.com/3194/3049536751_3f0277a65b_b.jpg" username="wfbakker2" views="35" />
<photo  date_taken="2008-10-28 08:42:55" description="Our goal for the morning was the Vatican Museum, but first we walked beside the ongoing archeological site between Trajan's Market and the half-buried Forum of Nerva." id="3050302074" latitude="41.895781" license="1" longitude="12.484374" nbComments="0" rank="12" tags="rome italy trajan column market" title="Trajan's Column on a cloudy morning" url_b="http://static.flickr.com/3022/3050302074_02cdff0cd5_b.jpg" username="wfbakker2" views="56" />
<photo  date_taken="2008-10-28 08:54:32" description="from Trajan's Forum, near the Column." id="3049542569" latitude="41.895781" license="1" longitude="12.484374" nbComments="0" rank="13" tags="rome italy" title="Piles recovered" url_b="http://static.flickr.com/3235/3049542569_53f5bc9e3e_b.jpg" username="wfbakker2" views="31" />
<photo  date_taken="2003-01-01 04:43:00" description="&lt;b&gt;Colonna Traiana / Chiesa del Santissimo Nome di Maria al Foro Traiano&lt;/b&gt; Roma, Italia &lt;b&gt;Trajan's Column / Church of the Most Holy Name of Mary at the Trajan Forum&lt;/b&gt; Rome, Italy &lt;b&gt;Columna de Trajano / Iglesia del Santísimo Nombre de María en el Foro de Trajano&lt;/b&gt; Roma, Italia" id="8116427564" latitude="41.895976" license="2" longitude="12.48447" nbComments="2" rank="14" tags="" title="2004.02.27.062 - ROMA - Colonna Traiana / Chiesa del Santissimo Nome di Maria al Foro Traiano" url_b="http://static.flickr.com/8045/8116427564_1a848f1e21_b.jpg" username="Erke" views="4" />
<photo  date_taken="2012-10-23 17:46:51" description="&lt;b&gt;Colonna Traiana / Chiesa del Santissimo Nome di Maria al Foro Traiano&lt;/b&gt; Roma, Italia &lt;b&gt;Trajan's Column / Church of the Most Holy Name of Mary at the Trajan Forum&lt;/b&gt; Rome, Italy &lt;b&gt;Columna de Trajano / Iglesia del Santísimo Nombre de María en el Foro de Trajano&lt;/b&gt; Roma, Italia" id="8116419467" latitude="41.895976" license="2" longitude="12.48447" nbComments="0" rank="15" tags="" title="2004.02.27.061 - ROMA - Colonna Traiana / Chiesa del Santissimo Nome di Maria al Foro Traiano" url_b="http://static.flickr.com/8045/8116419467_b65c64bdcf_b.jpg" username="Erke" views="3" />
<photo  date_taken="2005-11-03 01:08:34" description="On our way to Tazza d'Oro for granitas. Designed as the centerpiece to Trajan's Forum in 113 CE by Apollodorus of Damascus, a Greek architect from Syria. Fitting, since Trajan himself was born in Spain, the first non-Italian Emperor. Under him, the Roman Empire expanded to its greatest size; the spiraling bas relief on the column commemorates Trajan's victories in the Dacian Wars. The column stands 125 feet including its base, and was once topped by a gilded bronze statue of the Emperor himself. This statue was destroyed sometime in the Middle Ages, and in 1588 Pope Sixtus V replaced it with the statue of Saint Peter that remains there today. &lt;a href=&quot;http://loc.alize.us/#/flickr:1254413185&quot; rel=&quot;nofollow&quot;&gt;See where this picture was taken.&lt;/a&gt; &lt;a href=&quot;http://www.flickr.com/groups/geotagging/discuss/72157594165549916/&quot;&gt;[?]&lt;/a&gt;" id="1254413185" latitude="41.895928" license="3" longitude="12.484318" nbComments="0" rank="16" tags="trajanscolumn rome italia italy roma trajansforum apollodorus apollodorusofdamascus trajan popesixtusv saintpeter stpeter europe geotagged imperialart geo:lat=41895928 geo:lon=12484318 travel" title="Trajan's Column, Rome" url_b="http://static.flickr.com/1336/1254413185_3b240eaf3c_b.jpg" username="xopherlance" views="220" />
<photo  date_taken="2011-10-28 14:34:36" description="" id="6356510589" latitude="41.895489" license="1" longitude="12.48403" nbComments="0" rank="17" tags="rome romeitaly" title="View from Trajan's Forum VIII" url_b="http://static.flickr.com/6091/6356510589_8c4b9bce06_b.jpg" username="jnshaumeyer" views="15" />
<photo  date_taken="2002-01-12 10:00:13" description="" id="2757475453" latitude="41.896032" license="1" longitude="12.484363" nbComments="0" rank="18" tags="ruins architecture film filmphoto italy lazio monumenttovittorioemanueleii rome trajansforum italia roma" title="Three columns in Trajan's Forum" url_b="http://static.flickr.com/3010/2757475453_6453f0fe3a_b.jpg" username="c_nilsen" views="5" />
<photo  date_taken="2002-01-12 10:00:16" description="This column was a huge help to me when I got &lt;a href=&quot;http://www.flickr.com/photos/c_nilsen/2757416485/in/set-72157606696559661/&quot;&gt;lost in Rome&lt;/a&gt; on the next to last day we were there. The column is only about a block from the hotel we were staying at." id="2757476333" latitude="41.896032" license="1" longitude="12.484363" nbComments="0" rank="19" tags="ruins architecture film filmphoto italy lazio rome trajanscolumn trajansforum italia roma" title="Trajan's column with scaffolding" url_b="http://static.flickr.com/3166/2757476333_926e843788_b.jpg" username="c_nilsen" views="29" />
<photo  date_taken="2010-09-03 23:11:45" description="the columns were erected 1900 years ago!" id="4982536727" latitude="41.895764" license="1" longitude="12.484073" nbComments="0" rank="20" tags="europe italy roma rome travel travelling forumtraiani trajansforum" title="Forum Traiani" url_b="http://static.flickr.com/4110/4982536727_842cc91f63_b.jpg" username="1yen" views="31" />
<photo  date_taken="2010-01-02 11:41:02" description="Colonna Traiana" id="4291898383" latitude="41.895968" license="1" longitude="12.484223" nbComments="0" rank="21" tags="church religion christian blurred toobright lowcontrast highquality italy roma rome romancatholic catholic santissimonomedimariaalforotraiano churchofthemostholynameofmaryatthetrajanforum churchofthemostholynameofmary santissimonomedimariaalforotraianolatinssnominisma trajanscolumn colonnatraiana" title="Colonna Traiana" url_b="http://static.flickr.com/2776/4291898383_48e4677d52_b.jpg" username="CyberMacs" views="163" />
<photo  date_taken="2009-04-15 00:10:10" description="" id="3495123489" latitude="41.895908" license="1" longitude="12.484089" nbComments="0" rank="22" tags="colosseum forum italy rome" title="Trajan's Column" url_b="http://static.flickr.com/3307/3495123489_4d96c47c3e_b.jpg" username="SolGrundy" views="9" />
<photo  date_taken="2010-01-02 12:11:30" description="" id="4291970753" latitude="41.896239" license="1" longitude="12.484502" nbComments="0" rank="23" tags="blurred lowcontrast highquality italy roma rome santissimonomedimariaalforotraiano churchofthemostholynameofmaryatthetrajanforum churchofthemostholynameofmary santissimonomedimariaalforotraianolatinssnominisma trajanscolumn colonnatraiana" title="Santissimo Nome di Maria al Foro Traiano" url_b="http://static.flickr.com/4068/4291970753_30030763bd_b.jpg" username="CyberMacs" views="38" />
<photo  date_taken="2010-01-02 12:11:06" description="" id="4291967145" latitude="41.896239" license="1" longitude="12.484502" nbComments="0" rank="24" tags="infocus highquality italy roma rome santissimonomedimariaalforotraiano churchofthemostholynameofmaryatthetrajanforum churchofthemostholynameofmary santissimonomedimariaalforotraianolatinssnominisma trajanscolumn colonnatraiana" title="Santissimo Nome di Maria al Foro Traiano" url_b="http://static.flickr.com/4007/4291967145_59d5a5b1ed_b.jpg" username="CyberMacs" views="47" />
<photo  date_taken="2010-01-02 11:57:45" description="" id="4291941779" latitude="41.896239" license="1" longitude="12.484502" nbComments="0" rank="25" tags="church religion christian infocus highquality italy roma rome romancatholic catholic nationalmonumentofvictoremmanuelii monument statue monumentonazionaleavittorioemanueleii altaredellapatria altarofthefatherland ilvittoriano monumenttohonour santissimonomedimariaalforotraiano churchofthemostholynameofmaryatthetrajanforum churchofthemostholynameofmary santissimonomedimariaalforotraianolatinssnominisma trajanscolumn colonnatraiana santamariadiloreto" title="Foro Traiano" url_b="http://static.flickr.com/4005/4291941779_0054b6b3a3_b.jpg" username="CyberMacs" views="71" />
<photo  date_taken="2010-01-02 11:58:11" description="" id="4291945971" latitude="41.896239" license="1" longitude="12.484502" nbComments="0" rank="26" tags="church religion christian infocus highquality italy roma rome romancatholic catholic santissimonomedimariaalforotraiano churchofthemostholynameofmaryatthetrajanforum churchofthemostholynameofmary santissimonomedimariaalforotraianolatinssnominisma trajanscolumn colonnatraiana" title="Santissimo Nome di Maria al Foro Traiano" url_b="http://static.flickr.com/4052/4291945971_7fab4cc448_b.jpg" username="CyberMacs" views="58" />
<photo  date_taken="2002-01-12 10:00:19" description="" id="2758311386" latitude="41.894367" license="1" longitude="12.485425" nbComments="0" rank="27" tags="ruins architecture film filmphoto italy lazio rome trajanscolumn trajansforum italia roma" title="Trajan's column and a church" url_b="http://static.flickr.com/3149/2758311386_67169b580f_b.jpg" username="c_nilsen" views="7" />
<photo  date_taken="2008-07-10 18:21:06" description="We ended up wandering back to Trajan's Forum, aiming for a Metro line back to the hotel, carrying some supplies picked up from an accidentally discovered eSpar. Meant I could get some more shots of his column, which I was pleased about. Meant we were getting more and more worn out, which we weren't." id="2746802833" latitude="41.896036" license="1" longitude="12.484128" nbComments="0" rank="28" tags="rome italy trajanscolumn trajansforum" title="Trajan's Column" url_b="http://static.flickr.com/3120/2746802833_560cdda90c_b.jpg" username="Mushkush" views="90" />
<photo  date_taken="2006-06-21 14:14:54" description="Family holiday in Rome, Summer 2006. This is the Victor Emmanuel II Monument. &lt;a href=&quot;http://en.wikipedia.org/wiki/Victor_Emmanuel_II_monument&quot; rel=&quot;nofollow&quot;&gt;en.wikipedia.org/wiki/Victor_Emmanuel_II_monument&lt;/a&gt; View from the VEII monument of other buildings and a column with statue. Building with a dome. View includes: Church of the Most Holy Name of Mary and Trajan's Column. &lt;a href=&quot;http://en.wikipedia.org/wiki/Santissimo_Nome_di_Maria_al_Foro_Traiano&quot; rel=&quot;nofollow&quot;&gt;Santissimo Nome di Maria al Foro Traiano&lt;/a&gt; The Church of the Most Holy Name of Mary at the Trajan Forum (Italian: Santissimo Nome di Maria al Foro Traiano, Latin: Ss. Nominis Mariae ad forum Traiani) is a Roman Catholic church in Rome. This church should not be confused with the church Santissimo Nome di Maria in Via Latina in south-east Rome. The feast of the Holy Name of Mary was instituted by Pope Innocent XI after the victory of the Austrian-Polish armies under the command of John III Sobieski over the Turks at the Battle of Vienna in 1683. Abbot Giuseppe Bianchi instituted devotion to the most holy name of Mary in 1685 at Santo Stefano del Cacco, and soon afterwards established the Congregation of the Most Holy Name of Mary, which was formally approved in 1688. &lt;a href=&quot;http://en.wikipedia.org/wiki/Trajan's_Column&quot; rel=&quot;nofollow&quot;&gt;Trajan's Column&lt;/a&gt; Trajan's Column (Italian: Colonna Traiana) is a Roman triumphal column in Rome, Italy, which commemorates Roman emperor Trajan's victory in the Dacian Wars. It was probably constructed under the supervision of the architect Apollodorus of Damascus at the order of the Roman Senate. It is located in Trajan's Forum, built near the Quirinal Hill, north of the Roman Forum. Completed in 113 CE, the freestanding column is most famous for its spiral bas relief, that artistically describes the epic wars between the Romans and Dacians (101–102 and 105–106). Its design has inspired numerous victory columns, both ancient and modern. The structure is about 30 metres (98 ft) in height, 35 metres (125 ft) including its large pedestal. The shaft is made from a series of 20 colossal Carrara marble drums, each weighing about 32 tons, with a diameter of 3.7 metres (11 ft). The 190-metre (625 ft) frieze winds around the shaft 23 times. Inside the shaft, a spiral staircase of 185 stairs provides access to a viewing platform at the top. The capital block of Trajan's Column weighs 53.3 tons, which had to be lifted to a height of c. 34 m. Ancient coins indicate preliminary plans to top the column with a statue of a bird, probably an eagle, but after construction a statue of Trajan was put in place; this statue disappeared in the Middle Ages. On December 4, 1587, the top was crowned by Pope Sixtus V with a bronze figure of St. Peter, which remains to this day." id="6337812999" latitude="41.895768" license="4" longitude="12.483912" nbComments="6" rank="29" tags="rome italy lazio latium italia roma victoremmanueliimonument victoremmanuelii monumentonazionaleavittorioemanueleii nationalmonumentofvictoremmanuelii statue column dome churchofthemostholynameofmary trajanscolumn santissimonomedimariaalforotraiano trajanforum romancatholicchurch popeinnocentxi romantriumphalcolumn romanemperor trajan dacianwars apollodorusofdamascus romansenate romanforum quirinalhill popesixtusv stpeter bronzefigure arethesebuildings" title="View from the Victor Emmanuel II Monument - Church of the Most Holy Name of Mary and Trajan's Column" url_b="http://static.flickr.com/6060/6337812999_ebee3f9bc0_b.jpg" username="ell brown" views="241" />
<photo  date_taken="2011-08-09 17:00:20" description="" id="6054280502" latitude="41.895553" license="1" longitude="12.483762" nbComments="0" rank="30" tags="rome roma trajanscolumn colonnatraiana triumphalcolumn trajan trajansforum marble frieze" title="rome - trajan's column" url_b="http://static.flickr.com/6190/6054280502_44411451e2_b.jpg" username="drencrome" views="3" />
<photo  date_taken="2010-01-02 11:53:10" description="" id="4291928729" latitude="41.895584" license="1" longitude="12.483451" nbComments="0" rank="31" tags="church religion christian infocus highquality italy roma rome romancatholic catholic santissimonomedimariaalforotraiano churchofthemostholynameofmaryatthetrajanforum churchofthemostholynameofmary santissimonomedimariaalforotraianolatinssnominisma trajanscolumn colonnatraiana santamariadiloreto" title="Santissimo Nome di Maria al Foro Traiano" url_b="http://static.flickr.com/4063/4291928729_28cc8f3201_b.jpg" username="CyberMacs" views="59" />
<photo  date_taken="2009-01-14 12:41:55" description="This is a model of the Forum of Augustus. The model is in the museum at Trajan's Markets. &lt;a href=&quot;http://en.wikipedia.org/wiki/Forum_of_Augustus&quot;&gt;en.wikipedia.org/wiki/Forum_of_Augustus&lt;/a&gt;" id="3212594318" latitude="41.896036" license="5" longitude="12.487083" nbComments="0" rank="32" tags="rome roma italy italia museum model forum forumofaugustus columns corinthian caryatid roman architecture" title="Forum" url_b="http://static.flickr.com/3366/3212594318_3ccded4692_b.jpg" username="Hello, I am Bruce" views="497" />
<photo  date_taken="2009-05-11 20:05:36" description="&lt;a href=&quot;http://www.flickr.com/photos/ghazzog/sets/72157606017435885/&quot;&gt;JSOVT(MB)&lt;/a&gt;, the Italian edition. These are the stairs up to the &lt;em&gt;Palazzo Senatorio&lt;/em&gt; on the &lt;em&gt;Piazza del Campidoglio&lt;/em&gt;, where we rested for a few minutes to figure out where to go next &amp;ndash; or was it how to get back to the hotel? Probably the latter, because on this day, we had already seen the Palatin, the Colosseum, Forum Romanum, Trajan's Column, and had been up on the Monumento nazionale a Vittorio Emanuele II, so we were pretty well worn out..." id="3523020610" latitude="41.893276" license="5" longitude="12.483451" nbComments="0" rank="33" tags="rome roma rom italia italy italien palazzosenatorio piazzadelcompidoglio capitol kapitol capitolinehill campidoglio jsovtmb julia stairs treppen maps karten" title="JSOVT(MB): stairs on the Capitoline Hill in Rome" url_b="http://static.flickr.com/3344/3523020610_70806c5c13_b.jpg" username="Yaisog Bonegnasher" views="268" />
<photo  date_taken="2010-12-25 13:25:00" description="Photographed in the centre of Rome at Trajan's Forum" id="5349827034" latitude="41.895201" license="1" longitude="12.485312" nbComments="0" rank="34" tags="rome taxonomy:family=laridae taxonomy:genus=larus taxonomy:binomial=larusmichahellis larusmichahellis yellowleggedgull taxonomy:common=yellowleggedgull taxonomy:common=geelpootmeeuw geelpootmeeuw birds vogels meeuw gull" title="Yellow Legged Gulls in Rome" url_b="http://static.flickr.com/5169/5349827034_5ebc4fdd37_b.jpg" username="hans zwitzer" views="33" />
<photo  date_taken="2007-09-16 09:31:58" description="" id="2383317709" latitude="41.895776" license="1" longitude="12.48476" nbComments="0" rank="35" tags="2007 italy rome trajansforum" title="P1020403" url_b="http://static.flickr.com/2259/2383317709_81ce63b9e0_b.jpg" username="airminded" views="8" />
<photo  date_taken="2007-09-16 09:52:35" description="" id="2384195274" latitude="41.895776" license="1" longitude="12.48476" nbComments="0" rank="36" tags="2007 italy rome trajansforum" title="P1020417" url_b="http://static.flickr.com/3159/2384195274_b526e0f960_b.jpg" username="airminded" views="13" />
<photo  date_taken="2007-09-16 09:30:24" description="" id="2384146756" latitude="41.895776" license="1" longitude="12.48476" nbComments="0" rank="37" tags="2007 italy rome trajansforum" title="P1020401" url_b="http://static.flickr.com/3110/2384146756_0f7f0a6e43_b.jpg" username="airminded" views="10" />
<photo  date_taken="2007-09-16 09:30:37" description="" id="2384147878" latitude="41.895776" license="1" longitude="12.48476" nbComments="0" rank="38" tags="2007 italy rome trajansforum" title="P1020402" url_b="http://static.flickr.com/3188/2384147878_1870814fcf_b.jpg" username="airminded" views="3" />
<photo  date_taken="2007-09-16 09:30:03" description="" id="2384145708" latitude="41.895776" license="1" longitude="12.48476" nbComments="0" rank="39" tags="2007 italy rome trajansforum" title="P1020400" url_b="http://static.flickr.com/2225/2384145708_2a625e4e6d_b.jpg" username="airminded" views="1" />
<photo  date_taken="2007-09-16 09:49:18" description="" id="2384193070" latitude="41.895776" license="1" longitude="12.48476" nbComments="0" rank="40" tags="2007 italy rome trajansforum" title="P1020415" url_b="http://static.flickr.com/3020/2384193070_6bee57cf0d_b.jpg" username="airminded" views="1" />
<photo  date_taken="2007-09-16 09:53:57" description="" id="2383366803" latitude="41.895776" license="1" longitude="12.48476" nbComments="0" rank="41" tags="2007 italy rome trajansforum" title="P1020420" url_b="http://static.flickr.com/3053/2383366803_299b059313_b.jpg" username="airminded" views="1" />
<photo  date_taken="2007-09-16 09:34:21" description="" id="2383319831" latitude="41.895776" license="1" longitude="12.48476" nbComments="0" rank="42" tags="2007 italy rome trajansforum" title="P1020405" url_b="http://static.flickr.com/2344/2383319831_031d8ebff6_b.jpg" username="airminded" views="8" />
<photo  date_taken="2007-09-16 09:38:30" description="" id="2384153664" latitude="41.895776" license="1" longitude="12.48476" nbComments="0" rank="43" tags="2007 italy rome trajansforum" title="P1020408" url_b="http://static.flickr.com/2227/2384153664_0b12536481_b.jpg" username="airminded" views="3" />
<photo  date_taken="2007-09-16 10:29:35" description="" id="2383357751" latitude="41.895776" license="1" longitude="12.48476" nbComments="0" rank="44" tags="2007 italy rome trajansforum" title="P1020442" url_b="http://static.flickr.com/2040/2383357751_f190d2c049_b.jpg" username="airminded" views="5" />
<photo  date_taken="2007-09-16 09:49:28" description="" id="2383363477" latitude="41.895776" license="1" longitude="12.48476" nbComments="0" rank="45" tags="2007 italy rome trajansforum" title="P1020416" url_b="http://static.flickr.com/3240/2383363477_906661cf13_b.jpg" username="airminded" views="6" />
<photo  date_taken="2007-09-16 09:20:56" description="" id="2384139820" latitude="41.895776" license="1" longitude="12.48476" nbComments="0" rank="46" tags="2007 italy rome trajansforum" title="P1020393" url_b="http://static.flickr.com/2375/2384139820_de6c1b0bfe_b.jpg" username="airminded" views="2" />
<photo  date_taken="2007-09-16 09:40:41" description="" id="2384189440" latitude="41.895776" license="1" longitude="12.48476" nbComments="0" rank="47" tags="2007 italy rome trajansforum" title="P1020410" url_b="http://static.flickr.com/2231/2384189440_5dd66fdbf7_b.jpg" username="airminded" views="5" />
<photo  date_taken="2007-09-16 09:18:48" description="" id="2383307461" latitude="41.895776" license="1" longitude="12.48476" nbComments="0" rank="48" tags="2007 italy rome trajansforum" title="P1020392" url_b="http://static.flickr.com/2228/2383307461_5bcb38287b_b.jpg" username="airminded" views="3" />
<photo  date_taken="2007-09-16 09:40:25" description="" id="2384154514" latitude="41.895776" license="1" longitude="12.48476" nbComments="0" rank="49" tags="2007 italy rome trajansforum" title="P1020409" url_b="http://static.flickr.com/2105/2384154514_c361a4f8f1_b.jpg" username="airminded" views="4" />
<photo  date_taken="2007-09-16 09:33:15" description="" id="2384149864" latitude="41.895776" license="1" longitude="12.48476" nbComments="0" rank="50" tags="2007 italy rome trajansforum" title="P1020404" url_b="http://static.flickr.com/3020/2384149864_ab3a3216dd_b.jpg" username="airminded" views="16" />
<photo  date_taken="2007-09-16 09:43:43" description="" id="2384191138" latitude="41.895776" license="1" longitude="12.48476" nbComments="0" rank="51" tags="2007 italy rome trajansforum" title="P1020413" url_b="http://static.flickr.com/2032/2384191138_193a4bc256_b.jpg" username="airminded" views="1" />
<photo  date_taken="2007-09-16 09:36:02" description="" id="2384151820" latitude="41.895776" license="1" longitude="12.48476" nbComments="0" rank="52" tags="2007 italy rome trajansforum" title="P1020406" url_b="http://static.flickr.com/3124/2384151820_636bed1c98_b.jpg" username="airminded" views="13" />
<photo  date_taken="2007-09-16 09:43:33" description="" id="2384190418" latitude="41.895776" license="1" longitude="12.48476" nbComments="0" rank="53" tags="2007 italy rome trajansforum" title="P1020412" url_b="http://static.flickr.com/2150/2384190418_bd678de402_b.jpg" username="airminded" views="5" />
<photo  date_taken="2007-09-16 09:53:37" description="" id="2383366081" latitude="41.895776" license="1" longitude="12.48476" nbComments="0" rank="54" tags="2007 italy rome trajansforum" title="P1020419" url_b="http://static.flickr.com/3067/2383366081_bab1ff9108_b.jpg" username="airminded" views="6" />
<photo  date_taken="2007-09-16 09:40:41" description="" id="2383341827" latitude="41.895776" license="1" longitude="12.48476" nbComments="0" rank="55" tags="2007 italy rome trajansforum" title="P1020410" url_b="http://static.flickr.com/2161/2383341827_070eab042e_b.jpg" username="airminded" views="5" />
<photo  date_taken="2007-09-16 09:36:26" description="" id="2384152784" latitude="41.895776" license="1" longitude="12.48476" nbComments="0" rank="56" tags="2007 italy rome trajansforum" title="P1020407" url_b="http://static.flickr.com/3227/2384152784_f358a0de01_b.jpg" username="airminded" views="11" />
<photo  date_taken="2007-09-16 09:25:51" description="" id="2383313523" latitude="41.895776" license="1" longitude="12.48476" nbComments="0" rank="57" tags="2007 italy rome trajansforum" title="P1020399" url_b="http://static.flickr.com/3099/2383313523_f396770953_b.jpg" username="airminded" views="12" />
<photo  date_taken="2007-09-16 09:52:42" description="" id="2383365463" latitude="41.895776" license="1" longitude="12.48476" nbComments="0" rank="58" tags="2007 italy rome trajansforum" title="P1020418" url_b="http://static.flickr.com/3183/2383365463_a77911ccd8_b.jpg" username="airminded" views="9" />
<photo  date_taken="2009-03-12 18:36:23" description="&lt;a href=&quot;http://en.wikipedia.org/wiki/Forum_of_Trajan&quot;&gt;en.wikipedia.org/wiki/Forum_of_Trajan&lt;/a&gt; Strobist info: Long exposure capture. The colum was &amp;quot;strobed&amp;quot; with SB800 off-camera in RPT mode, triggered manually around the colum while the shutter was open. Settings of the RPT not accurate as the batteries were quite flat" id="3352618101" latitude="41.895441" license="1" longitude="12.485411" nbComments="3" rank="59" tags="roma rome italy italia sb800 strobist d60 settimana112009romamor" title="Trajan's Forum" url_b="http://static.flickr.com/1392/3352618101_e2ffcd15d9_b.jpg" username="formalfallacy @ Dublin (Victor)" views="538" />
<photo  date_taken="2012-07-31 19:14:28" description="Trajan's Forum, Rome, Italy" id="8322443512" latitude="41.894536" license="5" longitude="12.484908" nbComments="0" rank="60" tags="rome lazio italy" title="" url_b="http://static.flickr.com/8080/8322443512_da091eda90_b.jpg" username="Bo&amp;Ko" views="9" />
<photo  date_taken="2009-04-12 10:10:26" description="" id="3484807129" latitude="41.894543" license="1" longitude="12.484759" nbComments="0" rank="61" tags="italy rome" title="Trajan's Forum" url_b="http://static.flickr.com/3388/3484807129_7e0da4a5fe_b.jpg" username="SolGrundy" views="6" />
<photo  date_taken="2009-04-12 10:12:19" description="" id="3484807479" latitude="41.894543" license="1" longitude="12.484759" nbComments="0" rank="62" tags="italy rome" title="Trajan's Forum" url_b="http://static.flickr.com/3347/3484807479_e8cfb25142_b.jpg" username="SolGrundy" views="7" />
<photo  date_taken="2010-10-07 23:23:50" description="" id="5096489865" latitude="41.894538" license="3" longitude="12.484765" nbComments="1" rank="63" tags="carlight night rome trajansforum viadeiforiimperiali" title="Forum Traiani" url_b="http://static.flickr.com/4148/5096489865_c2b3174acc_b.jpg" username="Bob van Hesse" views="87" />
<photo  date_taken="2011-10-28 14:30:45" description="We rested for awhile in the little park next to Trajan's Forum, across the Via dei Fiori Imperiali from the Imperial Forum." id="6356508167" latitude="41.895489" license="1" longitude="12.48403" nbComments="0" rank="64" tags="rome romeitaly trajansforum" title="View from Trajan's Forum I" url_b="http://static.flickr.com/6055/6356508167_abdc6c424e_b.jpg" username="jnshaumeyer" views="15" />
<photo  date_taken="2011-10-28 14:31:09" description="More pictures of umbrella pines." id="6356508651" latitude="41.895489" license="1" longitude="12.48403" nbComments="0" rank="65" tags="rome romeitaly" title="View from Trajan's Forum III" url_b="http://static.flickr.com/6224/6356508651_b534f37259_b.jpg" username="jnshaumeyer" views="12" />
<photo  date_taken="2011-10-28 14:32:26" description="" id="6356509943" latitude="41.895489" license="1" longitude="12.48403" nbComments="0" rank="66" tags="rome romeitaly" title="View from Trajan's Forum VI" url_b="http://static.flickr.com/6043/6356509943_f1583d6705_b.jpg" username="jnshaumeyer" views="14" />
<photo  date_taken="2011-10-28 14:31:35" description="" id="6356509131" latitude="41.895489" license="1" longitude="12.48403" nbComments="0" rank="67" tags="rome romeitaly" title="View from Trajan's Forum V" url_b="http://static.flickr.com/6240/6356509131_05138dd3b7_b.jpg" username="jnshaumeyer" views="15" />
<photo  date_taken="2011-10-28 14:31:14" description="" id="6356508911" latitude="41.895489" license="1" longitude="12.48403" nbComments="0" rank="68" tags="rome romeitaly" title="View from Trajan's Forum IV" url_b="http://static.flickr.com/6211/6356508911_5a08022b70_b.jpg" username="jnshaumeyer" views="11" />
<photo  date_taken="2010-05-20 10:54:37" description="Laura took this photo." id="4927440857" latitude="41.896032" license="1" longitude="12.484363" nbComments="0" rank="69" tags="rome roma lazio italy italia ruins phototakenbyothers trajansforum digital digitalphoto" title="Trajan's forum1" url_b="http://static.flickr.com/4141/4927440857_52c1c7db0b_b.jpg" username="c_nilsen" views="7" />
<photo  date_taken="2002-01-12 10:00:14" description="" id="2758309974" latitude="41.896032" license="1" longitude="12.484363" nbComments="0" rank="70" tags="ruins architecture film filmphoto italy lazio rome trajansforum italia roma" title="Trajan's Forum" url_b="http://static.flickr.com/3221/2758309974_ccd327f38e_b.jpg" username="c_nilsen" views="18" />
<photo  date_taken="2010-05-20 11:09:06" description="Laura took this photo." id="4928038708" latitude="41.896032" license="1" longitude="12.484363" nbComments="0" rank="71" tags="rome roma lazio italy italia ruins phototakenbyothers trajansforum digital digitalphoto" title="Trajan's forum" url_b="http://static.flickr.com/4139/4928038708_2724ddcb7e_b.jpg" username="c_nilsen" views="9" />
<photo  date_taken="2010-05-20 10:55:01" description="Laura took this photo." id="4927441165" latitude="41.896032" license="1" longitude="12.484363" nbComments="0" rank="72" tags="rome roma lazio italy italia ruins phototakenbyothers trajansforum digital digitalphoto" title="Trajan's forum" url_b="http://static.flickr.com/4135/4927441165_06353794e2_b.jpg" username="c_nilsen" views="5" />
<photo  date_taken="2010-05-20 10:58:27" description="Laura took this photo." id="4927441755" latitude="41.896032" license="1" longitude="12.484363" nbComments="0" rank="73" tags="rome roma lazio italy italia ruins phototakenbyothers trajansforum digital digitalphoto" title="Trajan's forum" url_b="http://static.flickr.com/4118/4927441755_1390e1cfff_b.jpg" username="c_nilsen" views="14" />
<photo  date_taken="2005-05-16 05:52:14" description="Statue of Gaius Julius Caesar looking across the via dei Fori Imperiali at his great nephew Gaius Octavianus who later became Gaius Julius Caesar. The Forum of Caesar across from the Forum of Augustus. Trajan's market in the background." id="4694160509" latitude="41.894347" license="1" longitude="12.485007" nbComments="0" rank="74" tags="italy rome trips trajansmarket imperialforum forum caesar" title="Caesar to Caesar" url_b="http://static.flickr.com/4058/4694160509_9a6418a21c_b.jpg" username="Badger416" views="49" />
<photo  date_taken="2001-07-05 04:53:06" description="&lt;a href=&quot;http://loc.alize.us/#/flickr:3439413383&quot;&gt;See where this picture was taken.&lt;/a&gt; &lt;a href=&quot;http://www.flickr.com/groups/geotagging/discuss/72157594165549916/&quot;&gt;[?]&lt;/a&gt;" id="3439413383" latitude="41.895511" license="1" longitude="12.485839" nbComments="0" rank="75" tags="trajansforum geo:lat=41895511 geo:lon=12485839 geotagged italy" title="Trajan's Markets" url_b="http://static.flickr.com/3548/3439413383_7bda858f08_b.jpg" username="Amphipolis" views="12" />
<photo  date_taken="2009-04-15 00:17:30" description="" id="3495942042" latitude="41.895908" license="1" longitude="12.484089" nbComments="0" rank="76" tags="colosseum forum italy rome" title="Trajan's Market" url_b="http://static.flickr.com/3562/3495942042_03066e1207_b.jpg" username="SolGrundy" views="4" />
<photo  date_taken="2001-07-05 04:40:29" description="&lt;a href=&quot;http://loc.alize.us/#/flickr:3440224432&quot;&gt;See where this picture was taken.&lt;/a&gt; &lt;a href=&quot;http://www.flickr.com/groups/geotagging/discuss/72157594165549916/&quot;&gt;[?]&lt;/a&gt;" id="3440224432" latitude="41.895734" license="1" longitude="12.485863" nbComments="0" rank="77" tags="trajansforum geotagged geo:lat=41895734 geo:lon=12485863 italy" title="Trajan's Markets" url_b="http://static.flickr.com/3366/3440224432_23dca29da2_b.jpg" username="Amphipolis" views="46" />
<photo  date_taken="2008-03-09 15:39:46" description="" id="2366341479" latitude="41.8946" license="1" longitude="12.483966" nbComments="0" rank="78" tags="italy rome autostitch" title="View of Trajan's Forum from Victor Emmanuel Monument" url_b="http://static.flickr.com/2269/2366341479_98cf47da17_b.jpg" username="Kwong Yee Cheng" views="21" />
<photo  date_taken="2008-03-09 15:37:54" description="" id="2367180860" latitude="41.8946" license="1" longitude="12.483966" nbComments="0" rank="79" tags="italy rome autostitch" title="View of Trajan's Forum from Victor Emmanuel Monument" url_b="http://static.flickr.com/2101/2367180860_c68eee3e3c_b.jpg" username="Kwong Yee Cheng" views="14" />
<photo  date_taken="2001-07-05 04:38:38" description="&lt;a href=&quot;http://loc.alize.us/#/flickr:3439413337&quot;&gt;See where this picture was taken.&lt;/a&gt; &lt;a href=&quot;http://www.flickr.com/groups/geotagging/discuss/72157594165549916/&quot;&gt;[?]&lt;/a&gt;" id="3439413337" latitude="41.895715" license="1" longitude="12.485919" nbComments="0" rank="80" tags="trajansforum geo:lat=41895715 geo:lon=12485919 geotagged italy" title="Forum Apse" url_b="http://static.flickr.com/3331/3439413337_9080a2fec6_b.jpg" username="Amphipolis" views="11" />
<photo  date_taken="2007-08-28 21:51:17" description="&lt;a href=&quot;http://en.wikipedia.org/wiki/Trajan's_Forum&quot;&gt; Foro Traiano&lt;/a&gt;" id="1356977978" latitude="41.8956" license="3" longitude="12.486047" nbComments="4" rank="81" tags="rome roma night italy italia forotraiano" title="Trajan's Forum" url_b="http://static.flickr.com/1296/1356977978_7c62db7360_b.jpg" username="milky.way" views="60" />
<photo  date_taken="2007-08-28 21:54:58" description="&lt;a href=&quot;http://en.wikipedia.org/wiki/Trajan's_Forum&quot;&gt; Foro Traiano&lt;/a&gt;" id="1356978080" latitude="41.8956" license="3" longitude="12.486047" nbComments="0" rank="82" tags="rome roma night italy italia" title="&quot;burning&quot;... in the night" url_b="http://static.flickr.com/1423/1356978080_eb2d8af80a_b.jpg" username="milky.way" views="51" />
<photo  date_taken="2011-10-28 15:17:30" description="" id="6356511489" latitude="41.894179" license="1" longitude="12.485618" nbComments="0" rank="83" tags="rome romeitaly" title="View from Trajan's Forum IX" url_b="http://static.flickr.com/6108/6356511489_960258ef44_b.jpg" username="jnshaumeyer" views="12" />
<photo  date_taken="2002-01-12 10:00:20" description="You can see other ruins in the background. Here's what the &lt;a href=&quot;http://www.flickr.com/photos/c_nilsen/4928039008&quot;&gt;statue&lt;/a&gt; looks like." id="2758311952" latitude="41.894219" license="1" longitude="12.485682" nbComments="0" rank="84" tags="ruins architecture art sculpture graffiti film filmphoto italy lazio rome trajansforum italia roma" title="Graffiti on Caeser's statue" url_b="http://static.flickr.com/3287/2758311952_c795acaa66_b.jpg" username="c_nilsen" views="35" />
<photo  date_taken="2007-03-31 22:22:03" description="" id="3769755048" latitude="41.895656" license="3" longitude="12.486144" nbComments="0" rank="85" tags="trajan trajanus rome roma italy italia" title="Trajan's Forum from Trajans Market" url_b="http://static.flickr.com/3524/3769755048_46c7ce0b06_b.jpg" username="Gauis Caecilius" views="107" />
<photo  date_taken="2008-10-26 15:38:21" description="We emerged from the dense city centre near Trajan's Forum. Much of the site was blocked, apparently for archeological work." id="3015804380" latitude="41.894758" license="1" longitude="12.486262" nbComments="0" rank="86" tags="rome italy" title="Trajan's General Vicinity." url_b="http://static.flickr.com/3272/3015804380_383a6d7811_b.jpg" username="wfbakker2" views="9" />
<photo  date_taken="2010-04-24 17:56:11" description="Trajan's Forum Viewed from from the Monument to Vittorio Emanuele II &lt;i&gt;Foro Traiano &lt;/i&gt;" id="4599636569" latitude="41.894166" license="3" longitude="12.483888" nbComments="1" rank="87" tags="trajansforum trajan forotraiano ruins roman ancientrome rome italy roma italia travel 1755 40d canon canoneos40d canonefs1755mmf28isusm tomfs geotag geotagged geodata amodagl3080gpsdatalogger gpicsync" title="The Trajan's Forum in Rome, Italy" url_b="http://static.flickr.com/4016/4599636569_e875825674_b.jpg" username="tomfs" views="284" />
<photo  date_taken="2002-01-12 10:00:25" description="" id="2757479447" latitude="41.893875" license="1" longitude="12.486004" nbComments="0" rank="88" tags="ruins architecture film filmphoto italy lazio rome trajansforum italia roma" title="More ruins of Trajan's Forum" url_b="http://static.flickr.com/3251/2757479447_e1bbd0d091_b.jpg" username="c_nilsen" views="18" />
<photo  date_taken="2002-01-12 10:00:21" description="I told you I was dazzled by these ruins." id="2757478263" latitude="41.893875" license="1" longitude="12.486004" nbComments="0" rank="89" tags="ruins architecture film filmphoto italy lazio rome trajansforum italia roma" title="More ruins of Trajan's Forum" url_b="http://static.flickr.com/3233/2757478263_0fcc93dd26_b.jpg" username="c_nilsen" views="14" />
<photo  date_taken="2002-01-12 10:00:24" description="The dome on the left is a church." id="2757479215" latitude="41.893875" license="1" longitude="12.486004" nbComments="0" rank="90" tags="ruins architecture film filmphoto italy lazio rome trajansforum church dome italia roma" title="Trajan's Forum" url_b="http://static.flickr.com/3267/2757479215_b99d5ffd88_b.jpg" username="c_nilsen" views="7" />
<photo  date_taken="2010-05-20 11:13:30" description="Laura took this photo." id="4928039426" latitude="41.893875" license="1" longitude="12.486004" nbComments="0" rank="91" tags="rome roma lazio italy italia ruins phototakenbyothers trajansforum digital digitalphoto" title="Ruins in Trajan's forum" url_b="http://static.flickr.com/4135/4928039426_06a26f9f42_b.jpg" username="c_nilsen" views="10" />
<photo  date_taken="2002-01-12 10:00:26" description="I was so wowed by the ruins and history of the area that I just kept snapping pictures. To someone who'd lived in America her whole life, to see something from 2,000 years ago was mind-blowing." id="2757479685" latitude="41.893875" license="1" longitude="12.486004" nbComments="0" rank="92" tags="ruins architecture film filmphoto italy lazio rome trajansforum italia roma" title="Trajan's Forum" url_b="http://static.flickr.com/3086/2757479685_15ae249a3e_b.jpg" username="c_nilsen" views="22" />
<photo  date_taken="2002-01-12 10:00:28" description="This was the first place we went to when we came to Rome (after going to our hotel). It was around 9 A.M., and we'd just flown into Rome. I hadn't slept on the 12 hour flight at all, and my ears hadn't totally popped since the plane wasn't properly depressurized. Needless to say, the fact that I was able to take decent photos and remember anything is pretty impressive." id="2758314200" latitude="41.89356" license="1" longitude="12.486584" nbComments="0" rank="93" tags="ruins architecture film filmphoto italy lazio rome trajansforum italia roma" title="Trajan's Forum" url_b="http://static.flickr.com/3275/2758314200_eefb5a6e97_b.jpg" username="c_nilsen" views="8" />
</photos>
