<?xml version="1.0" encoding="UTF-8" standalone="no"?>
<photos monument="Uxmal">

<photo  date_taken="2011-08-19 11:29:18" description="" id="6060339467" latitude="20.359319" license="4" longitude="-89.771271" nbComments="0" rank="1" tags="centralamerica maya merida mexico places thegreatpyramid uxmal yucatan exif:iso_speed=80 camera:make=canon exif:aperture=ƒ40 geostate geocity exif:focal_length=15673mm geocountrys geo:lat=203593192 geo:lon=89771271 exif:lens=61305mm exif:model=canonpowershotg12 camera:model=canonpowershotg12 exif:make=canon" title="Uxmal-24" url_b="http://static.flickr.com/6203/6060339467_0654d0faae_b.jpg" username="GOC53" views="12" />
<photo  date_taken="2011-08-19 11:26:49" description="" id="6060889028" latitude="20.359594" license="4" longitude="-89.771164" nbComments="0" rank="2" tags="centralamerica maya merida mexico places thehouseoftheturtles uxmal yucatan exif:iso_speed=80 camera:make=canon geocity geostate geocountrys exif:focal_length=305mm exif:aperture=ƒ56 exif:lens=61305mm geo:lon=89771164 geo:lat=20359594 exif:model=canonpowershotg12 camera:model=canonpowershotg12 exif:make=canon" title="Uxmal-23" url_b="http://static.flickr.com/6205/6060889028_b5d2b878de_b.jpg" username="GOC53" views="7" />
<photo  date_taken="2011-08-19 11:30:01" description="" id="6060894390" latitude="20.359396" license="4" longitude="-89.770997" nbComments="0" rank="3" tags="centralamerica maya merida mexico places pyramidofthesoothsayer uxmal yucatan exif:iso_speed=80 camera:make=canon geocity geo:lat=20359396800002 geocountrys geostate exif:aperture=ƒ56 camera:model=canonpowershotg12 exif:lens=61305mm exif:focal_length=21461mm exif:model=canonpowershotg12 geo:lon=89770997799999 exif:make=canon" title="Uxmal-25" url_b="http://static.flickr.com/6090/6060894390_5ea9a7d331_b.jpg" username="GOC53" views="15" />
<photo  date_taken="2010-08-15 20:09:41" description="" id="5080433296" latitude="20.359908" license="5" longitude="-89.770953" nbComments="0" rank="4" tags="merida mexico northamerica america uxmal" title="Uxmal (Juego de Pelota)" url_b="http://static.flickr.com/4012/5080433296_113b8a61f3_b.jpg" username="Olivier Bruchez" views="38" />
<photo  date_taken="2012-12-26 12:24:09" description="" id="8351002401" latitude="20.358294" license="1" longitude="-89.771231" nbComments="0" rank="5" tags="" title="Uxmal" url_b="http://static.flickr.com/8516/8351002401_406f7cdeab_b.jpg" username="StarObs" views="16" />
<photo  date_taken="2001-05-12 00:00:00" description="&lt;a href=&quot;http://www.flickr.com/groups/world/pool/tags/MapMexico/&quot;&gt;Back to Mexico&lt;/a&gt; - &lt;a href=&quot;http://www.flickr.com/groups/world/&quot;&gt;Visit the World&lt;/a&gt;" id="26807841" latitude="20.3586" license="1" longitude="-89.7702" nbComments="0" rank="6" tags="mexico archaeology yucatán mayan northamerica pyramids mesoamerica geo:lat=203586 geo:lon=897702 geotagged 15fav pyramid" title="Uxmal" url_b="http://static.flickr.com/23/26807841_57c195f9a7_b.jpg" username="vfowler" views="252" />
<photo  date_taken="2010-12-29 09:17:22" description="Iguana, Uxmal" id="5315068658" latitude="20.359444" license="1" longitude="-89.771387" nbComments="0" rank="7" tags="" title="Iguana at Uxmal" url_b="http://static.flickr.com/5248/5315068658_70d85f6de3_b.jpg" username="Christian Niles" views="8" />
<photo  date_taken="2010-12-29 09:20:16" description="Great Pyramid, Uxmal" id="5314473267" latitude="20.359444" license="1" longitude="-89.771387" nbComments="0" rank="8" tags="" title="Great Pyramid at Uxmal" url_b="http://static.flickr.com/5205/5314473267_140af403a1_b.jpg" username="Christian Niles" views="30" />
<photo  date_taken="2010-12-29 08:29:18" description="Snake frieze, Uxmal" id="5315065758" latitude="20.359444" license="1" longitude="-89.771387" nbComments="0" rank="9" tags="" title="Uxmal" url_b="http://static.flickr.com/5082/5315065758_43f183b61f_b.jpg" username="Christian Niles" views="14" />
<photo  date_taken="2010-12-29 09:27:41" description="Head within a mask, Uxmal" id="5314473987" latitude="20.359444" license="1" longitude="-89.771387" nbComments="0" rank="10" tags="" title="Uxmal" url_b="http://static.flickr.com/5163/5314473987_1130cbdb10_b.jpg" username="Christian Niles" views="25" />
<photo  date_taken="2010-12-29 08:11:30" description="" id="5314468163" latitude="20.359444" license="1" longitude="-89.771387" nbComments="0" rank="11" tags="" title="Uxmal" url_b="http://static.flickr.com/5005/5314468163_00bd2f04d7_b.jpg" username="Christian Niles" views="7" />
<photo  date_taken="2010-12-29 08:38:41" description="Iguana, Uxmal" id="5314471155" latitude="20.359444" license="1" longitude="-89.771387" nbComments="0" rank="12" tags="" title="Iguana at Uxmal" url_b="http://static.flickr.com/5129/5314471155_3a28938391_b.jpg" username="Christian Niles" views="9" />
<photo  date_taken="2010-12-29 08:02:50" description="Pyramid of the Magician, Uxmal" id="5315062526" latitude="20.359444" license="1" longitude="-89.771387" nbComments="0" rank="13" tags="" title="Pyramid of the Magician, Uxmal" url_b="http://static.flickr.com/5124/5315062526_af2d64ee71_b.jpg" username="Christian Niles" views="12" />
<photo  date_taken="2010-12-29 08:12:37" description="Pyramid of the Magician, Uxmal" id="5314467839" latitude="20.359444" license="1" longitude="-89.771387" nbComments="0" rank="14" tags="" title="Steps on the Pyramid of the Magician" url_b="http://static.flickr.com/5204/5314467839_a48b4731f8_b.jpg" username="Christian Niles" views="16" />
<photo  date_taken="2010-12-29 08:26:30" description="" id="5314469313" latitude="20.359444" license="1" longitude="-89.771387" nbComments="0" rank="15" tags="" title="Uxmal" url_b="http://static.flickr.com/5044/5314469313_810912b4da_b.jpg" username="Christian Niles" views="13" />
<photo  date_taken="2010-12-29 09:25:19" description="Great Pyramid, Uxmal" id="5314473645" latitude="20.359444" license="1" longitude="-89.771387" nbComments="0" rank="16" tags="" title="Nose" url_b="http://static.flickr.com/5130/5314473645_9399c3b09b_b.jpg" username="Christian Niles" views="24" />
<photo  date_taken="2010-12-29 08:26:36" description="Nunnery quadrangle, Uxmal" id="5314469689" latitude="20.359444" license="1" longitude="-89.771387" nbComments="0" rank="17" tags="" title="Uxmal" url_b="http://static.flickr.com/5204/5314469689_c1b46ae02a_b.jpg" username="Christian Niles" views="11" />
<photo  date_taken="2010-12-29 08:58:11" description="Jaguar throne, Uxmal" id="5314472105" latitude="20.359444" license="1" longitude="-89.771387" nbComments="1" rank="18" tags="" title="Jaguar Throne at Uxmal" url_b="http://static.flickr.com/5246/5314472105_96dd39deb7_b.jpg" username="Christian Niles" views="16" />
<photo  date_taken="2010-12-29 08:20:16" description="" id="5314468911" latitude="20.359444" license="1" longitude="-89.771387" nbComments="0" rank="19" tags="" title="Uxmal" url_b="http://static.flickr.com/5122/5314468911_50b9fcb10a_b.jpg" username="Christian Niles" views="11" />
<photo  date_taken="2010-12-29 08:00:47" description="Pyramid of the Magician, Uxmal" id="5315061954" latitude="20.359444" license="1" longitude="-89.771387" nbComments="0" rank="20" tags="" title="Pyramid of the Magician, Uxmal" url_b="http://static.flickr.com/5128/5315061954_308d31b3c0_b.jpg" username="Christian Niles" views="19" />
<photo  date_taken="2010-12-29 08:19:16" description="Pyramid of the Magician, Uxmal" id="5314468543" latitude="20.359444" license="1" longitude="-89.771387" nbComments="0" rank="21" tags="" title="Uxmal" url_b="http://static.flickr.com/5168/5314468543_571c652eb1_b.jpg" username="Christian Niles" views="10" />
<photo  date_taken="2010-08-15 18:49:24" description="" id="5079829223" latitude="20.359452" license="5" longitude="-89.771214" nbComments="0" rank="22" tags="merida mexico northamerica america uxmal" title="Uxmal (Casa de las Tortugas)" url_b="http://static.flickr.com/4052/5079829223_10f286e377_b.jpg" username="Olivier Bruchez" views="417" />
<photo  date_taken="2011-05-05 20:33:01" description="" id="6879103072" latitude="20.359597" license="3" longitude="-89.77122" nbComments="0" rank="23" tags="uxmal yucatán mexique mx" title="DSC_9872.jpg" url_b="http://static.flickr.com/6225/6879103072_0919e926c9_b.jpg" username="bezineb5" views="2" />
<photo  date_taken="2011-08-19 11:26:36" description="" id="6060886410" latitude="20.359576" license="4" longitude="-89.771072" nbComments="0" rank="24" tags="centralamerica maya merida mexico places pyramidofthesoothsayer theballgamecourt uxmal yucatan exif:iso_speed=80 camera:make=canon geocity geostate geocountrys geo:lon=89771072199999 exif:aperture=ƒ50 camera:model=canonpowershotg12 exif:lens=61305mm exif:focal_length=61mm exif:model=canonpowershotg12 geo:lat=20359576600001 exif:make=canon" title="Uxmal-22" url_b="http://static.flickr.com/6206/6060886410_750ba93d40_b.jpg" username="GOC53" views="27" />
<photo  date_taken="2011-08-19 11:26:05" description="" id="6060884140" latitude="20.359546" license="4" longitude="-89.771035" nbComments="0" rank="25" tags="centralamerica maya merida mexico places thehouseoftheturtles uxmal yucatan geo:lat=203595462 exif:iso_speed=80 camera:make=canon geocity geostate exif:aperture=ƒ63 geocountrys geo:lon=897710356 exif:focal_length=12074mm exif:lens=61305mm exif:model=canonpowershotg12 camera:model=canonpowershotg12 exif:make=canon" title="Uxmal-21" url_b="http://static.flickr.com/6193/6060884140_f655df1777_b.jpg" username="GOC53" views="11" />
<photo  date_taken="2011-05-05 21:12:27" description="" id="7025207669" latitude="20.359127" license="3" longitude="-89.771178" nbComments="0" rank="26" tags="uxmal yucatán mexique mx" title="DSC_9895.jpg" url_b="http://static.flickr.com/7066/7025207669_1c74cf21bb_b.jpg" username="bezineb5" views="2" />
<photo  date_taken="2012-12-26 12:13:59" description="" id="8351000827" latitude="20.359238" license="1" longitude="-89.771067" nbComments="0" rank="27" tags="" title="Uxmal" url_b="http://static.flickr.com/8375/8351000827_fe2d1d5b04_b.jpg" username="StarObs" views="13" />
<photo  date_taken="2012-12-26 11:59:11" description="" id="8352061116" latitude="20.359516" license="1" longitude="-89.770981" nbComments="0" rank="28" tags="" title="Uxmal" url_b="http://static.flickr.com/8469/8352061116_183a31221c_b.jpg" username="StarObs" views="13" />
<photo  date_taken="2010-08-15 18:40:30" description="" id="5079827309" latitude="20.359163" license="5" longitude="-89.771045" nbComments="0" rank="29" tags="merida mexico northamerica america uxmal" title="Uxmal (Casa de las Tortugas)" url_b="http://static.flickr.com/4010/5079827309_f6178dbab7_b.jpg" username="Olivier Bruchez" views="82" />
<photo  date_taken="2010-01-25 09:19:38" description="Mayan carvings. Uxmal, Yucatan" id="4494614266" latitude="20.359112" license="1" longitude="-89.77169" nbComments="1" rank="30" tags="carving mayan mexico sculpture snake stone uxmal" title="Follow the snake" url_b="http://static.flickr.com/4008/4494614266_122c6fb8b1_b.jpg" username="Aviruthia" views="161" />
<photo  date_taken="2010-08-15 18:48:42" description="" id="5079828765" latitude="20.359352" license="5" longitude="-89.770942" nbComments="0" rank="31" tags="merida mexico northamerica america uxmal" title="Uxmal" url_b="http://static.flickr.com/4088/5079828765_673707135d_b.jpg" username="Olivier Bruchez" views="54" />
<photo  date_taken="2010-08-15 18:39:45" description="" id="5080420932" latitude="20.359191" license="5" longitude="-89.770987" nbComments="0" rank="32" tags="merida mexico northamerica america uxmal" title="Uxmal (Cuadrángulo de las Monjas)" url_b="http://static.flickr.com/4153/5080420932_a986273504_b.jpg" username="Olivier Bruchez" views="58" />
<photo  date_taken="2010-08-15 18:40:10" description="" id="5079826939" latitude="20.359188" license="5" longitude="-89.770984" nbComments="0" rank="33" tags="merida mexico northamerica america uxmal" title="Uxmal (Pirámide del Adivino)" url_b="http://static.flickr.com/4052/5079826939_a466a6160d_b.jpg" username="Olivier Bruchez" views="42" />
<photo  date_taken="2011-08-19 11:40:33" description="" id="6060902764" latitude="20.359206" license="4" longitude="-89.770973" nbComments="0" rank="34" tags="centralamerica maya merida mexico places thequadrangleofthedoves uxmal yucatan geocity camera:make=canon exif:iso_speed=160 exif:aperture=ƒ45 geo:lat=20359206600001 geostate geocountrys geo:lon=897709736 camera:model=canonpowershotg12 exif:lens=61305mm exif:model=canonpowershotg12 exif:focal_length=305mm exif:make=canon" title="Uxmal-28" url_b="http://static.flickr.com/6200/6060902764_c2c97326ff_b.jpg" username="GOC53" views="13" />
<photo  date_taken="2012-12-26 12:13:14" description="" id="8352065228" latitude="20.359177" license="1" longitude="-89.770939" nbComments="0" rank="35" tags="" title="Uxmal" url_b="http://static.flickr.com/8328/8352065228_22fe4f933e_b.jpg" username="StarObs" views="14" />
<photo  date_taken="2010-08-15 18:39:16" description="" id="5080420452" latitude="20.359163" license="5" longitude="-89.770937" nbComments="0" rank="36" tags="merida mexico northamerica america uxmal" title="Uxmal" url_b="http://static.flickr.com/4017/5080420452_f9519ea7fb_b.jpg" username="Olivier Bruchez" views="33" />
<photo  date_taken="2010-08-15 18:38:51" description="" id="5079825741" latitude="20.359158" license="5" longitude="-89.770923" nbComments="0" rank="37" tags="merida mexico northamerica america uxmal" title="Uxmal (Pirámide del Adivino)" url_b="http://static.flickr.com/4016/5079825741_b8497bab8f_b.jpg" username="Olivier Bruchez" views="30" />
<photo  date_taken="2012-12-26 11:54:40" description="" id="8350995589" latitude="20.359594" license="1" longitude="-89.770837" nbComments="0" rank="38" tags="" title="Uxmal" url_b="http://static.flickr.com/8093/8350995589_e2f6bc78f2_b.jpg" username="StarObs" views="12" />
<photo  date_taken="2010-08-15 18:37:52" description="" id="5079825353" latitude="20.359069" license="5" longitude="-89.770875" nbComments="0" rank="39" tags="merida mexico northamerica america uxmal" title="Uxmal (Palacio del Gobernador)" url_b="http://static.flickr.com/4063/5079825353_efd8f4da36_b.jpg" username="Olivier Bruchez" views="47" />
<photo  date_taken="2010-08-15 18:37:37" description="" id="5080419154" latitude="20.358983" license="5" longitude="-89.770948" nbComments="0" rank="40" tags="merida mexico northamerica america uxmal" title="Uxmal (Palacio del Gobernador)" url_b="http://static.flickr.com/4038/5080419154_164f81622a_b.jpg" username="Olivier Bruchez" views="38" />
<photo  date_taken="2012-12-26 12:12:02" description="" id="8350999843" latitude="20.358908" license="1" longitude="-89.771003" nbComments="0" rank="41" tags="" title="Uxmal" url_b="http://static.flickr.com/8473/8350999843_977e8ea3d0_b.jpg" username="StarObs" views="11" />
<photo  date_taken="2012-12-26 12:12:35" description="" id="8352064912" latitude="20.359008" license="1" longitude="-89.770875" nbComments="0" rank="42" tags="" title="Uxmal" url_b="http://static.flickr.com/8238/8352064912_8485d59ed7_b.jpg" username="StarObs" views="12" />
<photo  date_taken="2011-08-19 11:38:32" description="" id="6060899720" latitude="20.358765" license="4" longitude="-89.771307" nbComments="0" rank="43" tags="centralamerica maya merida mexico places thegovernorspalace uxmal yucatan exif:iso_speed=80 camera:make=canon geo:lon=89771307400001 geostate geocountrys geocity exif:focal_length=89mm camera:model=canonpowershotg12 exif:lens=61305mm exif:aperture=ƒ32 exif:model=canonpowershotg12 geo:lat=203587652 exif:make=canon" title="Uxmal-27" url_b="http://static.flickr.com/6076/6060899720_25c3bc7fcd_b.jpg" username="GOC53" views="7" />
<photo  date_taken="2010-08-15 18:36:30" description="" id="5079824349" latitude="20.358844" license="5" longitude="-89.771048" nbComments="0" rank="44" tags="merida mexico northamerica america uxmal" title="Uxmal (Palacio del Gobernador)" url_b="http://static.flickr.com/4150/5079824349_9d09d9ec22_b.jpg" username="Olivier Bruchez" views="71" />
<photo  date_taken="2012-12-26 11:50:48" description="" id="8350995187" latitude="20.360008" license="1" longitude="-89.770987" nbComments="0" rank="45" tags="" title="Uxmal" url_b="http://static.flickr.com/8229/8350995187_1e03f57958_b.jpg" username="StarObs" views="12" />
<photo  date_taken="2010-08-15 18:35:35" description="" id="5079823761" latitude="20.358752" license="5" longitude="-89.771184" nbComments="0" rank="46" tags="merida mexico northamerica america uxmal" title="Uxmal" url_b="http://static.flickr.com/4144/5079823761_c84b17852c_b.jpg" username="Olivier Bruchez" views="35" />
<photo  date_taken="2011-07-16 11:57:03" description="" id="5971417479" latitude="20.35875" license="1" longitude="-89.771173" nbComments="0" rank="47" tags="uxmal 2011yucatan" title="The Governor's Palace" url_b="http://static.flickr.com/6003/5971417479_d4e7238d15_b.jpg" username="alphaii" views="10" />
<photo  date_taken="2011-07-16 12:01:06" description="" id="5971975392" latitude="20.35875" license="1" longitude="-89.771173" nbComments="0" rank="48" tags="uxmal 2011yucatan" title="Uxmal" url_b="http://static.flickr.com/6027/5971975392_1ca3f81b6e_b.jpg" username="alphaii" views="8" />
<photo  date_taken="2011-07-16 13:08:30" description="" id="5971978774" latitude="20.35875" license="1" longitude="-89.771173" nbComments="0" rank="49" tags="uxmal 2011yucatan" title="Uxmal" url_b="http://static.flickr.com/6025/5971978774_b35aeb6f01_b.jpg" username="alphaii" views="16" />
<photo  date_taken="2011-08-19 11:22:48" description="" id="6060881734" latitude="20.359649" license="4" longitude="-89.770667" nbComments="0" rank="50" tags="centralamerica maya merida mexico places pyramidofthesoothsayer uxmal yucatan geo:lat=20359649200001 exif:iso_speed=80 camera:make=canon exif:aperture=ƒ40 geostate geocountrys exif:focal_length=21461mm geocity geo:lon=897706678 exif:lens=61305mm exif:model=canonpowershotg12 camera:model=canonpowershotg12 exif:make=canon" title="Uxmal-20" url_b="http://static.flickr.com/6196/6060881734_65e6a3df29_b.jpg" username="GOC53" views="16" />
<photo  date_taken="2010-08-15 18:55:02" description="" id="5080424112" latitude="20.358727" license="5" longitude="-89.771706" nbComments="0" rank="51" tags="merida mexico northamerica america uxmal" title="Uxmal (Gran Pirámide)" url_b="http://static.flickr.com/4129/5080424112_163eb5e575_b.jpg" username="Olivier Bruchez" views="51" />
<photo  date_taken="2011-07-16 12:15:53" description="" id="5971419001" latitude="20.35875" license="1" longitude="-89.77178" nbComments="0" rank="52" tags="uxmal 2011yucatan" title="IMG_1902" url_b="http://static.flickr.com/6124/5971419001_f2f149a498_b.jpg" username="alphaii" views="7" />
<photo  date_taken="2012-12-26 11:57:26" description="" id="8350996263" latitude="20.359313" license="1" longitude="-89.770595" nbComments="0" rank="53" tags="" title="Uxmal" url_b="http://static.flickr.com/8512/8350996263_bf0ea025da_b.jpg" username="StarObs" views="11" />
<photo  date_taken="2012-12-26 12:10:28" description="" id="8352064172" latitude="20.358683" license="1" longitude="-89.771081" nbComments="0" rank="54" tags="" title="Uxmal" url_b="http://static.flickr.com/8378/8352064172_d8da7980e8_b.jpg" username="StarObs" views="11" />
<photo  date_taken="2011-08-19 11:55:05" description="" id="6060363815" latitude="20.358802" license="4" longitude="-89.771904" nbComments="0" rank="55" tags="centralamerica maya merida mexico places thegreatpyramid uxmal yucatan geo:lon=89771904 geo:lat=203588022 exif:iso_speed=80 camera:make=canon exif:aperture=ƒ40 geostate exif:focal_length=89mm geocountrys geocity exif:lens=61305mm exif:model=canonpowershotg12 camera:model=canonpowershotg12 exif:make=canon" title="Uxmal-33" url_b="http://static.flickr.com/6083/6060363815_a1e1715b62_b.jpg" username="GOC53" views="7" />
<photo  date_taken="2012-12-26 12:02:26" description="" id="8350996887" latitude="20.359013" license="1" longitude="-89.770642" nbComments="0" rank="56" tags="" title="Uxmal" url_b="http://static.flickr.com/8335/8350996887_33d30a0c11_b.jpg" username="StarObs" views="11" />
<photo  date_taken="2011-07-16 11:51:59" description="" id="5971416951" latitude="20.360249" license="1" longitude="-89.771079" nbComments="0" rank="57" tags="uxmal 2011yucatan" title="ballcourt" url_b="http://static.flickr.com/6123/5971416951_667abd9734_b.jpg" username="alphaii" views="7" />
<photo  date_taken="2011-08-19 11:32:21" description="" id="6060896986" latitude="20.358816" license="4" longitude="-89.770739" nbComments="0" rank="58" tags="centralamerica maya merida mexico places thegovernorspalace uxmal yucatan exif:iso_speed=80 camera:make=canon geocity geo:lat=20358816800001 exif:aperture=ƒ63 geo:lon=89770739400002 geocountrys geostate exif:lens=61305mm exif:focal_length=61mm exif:model=canonpowershotg12 camera:model=canonpowershotg12 exif:make=canon" title="Uxmal-26" url_b="http://static.flickr.com/6206/6060896986_642be321ee_b.jpg" username="GOC53" views="25" />
<photo  date_taken="2010-08-15 18:27:11" description="" id="5080416390" latitude="20.359225" license="5" longitude="-89.770503" nbComments="0" rank="59" tags="merida mexico northamerica america uxmal" title="Uxmal (Palacio del Gobernador)" url_b="http://static.flickr.com/4042/5080416390_207c23b549_b.jpg" username="Olivier Bruchez" views="98" />
<photo  date_taken="2010-08-15 18:27:20" description="" id="5080416822" latitude="20.359225" license="5" longitude="-89.770503" nbComments="0" rank="60" tags="merida mexico northamerica america uxmal" title="Uxmal (Casa de las Tortugas)" url_b="http://static.flickr.com/4087/5080416822_22d1c09615_b.jpg" username="Olivier Bruchez" views="37" />
<photo  date_taken="2012-02-03 09:53:00" description="" id="6799696786" latitude="20.358687" license="3" longitude="-89.771915" nbComments="0" rank="61" tags="flickered 61305mm" title="Uxmal" url_b="http://static.flickr.com/7042/6799696786_5935f37a83_b.jpg" username="jeroenpots" views="0" />
<photo  date_taken="2012-02-03 10:39:34" description="" id="6799699344" latitude="20.358687" license="3" longitude="-89.771915" nbComments="0" rank="62" tags="flickered 61305mm" title="Uxmal" url_b="http://static.flickr.com/7039/6799699344_58dbbc4a45_b.jpg" username="jeroenpots" views="0" />
<photo  date_taken="2012-02-03 09:38:44" description="" id="6799692638" latitude="20.358687" license="3" longitude="-89.771915" nbComments="0" rank="63" tags="flickered 61305mm" title="Uxmal" url_b="http://static.flickr.com/7039/6799692638_c9b793e220_b.jpg" username="jeroenpots" views="0" />
<photo  date_taken="2012-12-26 11:48:38" description="" id="8350994847" latitude="20.359988" license="1" longitude="-89.770637" nbComments="0" rank="64" tags="" title="Uxmal" url_b="http://static.flickr.com/8084/8350994847_2b0db77bba_b.jpg" username="StarObs" views="12" />
<photo  date_taken="2011-07-16 11:49:18" description="" id="5971416569" latitude="20.360344" license="1" longitude="-89.771073" nbComments="0" rank="65" tags="uxmal 2011yucatan" title="ballcourt" url_b="http://static.flickr.com/6129/5971416569_5ee48c3ef8_b.jpg" username="alphaii" views="8" />
<photo  date_taken="2011-07-16 11:48:26" description="" id="5971416131" latitude="20.360344" license="1" longitude="-89.771073" nbComments="0" rank="66" tags="uxmal 2011yucatan" title="Nunnery Quadrangle" url_b="http://static.flickr.com/6145/5971416131_bc760cd0c1_b.jpg" username="alphaii" views="9" />
<photo  date_taken="2010-08-15 18:56:07" description="" id="5080424658" latitude="20.358575" license="5" longitude="-89.771809" nbComments="0" rank="67" tags="merida mexico northamerica america uxmal" title="Uxmal (Gran Pirámide)" url_b="http://static.flickr.com/4148/5080424658_c520e14136_b.jpg" username="Olivier Bruchez" views="58" />
<photo  date_taken="2010-08-15 18:45:37" description="" id="5079828213" latitude="20.358477" license="5" longitude="-89.771259" nbComments="0" rank="68" tags="merida mexico northamerica america uxmal" title="Uxmal (Palacio del Gobernador)" url_b="http://static.flickr.com/4049/5079828213_8ca952007a_b.jpg" username="Olivier Bruchez" views="116" />
<photo  date_taken="2011-07-16 11:53:29" description="" id="5971417235" latitude="20.360105" license="1" longitude="-89.770658" nbComments="0" rank="69" tags="uxmal 2011yucatan" title="Uxmal" url_b="http://static.flickr.com/6147/5971417235_4620eb7c5c_b.jpg" username="alphaii" views="8" />
<photo  date_taken="2012-12-26 12:19:51" description="" id="8352065756" latitude="20.358461" license="1" longitude="-89.771253" nbComments="0" rank="70" tags="" title="Uxmal" url_b="http://static.flickr.com/8215/8352065756_aa85f8c302_b.jpg" username="StarObs" views="12" />
<photo  date_taken="2011-05-13 10:39:47" description="Another texture for your Photoshopping fun (should make a pretty good wallpaper, too!)-- this one's from the steps of the Great Pyramid at &lt;a href=&quot;http://www.seldomscenephotography.com/pg2-ebooks/pg2-uxmal/&quot; rel=&quot;nofollow&quot;&gt;Uxmal&lt;/a&gt;, Mexico. Uploaded for free use under the terms of a Creative Commons license. If you use this texture in subsequent works, please link back to this image's Flickr page, and put a thumbnail of your creation in the comments here (so everybody else can see what you've done with it). Thanks!" id="6346877635" latitude="20.358608" license="4" longitude="-89.771971" nbComments="0" rank="71" tags="mexico méxico wallpaper archaeology texture gps geotagged ruins maya uxmal olympuse5 olympuszuikodigitaled714mmf40 ancient mayan" title="Great Pyramid steps" url_b="http://static.flickr.com/6237/6346877635_7d2a7e1e0a_b.jpg" username="Seldom Scene Photography" views="273" />
<photo  date_taken="2012-12-26 12:08:33" description="" id="8352063704" latitude="20.35843" license="1" longitude="-89.771028" nbComments="0" rank="72" tags="" title="Uxmal" url_b="http://static.flickr.com/8074/8352063704_055f394819_b.jpg" username="StarObs" views="11" />
<photo  date_taken="2011-05-05 22:11:27" description="" id="7025211027" latitude="20.360402" license="3" longitude="-89.770889" nbComments="0" rank="73" tags="uxmal yucatán mexique mx" title="DSC_9911.jpg" url_b="http://static.flickr.com/6225/7025211027_a2692ee357_b.jpg" username="bezineb5" views="3" />
<photo  date_taken="1981-12-07 11:36:46" description="" id="8330067599" latitude="20.359475" license="1" longitude="-89.770273" nbComments="0" rank="74" tags="mexico uxmal" title="Corbel arch entrance of Nunnery at Uxmal Kc 35-70mm 12-7-81" url_b="http://static.flickr.com/8492/8330067599_9aa87c6225_b.jpg" username="lamsongf" views="5" />
<photo  date_taken="1981-12-07 11:36:46" description="" id="8330091363" latitude="20.359475" license="1" longitude="-89.770273" nbComments="0" rank="75" tags="mexico uxmal" title="West wing of Nunnery at Uxmal in Mexico Kc 35-70mm 12-7-81" url_b="http://static.flickr.com/8498/8330091363_f827c396bf_b.jpg" username="lamsongf" views="2" />
<photo  date_taken="1981-12-07 11:36:46" description="" id="8330083833" latitude="20.359475" license="1" longitude="-89.770273" nbComments="0" rank="76" tags="mexico uxmal" title="Runins of buildings at Uxmal in Mexico Kc 35-70mm 12-7-81" url_b="http://static.flickr.com/8491/8330083833_302527f4c9_b.jpg" username="lamsongf" views="6" />
<photo  date_taken="1981-12-07 11:36:46" description="" id="8330085039" latitude="20.359475" license="1" longitude="-89.770273" nbComments="0" rank="77" tags="mexico uxmal" title="Sculptures on wall of Nunnery ruins at Uxmal in Mexico Kc 35-70mm 12-7-81" url_b="http://static.flickr.com/8352/8330085039_f82f6336c6_b.jpg" username="lamsongf" views="5" />
<photo  date_taken="1981-12-07 11:36:46" description="" id="8330079617" latitude="20.359475" license="1" longitude="-89.770273" nbComments="0" rank="78" tags="mexico uxmal" title="Pyramid of the Magician at Uxmal in Mexico Kc 35-70mm Kc 12-7-81" url_b="http://static.flickr.com/8353/8330079617_69cd49293e_b.jpg" username="lamsongf" views="3" />
<photo  date_taken="1981-12-07 11:36:46" description="" id="8330070193" latitude="20.359475" license="1" longitude="-89.770273" nbComments="0" rank="79" tags="mexico uxmal" title="Facade of Nunnery ruins at Uxmal in Mexico Kc 35-70mm 12-7-81" url_b="http://static.flickr.com/8074/8330070193_d1e0ce1bac_b.jpg" username="lamsongf" views="5" />
<photo  date_taken="1981-12-07 11:36:46" description="" id="8331144086" latitude="20.359475" license="1" longitude="-89.770273" nbComments="0" rank="80" tags="mexico uxmal" title="Two headed jaguar and east side of Governors Palace at Uxmal in Mexico Kc 35-70mm 12-7-81" url_b="http://static.flickr.com/8496/8331144086_fd47a811bf_b.jpg" username="lamsongf" views="2" />
<photo  date_taken="1981-12-07 11:36:46" description="" id="8331136528" latitude="20.359475" license="1" longitude="-89.770273" nbComments="0" rank="81" tags="mexico uxmal" title="Pyramid of the Magician at Uxmal in Mexico-01 Kc 35-70mm 12-7-81" url_b="http://static.flickr.com/8357/8331136528_9e53cc3783_b.jpg" username="lamsongf" views="5" />
<photo  date_taken="1981-12-07 11:36:46" description="" id="8331122808" latitude="20.359475" license="1" longitude="-89.770273" nbComments="0" rank="82" tags="mexico uxmal" title="Ballcourt Nunnery &amp; Pyramid of the Magician at Uxmal in Mexico Kc 35-70mm 12-7-81" url_b="http://static.flickr.com/8364/8331122808_d4869caecd_b.jpg" username="lamsongf" views="9" />
<photo  date_taken="1981-12-07 11:36:46" description="" id="8330064379" latitude="20.359475" license="1" longitude="-89.770273" nbComments="0" rank="83" tags="mexico uxmal" title="Ball court &amp; Palace of the Governor at Uxmal in Mexico Kc 35-70mm 12-7-81" url_b="http://static.flickr.com/8224/8330064379_52cd154b29_b.jpg" username="lamsongf" views="6" />
<photo  date_taken="1981-12-07 11:36:46" description="" id="8330076469" latitude="20.359475" license="1" longitude="-89.770273" nbComments="0" rank="84" tags="mexico uxmal" title="Pyramid of Magician at Uxmal in Mexico Kc 35-70mm 12-7-81" url_b="http://static.flickr.com/8078/8330076469_6d4488766b_b.jpg" username="lamsongf" views="4" />
<photo  date_taken="1981-12-07 11:36:46" description="" id="8330073123" latitude="20.359475" license="1" longitude="-89.770273" nbComments="0" rank="85" tags="mexico uxmal" title="Head in Serpent on wall of Nunnery at Uxmal in Mexico Kc 80-200mm 12-7-81" url_b="http://static.flickr.com/8084/8330073123_ce920eaccb_b.jpg" username="lamsongf" views="3" />
<photo  date_taken="1981-12-07 11:36:46" description="" id="8331131518" latitude="20.359475" license="1" longitude="-89.770273" nbComments="0" rank="86" tags="mexico uxmal" title="Nunnery ruins in late afternoon at Uxmal in Mexico Kc 12-7-81" url_b="http://static.flickr.com/8220/8331131518_277279b281_b.jpg" username="lamsongf" views="5" />
<photo  date_taken="1981-12-07 11:36:46" description="" id="8331125336" latitude="20.359475" license="1" longitude="-89.770273" nbComments="0" rank="87" tags="mexico uxmal" title="Entrance to Pyramid of the Magician at Uxmal in Mexico Kc 80-200mm 12-7-81" url_b="http://static.flickr.com/8492/8331125336_3fb4e72d4a_b.jpg" username="lamsongf" views="4" />
<photo  date_taken="1981-12-07 11:36:46" description="" id="8331121736" latitude="20.359475" license="1" longitude="-89.770273" nbComments="0" rank="88" tags="mexico uxmal" title="Ball Court and Nunnery at Uxmal in Mexico Kc 35-70mm 12-7-81" url_b="http://static.flickr.com/8074/8331121736_35b7fbb9b3_b.jpg" username="lamsongf" views="5" />
<photo  date_taken="1981-12-07 11:36:46" description="" id="8330086745" latitude="20.359475" license="1" longitude="-89.770273" nbComments="0" rank="89" tags="mexico uxmal" title="The Owl God &amp; 2 headed sepents on East wing of Nunnery at Uxmal in Mexico Kc 35-70mm 12-7-81" url_b="http://static.flickr.com/8504/8330086745_6bbd898076_b.jpg" username="lamsongf" views="2" />
<photo  date_taken="2012-12-26 12:23:43" description="" id="8352066228" latitude="20.35835" license="1" longitude="-89.77115" nbComments="0" rank="90" tags="" title="Uxmal" url_b="http://static.flickr.com/8513/8352066228_48dd488f4e_b.jpg" username="StarObs" views="12" />
<photo  date_taken="2010-08-15 18:44:55" description="" id="5079827757" latitude="20.358302" license="5" longitude="-89.771389" nbComments="0" rank="91" tags="merida mexico northamerica america uxmal" title="Uxmal (Palacio del Gobernador)" url_b="http://static.flickr.com/4071/5079827757_33f922d4fb_b.jpg" username="Olivier Bruchez" views="64" />
<photo  date_taken="2010-08-15 18:21:59" description="" id="5080415874" latitude="20.360502" license="5" longitude="-89.770937" nbComments="0" rank="92" tags="merida mexico northamerica america uxmal" title="Uxmal (Juego de Pelota)" url_b="http://static.flickr.com/4072/5080415874_16dc61dec9_b.jpg" username="Olivier Bruchez" views="40" />
<photo  date_taken="2010-08-15 19:07:58" description="" id="5079832805" latitude="20.3584" license="5" longitude="-89.771914" nbComments="0" rank="93" tags="merida mexico northamerica america uxmal" title="Uxmal (Gran Pirámide)" url_b="http://static.flickr.com/4026/5079832805_bb4acbf520_b.jpg" username="Olivier Bruchez" views="38" />
<photo  date_taken="2011-08-19 11:44:55" description="" id="6060905474" latitude="20.358473" license="4" longitude="-89.770699" nbComments="0" rank="94" tags="centralamerica maya merida mexico places thejaguarthrone uxmal yucatan geocountrys camera:make=canon exif:iso_speed=100 exif:aperture=ƒ45 geostate geocity geo:lat=20358473 geo:lon=89770699 camera:model=canonpowershotg12 exif:lens=61305mm exif:model=canonpowershotg12 exif:focal_length=305mm exif:make=canon" title="Uxmal-29" url_b="http://static.flickr.com/6193/6060905474_3e6e515d75_b.jpg" username="GOC53" views="10" />
<photo  date_taken="2010-08-15 19:09:30" description="" id="5079833329" latitude="20.358838" license="5" longitude="-89.772417" nbComments="0" rank="95" tags="merida mexico northamerica america uxmal" title="Uxmal" url_b="http://static.flickr.com/4086/5079833329_6116e70c29_b.jpg" username="Olivier Bruchez" views="75" />
<photo  date_taken="1981-12-07 11:36:46" description="" id="8330090407" latitude="20.360438" license="1" longitude="-89.770706" nbComments="0" rank="96" tags="mexico uxmal" title="West wall of the Governors Palace at Uxmal in Mexico Kc 80-200mm 12-7-81" url_b="http://static.flickr.com/8499/8330090407_0be03c7d9b_b.jpg" username="lamsongf" views="2" />
<photo  date_taken="2009-03-14 12:14:37" description="&lt;a href=&quot;http://en.wikipedia.org/wiki/Uxmal&quot;&gt;en.wikipedia.org/wiki/Uxmal&lt;/a&gt;" id="3442635820" latitude="20.358463" license="3" longitude="-89.770631" nbComments="0" rank="97" tags="maya mexiko ruinen uxmal 2kmsofuxmal yucatan mexico" title="@Uxmal" url_b="http://static.flickr.com/3190/3442635820_a5106aa97f_b.jpg" username="karma-police" views="95" />
<photo  date_taken="2011-07-16 12:05:59" description="" id="5971418769" latitude="20.35833" license="1" longitude="-89.77198" nbComments="0" rank="98" tags="uxmal 2011yucatan" title="La Gran Pirámide" url_b="http://static.flickr.com/6126/5971418769_472862fdcb_b.jpg" username="alphaii" views="13" />
<photo  date_taken="2011-07-16 12:20:22" description="" id="5971419761" latitude="20.35833" license="1" longitude="-89.77198" nbComments="0" rank="99" tags="uxmal 2011yucatan" title="Uxmal" url_b="http://static.flickr.com/6137/5971419761_d5fc9bd190_b.jpg" username="alphaii" views="7" />
<photo  date_taken="2011-07-16 12:40:08" description="" id="5971420621" latitude="20.35833" license="1" longitude="-89.77198" nbComments="0" rank="100" tags="uxmal 2011yucatan" title="Uxmal" url_b="http://static.flickr.com/6145/5971420621_ffeace69c4_b.jpg" username="alphaii" views="17" />
<photo  date_taken="1981-12-07 11:36:46" description="" id="8331145240" latitude="20.358186" license="1" longitude="-89.771264" nbComments="0" rank="101" tags="mexico uxmal" title="Unexcavated site at Chichen Itza in Mexico Kc 35-70mm 12-7-81" url_b="http://static.flickr.com/8504/8331145240_f55cab4e90_b.jpg" username="lamsongf" views="3" />
<photo  date_taken="2011-08-19 11:46:21" description="" id="6060355771" latitude="20.358305" license="4" longitude="-89.770793" nbComments="0" rank="102" tags="centralamerica maya merida mexico places thegovernorspalace thejaguarthrone uxmal yucatan exif:focal_length=18098mm exif:iso_speed=80 camera:make=canon geocity geostate exif:aperture=ƒ63 geo:lon=89770793400002 geocountrys geo:lat=20358305600001 exif:lens=61305mm exif:model=canonpowershotg12 camera:model=canonpowershotg12 exif:make=canon" title="Uxmal-30" url_b="http://static.flickr.com/6069/6060355771_f5c3392f34_b.jpg" username="GOC53" views="17" />
<photo  date_taken="2011-08-19 11:14:56" description="" id="6060878948" latitude="20.360624" license="4" longitude="-89.770859" nbComments="0" rank="103" tags="centralamerica maya merida mexico places theballgamecourt thegovernorspalace uxmal yucatan exif:iso_speed=80 camera:make=canon exif:aperture=ƒ40 geostate geo:lon=89770859 geocity geocountrys geo:lat=203606244 exif:lens=61305mm exif:focal_length=61mm exif:model=canonpowershotg12 camera:model=canonpowershotg12 exif:make=canon" title="Uxmal-19" url_b="http://static.flickr.com/6188/6060878948_ec41a9ffc0_b.jpg" username="GOC53" views="14" />
<photo  date_taken="2010-08-15 18:58:29" description="" id="5080425054" latitude="20.35833" license="5" longitude="-89.772062" nbComments="0" rank="104" tags="merida mexico northamerica america uxmal" title="Uxmal (view from the Gran Pirámide)" url_b="http://static.flickr.com/4131/5080425054_8793fdaba3_b.jpg" username="Olivier Bruchez" views="31" />
<photo  date_taken="2011-05-05 20:55:36" description="" id="6879103988" latitude="20.358455" license="3" longitude="-89.770539" nbComments="0" rank="105" tags="uxmal yucatán mexique mx" title="DSC_9882.jpg" url_b="http://static.flickr.com/7081/6879103988_03a572ff4d_b.jpg" username="bezineb5" views="12" />
<photo  date_taken="2011-05-05 21:20:11" description="" id="7025208949" latitude="20.358394" license="3" longitude="-89.772175" nbComments="0" rank="106" tags="uxmal yucatán mexique mx" title="DSC_9898.jpg" url_b="http://static.flickr.com/6214/7025208949_c93231ddb5_b.jpg" username="bezineb5" views="8" />
<photo  date_taken="2011-05-05 21:22:57" description="" id="6879107528" latitude="20.358413" license="3" longitude="-89.772223" nbComments="0" rank="107" tags="uxmal yucatán mexique mx" title="DSC_9899.jpg" url_b="http://static.flickr.com/7227/6879107528_ec00398fec_b.jpg" username="bezineb5" views="2" />
<photo  date_taken="2010-08-15 19:00:42" description="" id="5080426260" latitude="20.358352" license="5" longitude="-89.772178" nbComments="0" rank="108" tags="merida mexico northamerica america uxmal" title="Uxmal (Gran Pirámide)" url_b="http://static.flickr.com/4058/5080426260_85b03ca501_b.jpg" username="Olivier Bruchez" views="45" />
<photo  date_taken="2011-08-19 11:52:14" description="" id="6060913456" latitude="20.358885" license="4" longitude="-89.772629" nbComments="0" rank="109" tags="centralamerica maya merida mexico places thequadrangleofthedoves uxmal yucatan exif:iso_speed=80 camera:make=canon geocity geostate camera:model=canonpowershotg12 geo:lon=89772629 geocountrys exif:aperture=ƒ35 exif:focal_length=12074mm exif:lens=61305mm exif:model=canonpowershotg12 geo:lat=20358885 exif:make=canon" title="Uxmal-32" url_b="http://static.flickr.com/6061/6060913456_6712258211_b.jpg" username="GOC53" views="8" />
<photo  date_taken="2010-08-15 19:01:06" description="" id="5080426796" latitude="20.358338" license="5" longitude="-89.772181" nbComments="0" rank="110" tags="merida mexico northamerica america uxmal" title="Uxmal (view from the Gran Pirámide)" url_b="http://static.flickr.com/4051/5080426796_c31e315623_b.jpg" username="Olivier Bruchez" views="51" />
<photo  date_taken="2010-08-15 19:00:32" description="" id="5079831169" latitude="20.358358" license="5" longitude="-89.77222" nbComments="0" rank="111" tags="merida mexico northamerica america uxmal" title="Uxmal (&quot;pigeonnier&quot;)" url_b="http://static.flickr.com/4084/5079831169_6c0b1aff96_b.jpg" username="Olivier Bruchez" views="47" />
<photo  date_taken="2012-12-26 11:43:11" description="" id="8352058890" latitude="20.360658" license="1" longitude="-89.770603" nbComments="0" rank="112" tags="" title="Uxmal" url_b="http://static.flickr.com/8233/8352058890_166e639506_b.jpg" username="StarObs" views="12" />
<photo  date_taken="2011-08-19 11:50:50" description="" id="6060358423" latitude="20.358782" license="4" longitude="-89.772706" nbComments="0" rank="113" tags="centralamerica maya merida mexico places thequadrangleofthedoves uxmal yucatan exif:iso_speed=80 camera:make=canon geo:lat=203587828 geostate geo:lon=897727066 geocity geocountrys exif:lens=61305mm exif:aperture=ƒ32 exif:focal_length=61mm exif:model=canonpowershotg12 camera:model=canonpowershotg12 exif:make=canon" title="Uxmal-31" url_b="http://static.flickr.com/6197/6060358423_f40268103a_b.jpg" username="GOC53" views="11" />
<photo  date_taken="2012-12-26 12:41:33" description="" id="8352068968" latitude="20.36035" license="1" longitude="-89.770192" nbComments="0" rank="114" tags="" title="Uxmal" url_b="http://static.flickr.com/8048/8352068968_d7b142c1a2_b.jpg" username="StarObs" views="13" />
<photo  date_taken="2012-12-26 12:30:34" description="" id="8352067266" latitude="20.358747" license="1" longitude="-89.772792" nbComments="0" rank="115" tags="" title="Uxmal" url_b="http://static.flickr.com/8377/8352067266_e8c76e32b5_b.jpg" username="StarObs" views="13" />
<photo  date_taken="2011-08-19 12:00:12" description="" id="6060918594" latitude="20.360449" license="4" longitude="-89.770158" nbComments="0" rank="116" tags="centralamerica maya merida mexico places thenunsquadrangle uxmal yucatan exif:iso_speed=80 camera:make=canon geocity geostate geocountrys exif:lens=61305mm exif:aperture=ƒ56 geo:lat=203604498 exif:focal_length=305mm geo:lon=897701582 exif:model=canonpowershotg12 camera:model=canonpowershotg12 exif:make=canon" title="Uxmal-34" url_b="http://static.flickr.com/6086/6060918594_4cf3ac16d5_b.jpg" username="GOC53" views="18" />
<photo  date_taken="2011-07-16 12:18:41" description="" id="5971419311" latitude="20.358571" license="1" longitude="-89.772771" nbComments="0" rank="117" tags="uxmal 2011yucatan" title="Uxmal" url_b="http://static.flickr.com/6029/5971419311_a01596dcba_b.jpg" username="alphaii" views="10" />
<photo  date_taken="2012-12-26 12:34:57" description="" id="8351004101" latitude="20.358475" license="1" longitude="-89.772728" nbComments="0" rank="118" tags="" title="Uxmal" url_b="http://static.flickr.com/8043/8351004101_418eaaf8eb_b.jpg" username="StarObs" views="12" />
<photo  date_taken="2011-08-19 10:59:04" description="" id="6060861956" latitude="20.360691" license="4" longitude="-89.770248" nbComments="0" rank="119" tags="centralamerica maya merida mexico places pyramidofthesoothsayer uxmal yucatan exif:iso_speed=80 camera:make=canon geocity geostate geo:lon=89770248 geo:lat=20360691 geocountrys exif:aperture=ƒ35 exif:lens=61305mm exif:focal_length=61mm exif:model=canonpowershotg12 camera:model=canonpowershotg12 exif:make=canon" title="Uxmal-12" url_b="http://static.flickr.com/6206/6060861956_e35eef3309_b.jpg" username="GOC53" views="19" />
<photo  date_taken="2012-12-26 12:32:25" description="" id="8351003287" latitude="20.358419" license="1" longitude="-89.7728" nbComments="0" rank="120" tags="" title="Uxmal" url_b="http://static.flickr.com/8230/8351003287_0b8f7b1038_b.jpg" username="StarObs" views="15" />
<photo  date_taken="2012-12-26 12:32:42" description="" id="8352068074" latitude="20.358386" license="1" longitude="-89.772828" nbComments="0" rank="121" tags="" title="Uxmal" url_b="http://static.flickr.com/8091/8352068074_abda0ac2d7_b.jpg" username="StarObs" views="13" />
<photo  date_taken="2010-08-15 17:50:27" description="" id="5079815875" latitude="20.360869" license="5" longitude="-89.770289" nbComments="0" rank="122" tags="merida mexico northamerica america uxmal" title="Uxmal" url_b="http://static.flickr.com/4152/5079815875_85ab0c9c69_b.jpg" username="Olivier Bruchez" views="42" />
<photo  date_taken="2012-12-26 11:35:12" description="" id="8352057402" latitude="20.360972" license="1" longitude="-89.770378" nbComments="0" rank="123" tags="" title="Uxmal" url_b="http://static.flickr.com/8336/8352057402_7fbb818b2c_b.jpg" username="StarObs" views="8" />
<photo  date_taken="2011-05-05 20:04:00" description="" id="7025203343" latitude="20.358547" license="3" longitude="-89.773009" nbComments="0" rank="124" tags="uxmal yucatán mexique mx" title="DSC_9861.jpg" url_b="http://static.flickr.com/7064/7025203343_0d9561b8a2_b.jpg" username="bezineb5" views="2" />
<photo  date_taken="2012-12-26 11:35:37" description="" id="8352057654" latitude="20.360863" license="1" longitude="-89.770195" nbComments="0" rank="125" tags="" title="Uxmal" url_b="http://static.flickr.com/8359/8352057654_59e600d9c5_b.jpg" username="StarObs" views="10" />
<photo  date_taken="2009-03-14 10:52:14" description="&lt;a href=&quot;http://en.wikipedia.org/wiki/Uxmal&quot;&gt;en.wikipedia.org/wiki/Uxmal&lt;/a&gt;" id="3441818375" latitude="20.361244" license="3" longitude="-89.770942" nbComments="0" rank="126" tags="maya mexiko ruinen uxmal 1kmsofuxmal yucatan mexico" title="@Uxmal" url_b="http://static.flickr.com/3549/3441818375_c8325fd632_b.jpg" username="karma-police" views="46" />
<photo  date_taken="2011-05-05 22:25:29" description="" id="6879110568" latitude="20.360938" license="3" longitude="-89.770289" nbComments="0" rank="127" tags="uxmal yucatán mexique mx" title="DSC_9922.jpg" url_b="http://static.flickr.com/6049/6879110568_12506ac04f_b.jpg" username="bezineb5" views="2" />
<photo  date_taken="2010-08-15 17:59:21" description="" id="5080411896" latitude="20.36103" license="5" longitude="-89.770423" nbComments="0" rank="128" tags="merida mexico northamerica america uxmal" title="Uxmal (Cuadrángulo de las Monjas)" url_b="http://static.flickr.com/4017/5080411896_4e193bb129_b.jpg" username="Olivier Bruchez" views="45" />
<photo  date_taken="2009-03-14 10:41:33" description="&lt;a href=&quot;http://en.wikipedia.org/wiki/Uxmal&quot;&gt;en.wikipedia.org/wiki/Uxmal&lt;/a&gt;" id="3442632886" latitude="20.360805" license="3" longitude="-89.770112" nbComments="0" rank="129" tags="maya mexiko ruinen uxmal 1kmsofuxmal yucatan mexico" title="@Uxmal" url_b="http://static.flickr.com/3641/3442632886_4221580d9e_b.jpg" username="karma-police" views="59" />
<photo  date_taken="2011-08-19 11:00:34" description="" id="6060311605" latitude="20.36092" license="4" longitude="-89.77021" nbComments="0" rank="130" tags="centralamerica maya merida mexico places pyramidofthesoothsayer uxmal yucatan exif:iso_speed=80 camera:make=canon geocity geostate camera:model=canonpowershotg12 exif:lens=61305mm geocountrys exif:aperture=ƒ35 geo:lon=8977021 exif:focal_length=61mm exif:model=canonpowershotg12 geo:lat=2036092 exif:make=canon" title="Uxmal-13" url_b="http://static.flickr.com/6203/6060311605_edff32f503_b.jpg" username="GOC53" views="12" />
<photo  date_taken="2012-12-26 11:33:37" description="" id="8352057060" latitude="20.36113" license="1" longitude="-89.770528" nbComments="0" rank="131" tags="" title="Uxmal" url_b="http://static.flickr.com/8336/8352057060_2a25702af6_b.jpg" username="StarObs" views="9" />
<photo  date_taken="2011-05-05 22:20:49" description="" id="6879109356" latitude="20.361144" license="3" longitude="-89.770548" nbComments="0" rank="132" tags="uxmal yucatán mexique mx" title="DSC_9918.jpg" url_b="http://static.flickr.com/6103/6879109356_6f9ecb146b_b.jpg" username="bezineb5" views="2" />
<photo  date_taken="2012-12-26 11:20:31" description="" id="8350990263" latitude="20.360772" license="1" longitude="-89.770025" nbComments="0" rank="133" tags="" title="Uxmal" url_b="http://static.flickr.com/8096/8350990263_eb417e48fe_b.jpg" username="StarObs" views="8" />
<photo  date_taken="2010-08-15 17:55:09" description="" id="5080411206" latitude="20.360927" license="5" longitude="-89.770192" nbComments="0" rank="134" tags="merida mexico northamerica america uxmal" title="Uxmal" url_b="http://static.flickr.com/4044/5080411206_8003174609_b.jpg" username="Olivier Bruchez" views="40" />
<photo  date_taken="2009-03-14 10:58:35" description="" id="3441818963" latitude="20.361294" license="3" longitude="-89.770867" nbComments="0" rank="135" tags="saurian echse maya mexiko ruinen uxmal 1kmsofuxmal yucatan mexico" title="saurian" url_b="http://static.flickr.com/3583/3441818963_a08d97957a_b.jpg" username="karma-police" views="34" />
<photo  date_taken="1981-12-07 20:26:29" description="" id="8330092737" latitude="20.361286" license="1" longitude="-89.770834" nbComments="0" rank="136" tags="mexico uxmal" title="Illuminated Pyramid of the Magician and Nunnery at Uxmal 12-7-81" url_b="http://static.flickr.com/8222/8330092737_c988a9f96d_b.jpg" username="lamsongf" views="4" />
<photo  date_taken="1981-12-07 20:26:29" description="" id="8331149596" latitude="20.361286" license="1" longitude="-89.770834" nbComments="0" rank="137" tags="mexico uxmal" title="Illuminated top of Pyramid of the Magician at Uxmal 12-7-81" url_b="http://static.flickr.com/8491/8331149596_de8e55c1b1_b.jpg" username="lamsongf" views="3" />
<photo  date_taken="1981-12-07 20:26:29" description="" id="8330094403" latitude="20.361286" license="1" longitude="-89.770834" nbComments="0" rank="138" tags="mexico uxmal" title="Illuminated west wing of the Nunnery building atUxmal-01 12-7-81" url_b="http://static.flickr.com/8351/8330094403_c8e9f762b6_b.jpg" username="lamsongf" views="2" />
<photo  date_taken="1981-12-07 20:26:29" description="" id="8331151146" latitude="20.361286" license="1" longitude="-89.770834" nbComments="0" rank="139" tags="mexico uxmal" title="Illuminated west wing of the Nunnery ruin atUxmal-02 12-7-81" url_b="http://static.flickr.com/8356/8331151146_227c685de1_b.jpg" username="lamsongf" views="2" />
<photo  date_taken="2010-08-15 18:00:13" description="" id="5080412354" latitude="20.361122" license="5" longitude="-89.770409" nbComments="0" rank="140" tags="merida mexico northamerica america uxmal" title="Uxmal (Cuadrángulo de las Monjas)" url_b="http://static.flickr.com/4063/5080412354_b871f9ded6_b.jpg" username="Olivier Bruchez" views="39" />
<photo  date_taken="2012-12-26 11:22:11" description="" id="8352055072" latitude="20.360761" license="1" longitude="-89.769948" nbComments="0" rank="141" tags="" title="Uxmal" url_b="http://static.flickr.com/8212/8352055072_ed2f627e48_b.jpg" username="StarObs" views="11" />
<photo  date_taken="2010-08-15 17:55:00" description="" id="5080410706" latitude="20.360936" license="5" longitude="-89.770123" nbComments="0" rank="142" tags="merida mexico northamerica america uxmal" title="Uxmal" url_b="http://static.flickr.com/4054/5080410706_d66472d3e3_b.jpg" username="Olivier Bruchez" views="42" />
<photo  date_taken="2012-12-26 11:23:12" description="" id="8352055310" latitude="20.360838" license="1" longitude="-89.770014" nbComments="0" rank="143" tags="" title="Uxmal" url_b="http://static.flickr.com/8470/8352055310_3f56b91732_b.jpg" username="StarObs" views="8" />
<photo  date_taken="2011-05-05 22:26:54" description="" id="7025214283" latitude="20.36085" license="3" longitude="-89.770014" nbComments="0" rank="144" tags="uxmal yucatán mexique mx" title="DSC_9923.jpg" url_b="http://static.flickr.com/7246/7025214283_96002f9e84_b.jpg" username="bezineb5" views="3" />
<photo  date_taken="2010-08-15 18:15:58" description="" id="5079821115" latitude="20.361372" license="5" longitude="-89.770887" nbComments="0" rank="145" tags="merida mexico northamerica america uxmal" title="Uxmal (Cuadrángulo de las Monjas)" url_b="http://static.flickr.com/4064/5079821115_f5f0a66e55_b.jpg" username="Olivier Bruchez" views="41" />
<photo  date_taken="2011-08-19 10:55:02" description="" id="6060306875" latitude="20.360844" license="4" longitude="-89.769966" nbComments="0" rank="146" tags="centralamerica maya merida mexico places thenunsquadrangle uxmal yucatan exif:iso_speed=80 camera:make=canon geocity geostate exif:aperture=ƒ63 exif:lens=61305mm geocountrys geo:lat=20360844 exif:focal_length=12074mm geo:lon=89769966 exif:model=canonpowershotg12 camera:model=canonpowershotg12 exif:make=canon" title="Uxmal-11" url_b="http://static.flickr.com/6065/6060306875_2bd71efbc6_b.jpg" username="GOC53" views="13" />
<photo  date_taken="2010-08-15 17:46:52" description="" id="5080409808" latitude="20.361016" license="5" longitude="-89.770156" nbComments="0" rank="147" tags="merida mexico northamerica america uxmal" title="Uxmal (Pirámide del Adivino)" url_b="http://static.flickr.com/4004/5080409808_65675a73c7_b.jpg" username="Olivier Bruchez" views="41" />
<photo  date_taken="2011-08-19 11:09:48" description="" id="6060321253" latitude="20.361408" license="4" longitude="-89.770936" nbComments="0" rank="148" tags="centralamerica maya merida mexico places thenunsquadrangle uxmal yucatan geo:lon=897709366 exif:aperture=ƒ80 exif:iso_speed=80 camera:make=canon geocity geostate exif:focal_length=89mm geocountrys geo:lat=203614088 exif:lens=61305mm exif:model=canonpowershotg12 camera:model=canonpowershotg12 exif:make=canon" title="Uxmal-17" url_b="http://static.flickr.com/6209/6060321253_d7a4fc0377_b.jpg" username="GOC53" views="14" />
<photo  date_taken="2012-12-26 11:19:52" description="" id="8350989919" latitude="20.360941" license="1" longitude="-89.770039" nbComments="0" rank="149" tags="" title="Uxmal" url_b="http://static.flickr.com/8079/8350989919_bd90560718_b.jpg" username="StarObs" views="7" />
<photo  date_taken="2012-12-26 11:32:30" description="" id="8352056786" latitude="20.361366" license="1" longitude="-89.770687" nbComments="0" rank="150" tags="" title="Uxmal" url_b="http://static.flickr.com/8514/8352056786_6a66aed26a_b.jpg" username="StarObs" views="8" />
</photos>
